[
  {
    "id": "10325",
    "name": "Pret A Manger",
    "address": "37 Shelton Street",
    "city": "London",
    "postcode": "WC2H 9HN",
    "latitude": 51.51468871,
    "longitude": -0.12496523,
    "status": "open",
    "openingHours": "Mon-Fri: 06:30-20:00, Sat: 07:30-20:00, Sun: 08:00-18:30",
    "phone": "+44 20 7932 5466",
    "brand": "pret"
  },
  {
    "id": "10439",
    "name": "Pret A Manger",
    "address": "14 Warren Street",
    "city": "London",
    "postcode": "W1T 5LL",
    "latitude": 51.5241459,
    "longitude": -0.1389788,
    "status": "open",
    "openingHours": "Mon-Wed: 06:00-18:00, Thu: 06:00-18:30, Fri: 06:00-17:30, Sat: 07:00-16:30, Sun: Closed",
    "phone": "+44 20 7387 6661",
    "brand": "pret"
  },
  {
    "id": "10145",
    "name": "Pret A Manger",
    "address": "67 Tottenham Court Road",
    "city": "London",
    "postcode": "W1T 2EY",
    "latitude": 51.5202627,
    "longitude": -0.1342397,
    "status": "open",
    "openingHours": "Mon-Fri: 06:30-18:00, Sat-Sun: Closed",
    "phone": "+44 20 7932 5205",
    "brand": "pret"
  },
  {
    "id": "10560",
    "name": "Pret A Manger",
    "address": "Euston Road, Retail Unit 26 & 27, The Circle, St Pancras International",
    "city": "London",
    "postcode": "N1C 4QP",
    "latitude": 51.531427,
    "longitude": -0.126133,
    "status": "open",
    "openingHours": "Mon-Sun: Closed",
    "phone": "+44 20 7278 2563",
    "brand": "pret"
  },
  {
    "id": "10317",
    "name": "Pret A Manger",
    "address": "York Way, Kings Cross Station, Unit Cg08",
    "city": "London",
    "postcode": "N1C 9AP",
    "latitude": 51.53154315,
    "longitude": -0.12457351,
    "status": "open",
    "openingHours": "Mon-Sat: 05:00-24:00, Sun: 05:30-24:00",
    "phone": "+44 20 7932 5465",
    "brand": "pret"
  },
  {
    "id": "10563",
    "name": "Pret A Manger",
    "address": "Euston Road, Unit 1 Southern Square",
    "city": "London",
    "postcode": "N1C 4AP",
    "latitude": 51.527607,
    "longitude": -0.1331756,
    "status": "open",
    "openingHours": "Mon-Thu: 06:00-21:00, Fri: 06:00-24:00, Sat: 00:00-23:59, Sun: 00:00-21:00",
    "phone": "+44 20 7278 8054",
    "brand": "pret"
  },
  {
    "id": "10567",
    "name": "Pret A Manger",
    "address": "116 Lothian Road",
    "city": "Edinburgh",
    "postcode": "EH3 9BE",
    "latitude": 55.9459618,
    "longitude": -3.2058397,
    "status": "open",
    "openingHours": "Mon-Fri: 06:30-17:00, Sat: 08:30-16:00, Sun: Closed",
    "phone": "+44 131 228 2169",
    "brand": "pret"
  },
  {
    "id": "10555",
    "name": "Pret A Manger",
    "address": "26 Edgware Road",
    "city": "London",
    "postcode": "W2 2EH",
    "latitude": 51.5137263,
    "longitude": -0.160508,
    "status": "open",
    "openingHours": "Mon-Fri: 06:00-21:00, Sat-Sun: 07:30-21:00",
    "phone": "+44 20 7723 1141",
    "brand": "pret"
  },
  {
    "id": "10438",
    "name": "Pret A Manger",
    "address": "217 Strand",
    "city": "London",
    "postcode": "WC2R 1AT",
    "latitude": 51.5132807,
    "longitude": -0.1127745,
    "status": "open",
    "openingHours": "Mon: 06:30-21:00, Tue-Fri: 06:00-21:00, Sat-Sun: 07:00-19:00",
    "phone": "+44 20 7936 4839",
    "brand": "pret"
  },
  {
    "id": "10433",
    "name": "Pret A Manger",
    "address": "35-37 King's Road",
    "city": "London",
    "postcode": "SW3 4NB",
    "latitude": 51.49020613,
    "longitude": -0.16199477,
    "status": "open",
    "openingHours": "Mon-Fri: 05:00-21:00, Sat: 06:30-20:00, Sun: 07:00-19:00",
    "phone": "+44 20 7730 9655",
    "brand": "pret"
  },
  {
    "id": "10440",
    "name": "Pret A Manger",
    "address": "12 Parkfield Street, Islington",
    "city": "London",
    "postcode": "N1 0PS",
    "latitude": 51.5342006,
    "longitude": -0.1060342,
    "status": "open",
    "openingHours": "Mon-Fri: 06:30-20:30, Sat-Sun: 07:00-20:30",
    "phone": "+44 20 7226 4292",
    "brand": "pret"
  },
  {
    "id": "10680",
    "name": "Pret A Manger",
    "address": "Eastfield Avenue, Edinburgh Airport, Airside",
    "city": "Edinburgh",
    "postcode": "EH12 9DN",
    "latitude": 55.94879058,
    "longitude": -3.36381354,
    "status": "open",
    "openingHours": "Mon-Sun: 04:00-22:00",
    "phone": "+44 131 333 1714",
    "brand": "pret"
  },
  {
    "id": "10578",
    "name": "Pret A Manger",
    "address": "Marylebone Road, Baker Street Tube",
    "city": "London",
    "postcode": "NW1 5LA",
    "latitude": 51.52267336,
    "longitude": -0.15630102,
    "status": "open",
    "openingHours": "Mon-Fri: 06:45-18:00, Sat-Sun: 08:00-17:00",
    "phone": "+44 20 7486 2023",
    "brand": "pret"
  },
  {
    "id": "10382",
    "name": "Pret A Manger",
    "address": "Unit GO1A Waterloo Station, Main Concourse, Main Concourse, Unit GO1A, Waterloo Station",
    "city": "London",
    "postcode": "SE1 7NQ",
    "latitude": 51.5032988,
    "longitude": -0.1124044,
    "status": "open",
    "openingHours": "Mon-Fri: 05:00-24:00, Sat: 05:30-23:00, Sun: 05:30-22:30",
    "phone": "+44 20 7633 9233",
    "brand": "pret"
  },
  {
    "id": "10444",
    "name": "Pret A Manger",
    "address": "Paddington Subway Sta, Paddington Station, Unit 26, Platform 1",
    "city": "London",
    "postcode": "W2 1HB",
    "latitude": 51.5166744,
    "longitude": -0.1769328,
    "status": "open",
    "openingHours": "Mon-Fri: 04:30-22:30, Sat: 05:00-22:00, Sun: 06:00-22:00",
    "phone": "+44 20 7262 9784",
    "brand": "pret"
  },
  {
    "id": "10445",
    "name": "Pret A Manger",
    "address": "Whitecross Street, Unit 1, City Shopping Centre",
    "city": "London",
    "postcode": "EC1Y 8NX",
    "latitude": 51.5220227,
    "longitude": -0.0924261,
    "status": "open",
    "openingHours": "Mon-Fri: 07:00-16:00, Sat: 08:00-16:00, Sun: 08:30-16:00",
    "phone": "+44 20 7256 8280",
    "brand": "pret"
  },
  {
    "id": "10657",
    "name": "Pret A Manger",
    "address": "St Thomas St, Railway Approach, London Bridge Station",
    "city": "London",
    "postcode": "SE1 9SP",
    "latitude": 51.5046203181577,
    "longitude": -0.0859852813422683,
    "status": "open",
    "openingHours": "Mon-Fri: 05:00-23:30, Sat: 05:30-23:30, Sun: 06:00-23:30",
    "phone": "+44 20 7378 0366",
    "brand": "pret"
  },
  {
    "id": "10413",
    "name": "Pret A Manger",
    "address": "21 Station Street",
    "city": "London",
    "postcode": "E15 1DA",
    "latitude": 51.5416798,
    "longitude": -0.0026537,
    "status": "open",
    "openingHours": "Mon-Sat: 05:00-22:00, Sun: 06:00-21:30",
    "phone": "+44 20 8519 6859",
    "brand": "pret"
  },
  {
    "id": "10200",
    "name": "Pret A Manger",
    "address": "60 The Trafford Centre, Selfridges",
    "city": "Manchester",
    "postcode": "M17 8DA",
    "latitude": 53.4664691,
    "longitude": -2.3472996,
    "status": "open",
    "openingHours": "Mon-Fri: 09:00-21:30, Sat: 09:00-20:30, Sun: 11:30-17:30",
    "phone": "+44 161 755 0942",
    "brand": "pret"
  },
  {
    "id": "10140",
    "name": "Pret A Manger",
    "address": "4 Hardman Square, Spinningfields",
    "city": "Manchester",
    "postcode": "M3 3EB",
    "latitude": 53.47981987,
    "longitude": -2.25192072,
    "status": "open",
    "openingHours": "Mon-Fri: 06:30-18:00, Sat-Sun: Closed",
    "phone": "+44 161 832 1471",
    "brand": "pret"
  },
  {
    "id": "10530",
    "name": "Pret A Manger",
    "address": "Hartmann Road, London City Airport, Retail Unit , Gate 3",
    "city": "London",
    "postcode": "E16 2PX",
    "latitude": 51.50397136,
    "longitude": 0.04858966,
    "status": "open",
    "openingHours": "Mon-Fri: 05:00-22:00, Sat: 05:00-12:00, Sun: 11:00-22:00",
    "phone": "+44 20 7511 1736",
    "brand": "pret"
  },
  {
    "id": "10316",
    "name": "Pret A Manger",
    "address": "13 Hanover Square",
    "city": "London",
    "postcode": "W1S 1HN",
    "latitude": 51.5145178,
    "longitude": -0.1439031,
    "status": "open",
    "openingHours": "Mon-Fri: 05:30-21:30, Sat: 06:00-21:00, Sun: 07:00-21:00",
    "phone": "+44 20 7932 5464",
    "brand": "pret"
  },
  {
    "id": "10261",
    "name": "Pret A Manger",
    "address": "341 Kentish Town Road",
    "city": "London",
    "postcode": "NW5 2TJ",
    "latitude": 51.5505322,
    "longitude": -0.1409513,
    "status": "open",
    "openingHours": "Mon-Fri: 06:15-18:30, Sat: 06:30-18:00, Sun: 07:00-17:00",
    "phone": "+44 20 7932 5383",
    "brand": "pret"
  },
  {
    "id": "10659",
    "name": "Pret A Manger",
    "address": "Airport Approach Road, Airside Departure Lounge",
    "city": "Luton",
    "postcode": "LU2 9LY",
    "latitude": 51.88056977,
    "longitude": -0.37525119,
    "status": "open",
    "openingHours": "Mon-Sun: 05:00-20:00",
    "phone": "+44 1582 730224",
    "brand": "pret"
  },
  {
    "id": "102",
    "name": "Pret A Manger",
    "address": "Wilton Road, Unit 36B, Victoria Station",
    "city": "London",
    "postcode": "SW1V 1JU",
    "latitude": 51.49534556,
    "longitude": -0.14390863,
    "status": "open",
    "openingHours": "Mon: 05:30-21:30, Tue-Sat: 05:30-22:00, Sun: 05:30-21:30",
    "phone": "+44 20 7932 5318",
    "brand": "pret"
  },
  {
    "id": "10322",
    "name": "Pret A Manger",
    "address": "Westway, Clarks Village Street, Unit 37D",
    "city": "Somerset",
    "postcode": "BA16 0BB",
    "latitude": 51.129095,
    "longitude": -2.740114,
    "status": "open",
    "openingHours": "Mon-Wed: 08:30-19:00, Thu: 08:30-20:00, Fri-Sat: 08:30-19:00, Sun: 09:00-17:30",
    "phone": "+44 1458 445406",
    "brand": "pret"
  },
  {
    "id": "10519",
    "name": "Pret A Manger",
    "address": "Ramp Road South, Terminal 1, Unit C6",
    "city": "Manchester",
    "postcode": "M90 1QX",
    "latitude": 53.3619363,
    "longitude": -2.2729717,
    "status": "open",
    "openingHours": "Mon-Sun: 03:30-20:00",
    "phone": "+44 161 437 3453",
    "brand": "pret"
  },
  {
    "id": "10385",
    "name": "Pret A Manger",
    "address": "2-4 Circus Road",
    "city": "London",
    "postcode": "NW8 6PG",
    "latitude": 51.53421,
    "longitude": -0.1716,
    "status": "open",
    "openingHours": "Mon: 06:00-19:00, Tue: 05:30-19:30, Wed: 05:30-20:00, Thu: 06:00-19:30, Fri: 06:00-19:00, Sat: 06:00-18:30, Sun: 06:30-18:00",
    "phone": "+44 20 7483 4433",
    "brand": "pret"
  },
  {
    "id": "104",
    "name": "Pret A Manger",
    "address": "65 Notting Hill Gate",
    "city": "London",
    "postcode": "W11 3JS",
    "latitude": 51.50899,
    "longitude": -0.1967,
    "status": "open",
    "openingHours": "Mon-Fri: 05:30-21:00, Sat: 06:00-20:30, Sun: 06:30-19:30",
    "phone": "+44 20 7041 9040",
    "brand": "pret"
  },
  {
    "id": "10607",
    "name": "Pret A Manger",
    "address": "231 Camden High Street",
    "city": "London",
    "postcode": "NW1 7BU",
    "latitude": 51.5400930557987,
    "longitude": -0.143954340401493,
    "status": "open",
    "openingHours": "Mon-Fri: 06:00-20:00, Sat: 06:00-21:00, Sun: 07:00-20:00",
    "phone": "+44 20 7267 1845",
    "brand": "pret"
  },
  {
    "id": "10388",
    "name": "Pret A Manger",
    "address": "27-29 Eagle Walk, Intu Shopping Centre",
    "city": "Milton Keynes",
    "postcode": "MK9 3AJ",
    "latitude": 52.04448591,
    "longitude": -0.75343527,
    "status": "open",
    "openingHours": "Mon-Sat: 07:30-19:30, Sun: 08:30-17:30",
    "phone": "+44 1908 665811",
    "brand": "pret"
  },
  {
    "id": "10387",
    "name": "Pret A Manger",
    "address": "85-87 Clarence Street, Kingston",
    "city": "Kingston upon Thames",
    "postcode": "KT1 1RB",
    "latitude": 51.41095,
    "longitude": -0.30413,
    "status": "open",
    "openingHours": "Mon-Fri: 06:00-18:30, Sat: 06:30-19:00, Sun: 07:00-18:00",
    "phone": "+44 20 8541 5834",
    "brand": "pret"
  },
  {
    "id": "106",
    "name": "Pret A Manger",
    "address": "143 Fleet Street",
    "city": "London",
    "postcode": "EC4Y 1HY",
    "latitude": 51.514351,
    "longitude": -0.10709,
    "status": "open",
    "openingHours": "Mon-Thu: 06:00-19:00, Fri: 06:30-18:00, Sat-Sun: Closed",
    "phone": "+44 20 7932 5323",
    "brand": "pret"
  },
  {
    "id": "211",
    "name": "Pret A Manger",
    "address": "62-63 Fenchurch Street, Vitro Building",
    "city": "London",
    "postcode": "EC3M 4AQ",
    "latitude": 51.5121214,
    "longitude": -0.079606,
    "status": "open",
    "openingHours": "Mon-Thu: 05:30-19:00, Fri: 05:30-17:00, Sat-Sun: Closed",
    "phone": "+44 20 7932 5348",
    "brand": "pret"
  },
  {
    "id": "219",
    "name": "Pret A Manger",
    "address": "62-65 Trafalgar Square",
    "city": "London",
    "postcode": "WC2N 5DS",
    "latitude": 51.507312,
    "longitude": -0.128631,
    "status": "open",
    "openingHours": "Mon-Fri: 05:30-21:00, Sat: 05:30-20:30, Sun: 06:00-20:00",
    "phone": "+44 20 7932 5350",
    "brand": "pret"
  },
  {
    "id": "10435",
    "name": "Pret A Manger",
    "address": "55 Bishopsgate",
    "city": "London",
    "postcode": "EC2N 3AS",
    "latitude": 51.5153832,
    "longitude": -0.0826456,
    "status": "open",
    "openingHours": "Mon-Thu: 05:30-20:00, Fri: 05:30-18:00, Sat: 08:00-17:00, Sun: Closed",
    "phone": "+44 20 7374 6420",
    "brand": "pret"
  },
  {
    "id": "54",
    "name": "Pret A Manger",
    "address": "Pingle Drive, Unit 450",
    "city": "Bicester",
    "postcode": "OX26 6WD",
    "latitude": 51.89225558,
    "longitude": -1.15653069,
    "status": "open",
    "openingHours": "Mon-Sat: 09:00-21:30, Sun: 10:00-19:30",
    "phone": "+44 1869 241069",
    "brand": "pret"
  },
  {
    "id": "10175",
    "name": "Pret A Manger",
    "address": "Canada Place, Unit 7, Building DS4, Canary Wharf",
    "city": "London",
    "postcode": "E14 5NN",
    "latitude": 51.505043,
    "longitude": -0.01904,
    "status": "open",
    "openingHours": "Mon-Thu: 05:30-16:00, Fri: 05:30-15:00, Sat-Sun: Closed",
    "phone": "+44 20 7513 1963",
    "brand": "pret"
  },
  {
    "id": "223",
    "name": "Pret A Manger",
    "address": "31 Cavendish Square",
    "city": "London",
    "postcode": "W1G 0PW",
    "latitude": 51.5159343,
    "longitude": -0.144161545,
    "status": "open",
    "openingHours": "Mon-Thu: 06:00-19:30, Fri: 06:00-19:00, Sat: 07:30-18:00, Sun: 08:00-17:00",
    "phone": "+44 20 7629 7946",
    "brand": "pret"
  },
  {
    "id": "174",
    "name": "Pret A Manger",
    "address": "136 Great Portland Street",
    "city": "London",
    "postcode": "W1W 6PY",
    "latitude": 51.5202708,
    "longitude": -0.1426412,
    "status": "open",
    "openingHours": "Mon-Thu: 06:00-19:00, Fri: 06:00-18:30, Sat: 06:30-17:30, Sun: 07:00-16:30",
    "phone": "+44 20 7323 9440",
    "brand": "pret"
  },
  {
    "id": "265",
    "name": "Pret A Manger",
    "address": "173 Victoria Street",
    "city": "London",
    "postcode": "SW1E 5NA",
    "latitude": 51.4963349,
    "longitude": -0.1421851,
    "status": "open",
    "openingHours": "Mon-Thu: 05:30-21:00, Fri-Sat: 06:00-21:00, Sun: 06:30-21:00",
    "phone": "+44 20 7827 8882",
    "brand": "pret"
  },
  {
    "id": "10434",
    "name": "Pret A Manger",
    "address": "5 Pall Mall East",
    "city": "London",
    "postcode": "SW1Y 5BA",
    "latitude": 51.5082321,
    "longitude": -0.130062,
    "status": "open",
    "openingHours": "Mon-Fri: 06:00-20:00, Sat: 07:00-19:30, Sun: 08:00-18:30",
    "phone": "+44 20 7839 3995",
    "brand": "pret"
  },
  {
    "id": "10479",
    "name": "Pret A Manger",
    "address": "Pier Four Road North, Unit 20709, North Terminal, Pier 6",
    "city": "Gatwick",
    "postcode": "RH6 0NP",
    "latitude": 51.15965019,
    "longitude": -0.17801046,
    "status": "open",
    "openingHours": "Mon-Sun: 04:30-20:00",
    "phone": "+44 1293 579464",
    "brand": "pret"
  },
  {
    "id": "10401",
    "name": "Pret A Manger",
    "address": "34 Oxford Street",
    "city": "Manchester",
    "postcode": "M1 5EL",
    "latitude": 53.4762759909001,
    "longitude": -2.24299833969689,
    "status": "open",
    "openingHours": "Mon: 06:30-19:00, Tue-Thu: 06:30-19:30, Fri: 06:30-18:30, Sat: 07:30-18:30, Sun: 08:00-17:00",
    "phone": "+44 161 228 7965",
    "brand": "pret"
  },
  {
    "id": "156",
    "name": "Pret A Manger",
    "address": "132 Brompton Road",
    "city": "London",
    "postcode": "SW3 1HY",
    "latitude": 51.498756,
    "longitude": -0.1657017,
    "status": "open",
    "openingHours": "Mon-Fri: 07:00-19:00, Sat-Sun: 08:00-17:00",
    "phone": "+44 20 7932 5337",
    "brand": "pret"
  },
  {
    "id": "10437",
    "name": "Pret A Manger",
    "address": "93-95 Victoria Street",
    "city": "London",
    "postcode": "SW1H 0HW",
    "latitude": 51.4973714,
    "longitude": -0.1353875,
    "status": "open",
    "openingHours": "Mon-Fri: 05:30-19:30, Sat: 06:00-19:30, Sun: 06:30-19:30",
    "phone": "+44 20 7222 6293",
    "brand": "pret"
  },
  {
    "id": "92",
    "name": "Pret A Manger",
    "address": "Euston Road, Euston Tower Podium, Unit 1",
    "city": "London",
    "postcode": "NW1 3DP",
    "latitude": 51.52532627,
    "longitude": -0.1392553,
    "status": "open",
    "openingHours": "Mon: 06:00-18:00, Tue-Thu: 05:30-19:00, Fri: 06:00-17:00, Sat-Sun: Closed",
    "phone": "+44 20 3583 3860",
    "brand": "pret"
  },
  {
    "id": "10402",
    "name": "Pret A Manger",
    "address": "1 Commercial Street",
    "city": "London",
    "postcode": "E1 6BF",
    "latitude": 51.5155828325732,
    "longitude": -0.0728276799831688,
    "status": "open",
    "openingHours": "Mon-Fri: 05:30-19:30, Sat: 06:30-18:00, Sun: 07:00-17:00",
    "phone": "+44 20 7092 9114",
    "brand": "pret"
  },
  {
    "id": "10114",
    "name": "Pret A Manger",
    "address": "117 Euston Road, Euston Station",
    "city": "London",
    "postcode": "NW1 2SX",
    "latitude": 51.528334,
    "longitude": -0.1275658,
    "status": "open",
    "openingHours": "Mon-Fri: 06:00-20:30, Sat: 06:00-19:00, Sun: 07:00-18:30",
    "phone": "+44 20 7932 5256",
    "brand": "pret"
  },
  {
    "id": "86",
    "name": "Pret A Manger",
    "address": "244 Great Portland Street",
    "city": "London",
    "postcode": "W1W 5QX",
    "latitude": 51.5234251,
    "longitude": -0.1438496,
    "status": "open",
    "openingHours": "Mon-Fri: 05:30-20:30, Sat: 06:00-20:30, Sun: 06:00-20:00",
    "phone": "+44 20 7932 5301",
    "brand": "pret"
  },
  {
    "id": "10414",
    "name": "Pret A Manger",
    "address": "280 High Holborn",
    "city": "London",
    "postcode": "WC1V 7EE",
    "latitude": 51.5176869698502,
    "longitude": -0.117104594327442,
    "status": "open",
    "openingHours": "Mon-Thu: 06:00-18:30, Fri: 06:00-18:00, Sat: 08:00-17:00, Sun: Closed",
    "phone": "+44 20 7405 4290",
    "brand": "pret"
  },
  {
    "id": "10418",
    "name": "Pret A Manger",
    "address": "11-15 Borough High Street",
    "city": "London",
    "postcode": "SE1 9SE",
    "latitude": 51.505535500031876,
    "longitude": -0.08874475089940473,
    "status": "open",
    "openingHours": "Mon-Thu: 05:30-20:30, Fri: 05:30-20:00, Sat: 05:30-19:30, Sun: 06:30-19:00",
    "phone": "+44 20 7089 9067",
    "brand": "pret"
  },
  {
    "id": "10173",
    "name": "Pret A Manger",
    "address": "Canada Square, Canary Wharf, RT2, Unit 10, Canada Place Mall",
    "city": "London",
    "postcode": "E14 5NN",
    "latitude": 51.5066381,
    "longitude": -0.0278379,
    "status": "open",
    "openingHours": "Mon-Thu: 05:30-20:00, Fri: 05:30-19:30, Sat: 08:30-18:30, Sun: 09:00-18:00",
    "phone": "+44 20 7932 5435",
    "brand": "pret"
  },
  {
    "id": "10179",
    "name": "Pret A Manger",
    "address": "3 Derby Square",
    "city": "Liverpool",
    "postcode": "L2 9UJ",
    "latitude": 53.4054242,
    "longitude": -2.9896093,
    "status": "open",
    "openingHours": "Mon-Fri: 07:00-18:00, Sat: 08:00-17:30, Sun: 08:30-17:00",
    "phone": "+44 151 236 9964",
    "brand": "pret"
  },
  {
    "id": "10436",
    "name": "Pret A Manger",
    "address": "Cribbs Causeway, The Mall",
    "city": "Bristol",
    "postcode": "BS34 5DG",
    "latitude": 51.525576,
    "longitude": -2.595577,
    "status": "open",
    "openingHours": "Mon-Sat: 08:30-20:00, Sun: 09:00-17:00",
    "phone": "+44 117 959 0326",
    "brand": "pret"
  },
  {
    "id": "284",
    "name": "Pret A Manger",
    "address": "40 Bernard Street",
    "city": "London",
    "postcode": "WC1N 1LE",
    "latitude": 51.5233079,
    "longitude": -0.1248167,
    "status": "open",
    "openingHours": "Mon-Sun: 05:00-23:00",
    "phone": "+44 20 7932 5374",
    "brand": "pret"
  },
  {
    "id": "10556",
    "name": "Pret A Manger",
    "address": "40 Vauxhall Bridge Road",
    "city": "London",
    "postcode": "SW1V 2RX",
    "latitude": 51.49033402,
    "longitude": -0.13257288,
    "status": "open",
    "openingHours": "Mon-Fri: 06:00-18:30, Sat: 06:30-17:30, Sun: 07:00-16:00",
    "phone": "+44 20 7828 2102",
    "brand": "pret"
  },
  {
    "id": "10526",
    "name": "Pret A Manger",
    "address": "77-80 Gracechurch Street",
    "city": "London",
    "postcode": "EC3V 0AS",
    "latitude": 51.5122786596993,
    "longitude": -0.0846698130406552,
    "status": "open",
    "openingHours": "Mon: 06:00-18:00, Tue-Thu: 06:00-19:00, Fri: 06:00-17:30, Sat: 07:00-17:30, Sun: 08:00-16:00",
    "phone": "+44 20 7220 7519",
    "brand": "pret"
  },
  {
    "id": "10527",
    "name": "Pret A Manger",
    "address": "Elephant and Castle, 1 The Elephant, Elephant & Castle",
    "city": "London",
    "postcode": "SE1 6BH",
    "latitude": 51.4933641,
    "longitude": -0.098685,
    "status": "open",
    "openingHours": "Mon-Fri: 05:30-20:00, Sat: 06:30-18:30, Sun: 07:00-19:00",
    "phone": "+44 20 7582 8429",
    "brand": "pret"
  },
  {
    "id": "10394",
    "name": "Pret A Manger",
    "address": "95 Farringdon Road",
    "city": "London",
    "postcode": "EC1R 3BT",
    "latitude": 51.5224201,
    "longitude": -0.1075039,
    "status": "open",
    "openingHours": "Mon-Thu: 06:00-18:00, Fri: 06:00-17:30, Sat: 08:00-16:00, Sun: Closed",
    "phone": "+44 20 7713 8885",
    "brand": "pret"
  },
  {
    "id": "10521",
    "name": "Pret A Manger",
    "address": "8B Leather Lane",
    "city": "London",
    "postcode": "EC1N 7RA",
    "latitude": 51.51858703,
    "longitude": -0.10883632,
    "status": "open",
    "openingHours": "Mon-Thu: 06:00-18:00, Fri: 06:00-17:00, Sat-Sun: Closed",
    "phone": "+44 20 7242 5622",
    "brand": "pret"
  },
  {
    "id": "10553",
    "name": "Pret A Manger",
    "address": "32 Victoria Street",
    "city": "Bristol",
    "postcode": "BS1 6BX",
    "latitude": 51.45280417,
    "longitude": -2.58834124,
    "status": "open",
    "openingHours": "Mon: 06:00-16:30, Tue-Thu: 06:00-18:00, Fri: 06:00-16:30, Sat-Sun: Closed",
    "phone": "+44 117 316 9238",
    "brand": "pret"
  },
  {
    "id": "10523",
    "name": "Pret A Manger",
    "address": "Stocker Road",
    "city": "Exeter",
    "postcode": "EX4 4SZ",
    "latitude": 50.7351473065558,
    "longitude": -3.53440574159748,
    "status": "open",
    "openingHours": "Mon-Fri: 07:30-20:00, Sat: 08:30-19:00, Sun: 09:00-17:00",
    "phone": "+44 1392 271691",
    "brand": "pret"
  },
  {
    "id": "10568",
    "name": "Pret A Manger",
    "address": "Unit 3 Gower Building Burgess Road, Unit 3 Gower Building",
    "city": "Southampton",
    "postcode": "SO17 1TW",
    "latitude": 50.9377295,
    "longitude": -1.3974389,
    "status": "open",
    "openingHours": "Mon-Thu: 06:30-17:00, Fri: 06:30-17:30, Sat-Sun: 04:00-04:01",
    "phone": "+44 20 3937 7832",
    "brand": "pret"
  },
  {
    "id": "95",
    "name": "Pret A Manger",
    "address": "11-13 Holborn Viaduct, Fleetplate House",
    "city": "London",
    "postcode": "EC1A 2AT",
    "latitude": 51.51661319,
    "longitude": -0.1036033,
    "status": "open",
    "openingHours": "Mon-Thu: 05:30-19:00, Fri: 05:30-18:00, Sat-Sun: Closed",
    "phone": "+44 20 3201 0046",
    "brand": "pret"
  },
  {
    "id": "66",
    "name": "Pret A Manger",
    "address": "Saint Nicholas Avenue, McArthur Glen Designer Outlet, Unit F8",
    "city": "York",
    "postcode": "YO19 4TA",
    "latitude": 53.9222232,
    "longitude": -1.077677,
    "status": "open",
    "openingHours": "Mon-Sat: 09:00-20:00, Sun: 09:00-18:00",
    "phone": "+44 1904 639899",
    "brand": "pret"
  },
  {
    "id": "10538",
    "name": "Pret A Manger",
    "address": "Saint Lawrence Street, Unit S015",
    "city": "Bath",
    "postcode": "BA1 1AP",
    "latitude": 51.37855681,
    "longitude": -2.35838849,
    "status": "open",
    "openingHours": "Mon-Thu: 07:00-18:00, Fri: 07:00-18:30, Sat: 07:30-19:00, Sun: 08:30-17:00",
    "phone": "+44 1225 319092",
    "brand": "pret"
  },
  {
    "id": "10670",
    "name": "Pret A Manger",
    "address": "80-82 Saint John's Road",
    "city": "London",
    "postcode": "SW11 1PX",
    "latitude": 51.4613402,
    "longitude": -0.1674908,
    "status": "open",
    "openingHours": "Mon-Fri: 06:30-16:30, Sat: 07:30-17:00, Sun: 07:30-16:30",
    "phone": "+44 20 7228 5413",
    "brand": "pret"
  },
  {
    "id": "10539",
    "name": "Pret A Manger",
    "address": "23 Bignells Corner, M25 Junction, Potters Bar",
    "city": "Potters Bar",
    "postcode": "EN6 3QQ",
    "latitude": 51.6874815183803,
    "longitude": -0.221872018104517,
    "status": "open",
    "openingHours": "Mon-Sun: 07:00-17:00",
    "phone": "+44 1707 659443",
    "brand": "pret"
  },
  {
    "id": "293",
    "name": "Pret A Manger",
    "address": "30 Gresham Street, Unit 3",
    "city": "London",
    "postcode": "EC2V 7PG",
    "latitude": 51.51416,
    "longitude": -0.0931504,
    "status": "open",
    "openingHours": "Mon-Thu: 06:00-18:00, Fri: 06:00-16:00, Sat-Sun: Closed",
    "phone": "+44 20 7932 5209",
    "brand": "pret"
  },
  {
    "id": "10682",
    "name": "Pret A Manger",
    "address": "9 Argyll Street",
    "city": "London",
    "postcode": "W1F 7TG",
    "latitude": 51.5147514,
    "longitude": -0.1405998,
    "status": "open",
    "openingHours": "Mon-Sat: 06:00-22:00, Sun: 07:00-21:00",
    "phone": "+44 20 3937 7831",
    "brand": "pret"
  },
  {
    "id": "10536",
    "name": "Pret A Manger",
    "address": "High Road, Wood Green, Unit 23, The Mall",
    "city": "London",
    "postcode": "N22 6YA",
    "latitude": 51.5944812912075,
    "longitude": -0.108530129673587,
    "status": "open",
    "openingHours": "Mon-Sat: 06:30-19:30, Sun: 07:30-18:30",
    "phone": "+44 20 8889 1347",
    "brand": "pret"
  },
  {
    "id": "10643",
    "name": "Pret A Manger",
    "address": "Cray Avenue, Central Hub, Nugent Shopping Park",
    "city": "Orpington",
    "postcode": "BR5 3RP",
    "latitude": 51.39298068,
    "longitude": 0.11250255,
    "status": "open",
    "openingHours": "Mon-Fri: 06:30-17:00, Sat: 07:30-17:00, Sun: 08:00-16:30",
    "phone": "+44 1689 820172",
    "brand": "pret"
  },
  {
    "id": "10277",
    "name": "Pret A Manger",
    "address": "Cromer Road West, Unit Ru3059, Heathrow Terminal 3",
    "city": "Hounslow",
    "postcode": "TW6 1QG",
    "latitude": 51.47157037,
    "longitude": -0.45796032,
    "status": "open",
    "openingHours": "Mon-Sun: 04:30-22:00",
    "phone": "+44 20 8759 8971",
    "brand": "pret"
  },
  {
    "id": "10644",
    "name": "Pret A Manger",
    "address": "1 Church Street, 23 Market Place",
    "city": "Kingston upon Thames",
    "postcode": "KT1 1JP",
    "latitude": 51.41008166,
    "longitude": -0.3058201,
    "status": "open",
    "openingHours": "Mon-Fri: 07:00-17:00, Sat: 07:30-18:00, Sun: 08:00-17:00",
    "phone": "+44 20 8549 9125",
    "brand": "pret"
  },
  {
    "id": "10286",
    "name": "Pret A Manger",
    "address": "54-60 York Way",
    "city": "London",
    "postcode": "N1 9AB",
    "latitude": 51.5333608,
    "longitude": -0.12221597,
    "status": "open",
    "openingHours": "Mon-Thu: 05:30-18:00, Fri: 05:30-16:30, Sat-Sun: 06:30-16:30",
    "phone": "+44 20 7932 5452",
    "brand": "pret"
  },
  {
    "id": "10683",
    "name": "Pret A Manger",
    "address": "42 Selborne Road, Walthamstow, Unit 59-60 The Mall",
    "city": "London",
    "postcode": "E17 7JR",
    "latitude": 51.583618,
    "longitude": -0.0223932,
    "status": "open",
    "openingHours": "Mon-Fri: 07:00-18:00, Sat: 07:00-18:30, Sun: 07:30-18:00",
    "phone": "+44 20 8520 3630",
    "brand": "pret"
  },
  {
    "id": "10701",
    "name": "Pret A Manger",
    "address": "Blackfriars Bridge, Blackfriars Bridge",
    "city": "London",
    "postcode": "EC4V 4DD",
    "latitude": 51.51023921,
    "longitude": -0.10327176,
    "status": "open",
    "openingHours": "Mon-Thu: 06:00-23:30, Fri: 06:00-22:30, Sat: 07:30-17:30, Sun: 07:30-18:00",
    "phone": "+44 20 7236 4660",
    "brand": "pret"
  },
  {
    "id": "10639",
    "name": "Pret A Manger",
    "address": "417 Brixton Road",
    "city": "London",
    "postcode": "SW9 8HE",
    "latitude": 51.4630531,
    "longitude": -0.1145677,
    "status": "open",
    "openingHours": "Mon-Fri: 05:30-19:30, Sat: 06:00-19:30, Sun: 06:30-19:00",
    "phone": "+44 20 7737 3809",
    "brand": "pret"
  },
  {
    "id": "10466",
    "name": "Pret A Manger",
    "address": "125 Old Broad Street",
    "city": "London",
    "postcode": "EC2N 1DW",
    "latitude": 51.5148276,
    "longitude": -0.0861277,
    "status": "open",
    "openingHours": "Mon-Thu: 05:30-19:00, Fri: 05:30-17:00, Sat-Sun: Closed",
    "phone": "+44 20 7374 4550",
    "brand": "pret"
  },
  {
    "id": "285",
    "name": "Pret A Manger",
    "address": "Moor Street, Upper Mall East",
    "city": "Birmingham",
    "postcode": "B5 4BP",
    "latitude": 52.4780701,
    "longitude": -1.8928407,
    "status": "open",
    "openingHours": "Mon-Fri: 09:30-20:00, Sat: 09:00-21:00, Sun: 10:00-17:30",
    "phone": "+44 121 600 6957",
    "brand": "pret"
  },
  {
    "id": "10297",
    "name": "Pret A Manger",
    "address": "Swindon Road, Terminal 4, Heathrow Airport, International Departure Lounge",
    "city": "Heathrow",
    "postcode": "TW6 3XA",
    "latitude": 51.4597978,
    "longitude": -0.4462066,
    "status": "open",
    "openingHours": "Mon-Sun: 05:00-22:00",
    "phone": "+44 7876 881673",
    "brand": "pret"
  },
  {
    "id": "6",
    "name": "Pret A Manger",
    "address": "21 Crown Passage",
    "city": "London",
    "postcode": "SW1Y 6PP",
    "latitude": 51.5057851,
    "longitude": -0.13803,
    "status": "open",
    "openingHours": "Mon-Thu: 06:00-17:00, Fri: 06:00-16:30, Sat-Sun: Closed",
    "phone": "+44 20 7839 1883",
    "brand": "pret"
  },
  {
    "id": "89",
    "name": "Pret A Manger",
    "address": "15 Theobalds Road",
    "city": "London",
    "postcode": "WC1X 8SL",
    "latitude": 51.52039,
    "longitude": -0.1170943,
    "status": "open",
    "openingHours": "Mon: 06:30-16:30, Tue-Thu: 06:30-17:00, Fri: 06:30-16:00, Sat-Sun: Closed",
    "phone": "+44 20 7932 5304",
    "brand": "pret"
  },
  {
    "id": "10778",
    "name": "Pret A Manger",
    "address": "Kingsland High Street, Western Curve, Dalston",
    "city": "London",
    "postcode": "E8 2JS",
    "latitude": 51.5472836,
    "longitude": -0.07575948,
    "status": "open",
    "openingHours": "Mon-Fri: 06:30-19:00, Sat: 07:00-19:00, Sun: 07:00-18:30",
    "phone": "+44 20 7254 4701",
    "brand": "pret"
  },
  {
    "id": "10638",
    "name": "Pret A Manger",
    "address": "135 Princes Street",
    "city": "Edinburgh",
    "postcode": "EH2 4BL",
    "latitude": 55.95057925,
    "longitude": -3.20627863,
    "status": "open",
    "openingHours": "Mon-Fri: 06:30-17:30, Sat-Sun: 07:30-16:30",
    "phone": "+44 131 225 6761",
    "brand": "pret"
  },
  {
    "id": "10750",
    "name": "Pret A Manger",
    "address": "2A Southwark Bridge Road, Unit 3,Bankside",
    "city": "London",
    "postcode": "SE1 9HA",
    "latitude": 51.5080668,
    "longitude": -0.0950272,
    "status": "open",
    "openingHours": "Mon-Fri: 06:30-20:00, Sat-Sun: 08:00-20:00",
    "phone": "+44 20 3268 2185",
    "brand": "pret"
  },
  {
    "id": "85",
    "name": "Pret A Manger",
    "address": "Orchard Street, Unit 3, Portman Square House",
    "city": "London",
    "postcode": "W1H 6HJ",
    "latitude": 51.51505727,
    "longitude": -0.15461801,
    "status": "open",
    "openingHours": "Mon-Sun: Closed",
    "phone": "+44 20 7932 5300",
    "brand": "pret"
  },
  {
    "id": "10768",
    "name": "Pret A Manger",
    "address": "70 Chiswell Street",
    "city": "London",
    "postcode": "EC1Y 4AB",
    "latitude": 51.5205175,
    "longitude": -0.0894169,
    "status": "open",
    "openingHours": "Mon: 06:00-17:30, Tue-Thu: 06:00-19:00, Fri: 06:00-17:00, Sat-Sun: Closed",
    "phone": "+44 20 7256 9686",
    "brand": "pret"
  },
  {
    "id": "10461",
    "name": "Pret A Manger",
    "address": "1 Three Quays Walk, Lower Thames Street",
    "city": "London",
    "postcode": "EC3R 6AH",
    "latitude": 51.5081307,
    "longitude": -0.0792881,
    "status": "open",
    "openingHours": "Mon-Fri: 06:00-20:30, Sat-Sun: 06:30-20:30",
    "phone": "+44 20 7929 7408",
    "brand": "pret"
  },
  {
    "id": "74",
    "name": "Pret A Manger",
    "address": "25 Saint Mary Axe",
    "city": "London",
    "postcode": "EC3A 8AA",
    "latitude": 51.5147144,
    "longitude": -0.0810238,
    "status": "open",
    "openingHours": "Mon-Thu: 05:30-19:30, Fri: 05:30-18:00, Sat: 08:00-16:00, Sun: Closed",
    "phone": "+44 20 7929 4188",
    "brand": "pret"
  },
  {
    "id": "10580",
    "name": "Pret A Manger",
    "address": "Old Brompton Road, South Kensington Tube",
    "city": "London",
    "postcode": "SW7 2NB",
    "latitude": 51.49349409,
    "longitude": -0.17424993,
    "status": "open",
    "openingHours": "Mon-Fri: 06:00-19:30, Sat: 09:00-17:00, Sun: 09:00-16:00",
    "phone": "+44 20 7591 0437",
    "brand": "pret"
  },
  {
    "id": "10600",
    "name": "Pret A Manger",
    "address": "Princes Street, Unit 2b, Edinburgh Waverley Station",
    "city": "Edinburgh",
    "postcode": "EH1 1BB",
    "latitude": 55.951998,
    "longitude": -3.1899862,
    "status": "open",
    "openingHours": "Mon-Fri: 05:30-21:00, Sat: 07:00-18:00, Sun: 08:00-18:00",
    "phone": "+44 131 261 5818",
    "brand": "pret"
  },
  {
    "id": "10181",
    "name": "Pret A Manger",
    "address": "24 Wigmore Street",
    "city": "London",
    "postcode": "W1U 2RJ",
    "latitude": 51.5167416,
    "longitude": -0.147475,
    "status": "open",
    "openingHours": "Mon-Thu: 06:00-20:00, Fri: 06:00-19:00, Sat: 07:00-18:00, Sun: Closed",
    "phone": "+44 20 7932 5291",
    "brand": "pret"
  },
  {
    "id": "10333",
    "name": "Pret A Manger",
    "address": "81 Piccadilly",
    "city": "London",
    "postcode": "W1J 8HY",
    "latitude": 51.5066547,
    "longitude": -0.1435076,
    "status": "open",
    "openingHours": "Mon-Sat: 05:30-23:00, Sun: 05:30-22:30",
    "phone": "+44 20 7495 6264",
    "brand": "pret"
  },
  {
    "id": "10505",
    "name": "Pret A Manger",
    "address": "New Station Street",
    "city": "Leeds",
    "postcode": "LS1 5DL",
    "latitude": 53.795404,
    "longitude": -1.547506,
    "status": "open",
    "openingHours": "Mon-Fri: 05:00-21:00, Sat: 06:30-20:30, Sun: 07:30-19:30",
    "phone": "+44 113 244 2612",
    "brand": "pret"
  },
  {
    "id": "10342",
    "name": "Pret A Manger",
    "address": "144-146 Queen Street",
    "city": "Glasgow",
    "postcode": "G1 3BS",
    "latitude": 55.8607073,
    "longitude": -4.2513791,
    "status": "open",
    "openingHours": "Mon: 06:30-16:00, Tue-Thu: 06:30-16:30, Fri: 06:30-16:00, Sat-Sun: Closed",
    "phone": "+44 141 221 7602",
    "brand": "pret"
  },
  {
    "id": "10189",
    "name": "Pret A Manger",
    "address": "A4044, Cabot Circus, Unit Su50G",
    "city": "Bristol",
    "postcode": "BS1 3BD",
    "latitude": 51.458887,
    "longitude": -2.584915,
    "status": "open",
    "openingHours": "Mon-Fri: 07:00-18:30, Sat: 07:30-18:30, Sun: 08:30-18:00",
    "phone": "+44 117 929 9201",
    "brand": "pret"
  },
  {
    "id": "10166",
    "name": "Pret A Manger",
    "address": "47 Great Peter Street",
    "city": "London",
    "postcode": "SW1P 3LT",
    "latitude": 51.4968357,
    "longitude": -0.1291979,
    "status": "open",
    "openingHours": "Mon-Fri: 06:00-19:00, Sat: 07:30-17:00, Sun: 07:30-16:00",
    "phone": "+44 20 7932 5401",
    "brand": "pret"
  },
  {
    "id": "50",
    "name": "Pret A Manger",
    "address": "1 Great Tower Street",
    "city": "London",
    "postcode": "EC3R 5AA",
    "latitude": 51.510212,
    "longitude": -0.0825844,
    "status": "open",
    "openingHours": "Mon-Thu: 06:00-18:30, Fri: 06:00-17:30, Sat-Sun: Closed",
    "phone": "+44 20 7932 5265",
    "brand": "pret"
  },
  {
    "id": "10222",
    "name": "Pret A Manger",
    "address": "Retail Unit 2 Regent Street, Retail Unit 2",
    "city": "London",
    "postcode": "SW1Y 4PE",
    "latitude": 51.5082595,
    "longitude": -0.132851,
    "status": "open",
    "openingHours": "Mon-Fri: 05:30-20:00, Sat: 06:00-19:30, Sun: 06:30-18:00",
    "phone": "+44 20 7932 5309",
    "brand": "pret"
  },
  {
    "id": "10180",
    "name": "Pret A Manger",
    "address": "4 Paradise Street, Unit 56a",
    "city": "Liverpool",
    "postcode": "L1 8BQ",
    "latitude": 53.4035574,
    "longitude": -2.986558,
    "status": "open",
    "openingHours": "Mon-Fri: 08:00-20:00, Sat: 08:00-19:30, Sun: 08:30-18:00",
    "phone": "+44 151 709 7850",
    "brand": "pret"
  },
  {
    "id": "10665",
    "name": "Pret A Manger",
    "address": "Euston Road, St Pancras International Station, Unit 61",
    "city": "London",
    "postcode": "N1C 4QL",
    "latitude": 51.531427,
    "longitude": -0.126133,
    "status": "open",
    "openingHours": "Mon-Sat: 05:30-23:00, Sun: 07:30-22:30",
    "phone": "+44 20 7278 6134",
    "brand": "pret"
  },
  {
    "id": "10469",
    "name": "Pret A Manger",
    "address": "Woburn Walk, Unit 2, Lynton House",
    "city": "London",
    "postcode": "WC1H 9LT",
    "latitude": 51.525418,
    "longitude": -0.128429,
    "status": "open",
    "openingHours": "Mon-Fri: 06:30-18:00, Sat-Sun: 08:00-16:30",
    "phone": "+44 20 7387 2186",
    "brand": "pret"
  },
  {
    "id": "10186",
    "name": "Pret A Manger",
    "address": "51 Borough High Street",
    "city": "London",
    "postcode": "SE1 1NB",
    "latitude": 51.5047554,
    "longitude": -0.0897945,
    "status": "open",
    "openingHours": "Mon-Fri: 06:30-19:00, Sat: 07:30-17:30, Sun: Closed",
    "phone": "+44 20 7932 5392",
    "brand": "pret"
  },
  {
    "id": "57",
    "name": "Pret A Manger",
    "address": "192 Bishopsgate",
    "city": "London",
    "postcode": "EC2M 4NR",
    "latitude": 51.5179108,
    "longitude": -0.0797849,
    "status": "open",
    "openingHours": "Mon-Fri: 05:00-22:30, Sat-Sun: 05:30-20:30",
    "phone": "+44 20 7932 5272",
    "brand": "pret"
  },
  {
    "id": "10570",
    "name": "Pret A Manger",
    "address": "1 Old Hall Street",
    "city": "Liverpool",
    "postcode": "L3 9SX",
    "latitude": 53.4081801,
    "longitude": -2.9930611,
    "status": "open",
    "openingHours": "Mon-Fri: 07:00-15:30, Sat-Sun: Closed",
    "phone": "+44 151 236 9933",
    "brand": "pret"
  },
  {
    "id": "10540",
    "name": "Pret A Manger",
    "address": "10 Bressenden Place",
    "city": "London",
    "postcode": "SW1E 5DU",
    "latitude": 51.49808713,
    "longitude": -0.14270927,
    "status": "open",
    "openingHours": "Mon-Thu: 06:00-19:00, Fri: 06:00-18:30, Sat-Sun: 08:00-17:00",
    "phone": "+44 7867 349080",
    "brand": "pret"
  },
  {
    "id": "10187",
    "name": "Pret A Manger",
    "address": "129A Wilton Road",
    "city": "London",
    "postcode": "SW1V 1JZ",
    "latitude": 51.4943291,
    "longitude": -0.1424848,
    "status": "open",
    "openingHours": "Mon: 05:30-20:00, Tue-Fri: 05:30-20:30, Sat: 06:00-20:30, Sun: 06:00-20:00",
    "phone": "+44 20 7630 0146",
    "brand": "pret"
  },
  {
    "id": "10185",
    "name": "Pret A Manger",
    "address": "57 Great Eastern Street",
    "city": "London",
    "postcode": "EC2A 3QD",
    "latitude": 51.524587,
    "longitude": -0.08116903,
    "status": "open",
    "openingHours": "Mon: 07:00-17:00, Tue-Thu: 07:00-18:30, Fri: 07:00-17:00, Sat: 08:00-16:30, Sun: 08:30-16:00",
    "phone": "+44 20 7932 5393",
    "brand": "pret"
  },
  {
    "id": "10668",
    "name": "Pret A Manger",
    "address": "1 Newhall Street",
    "city": "Birmingham",
    "postcode": "B3 3NH",
    "latitude": 52.4811861695447,
    "longitude": -1.90112024058191,
    "status": "open",
    "openingHours": "Mon: 06:30-16:00, Tue-Thu: 06:30-16:30, Fri: 06:30-16:00, Sat-Sun: Closed",
    "phone": "+44 121 233 0976",
    "brand": "pret"
  },
  {
    "id": "58",
    "name": "Pret A Manger",
    "address": "85 Aldgate High Street",
    "city": "London",
    "postcode": "EC3N 1LH",
    "latitude": 51.51363,
    "longitude": -0.07623,
    "status": "open",
    "openingHours": "Mon-Thu: 05:30-21:00, Fri: 05:30-20:30, Sat: 05:30-18:30, Sun: 06:00-18:00",
    "phone": "+44 20 7932 5273",
    "brand": "pret"
  },
  {
    "id": "10743",
    "name": "Pret A Manger",
    "address": "78 Hatton Garden",
    "city": "London",
    "postcode": "EC1N 8JS",
    "latitude": 51.5200923,
    "longitude": -0.1088443,
    "status": "open",
    "openingHours": "Mon-Fri: 06:00-17:30, Sat-Sun: Closed",
    "phone": "+44 20 7242 3062",
    "brand": "pret"
  },
  {
    "id": "10753",
    "name": "Pret A Manger",
    "address": "350 Euston Road, Regent's Place",
    "city": "London",
    "postcode": "NW1 3AX",
    "latitude": 51.52431229,
    "longitude": -0.1423136,
    "status": "open",
    "openingHours": "Mon: 07:00-15:00, Tue-Thu: 07:00-16:00, Fri: 07:00-15:00, Sat-Sun: Closed",
    "phone": "+44 20 7387 1284",
    "brand": "pret"
  },
  {
    "id": "63",
    "name": "Pret A Manger",
    "address": "27 Cross Street",
    "city": "Manchester",
    "postcode": "M2 1WL",
    "latitude": 53.48188255,
    "longitude": -2.24428964,
    "status": "open",
    "openingHours": "Mon: 06:30-18:30, Tue-Thu: 06:30-19:00, Fri: 06:30-18:30, Sat: 08:00-19:00, Sun: 09:00-17:00",
    "phone": "+44 161 839 5602",
    "brand": "pret"
  },
  {
    "id": "10235",
    "name": "Pret A Manger",
    "address": "61-65 Conduit Street",
    "city": "London",
    "postcode": "W1S 2GB",
    "latitude": 51.5127923,
    "longitude": -0.1409564,
    "status": "open",
    "openingHours": "Mon-Fri: 06:30-19:30, Sat: 08:00-18:00, Sun: 08:30-18:00",
    "phone": "+44 20 7434 4324",
    "brand": "pret"
  },
  {
    "id": "10451",
    "name": "Pret A Manger",
    "address": "30 North Bridge",
    "city": "Edinburgh",
    "postcode": "EH1 1QG",
    "latitude": 55.9508669,
    "longitude": -3.1881406,
    "status": "open",
    "openingHours": "Mon-Fri: 07:00-16:30, Sat: 08:30-16:00, Sun: 09:30-16:00",
    "phone": "+44 131 226 2861",
    "brand": "pret"
  },
  {
    "id": "10238",
    "name": "Pret A Manger",
    "address": "4 Wimbledon Hill Road, Wimbledon",
    "city": "London",
    "postcode": "SW19 7NS",
    "latitude": 51.4209551,
    "longitude": -0.2073728,
    "status": "open",
    "openingHours": "Mon-Fri: 05:30-20:00, Sat: 06:30-19:30, Sun: 07:00-19:00",
    "phone": "+44 20 8946 7918",
    "brand": "pret"
  },
  {
    "id": "3",
    "name": "Pret A Manger",
    "address": "319 High Holborn",
    "city": "London",
    "postcode": "WC1V 7PU",
    "latitude": 51.5181837,
    "longitude": -0.1127135,
    "status": "open",
    "openingHours": "Mon-Thu: 06:00-18:00, Fri: 06:00-17:30, Sat-Sun: Closed",
    "phone": "+44 20 7932 5202",
    "brand": "pret"
  },
  {
    "id": "10606",
    "name": "Pret A Manger",
    "address": "119 Hammersmith Road, Unit 5, Kennedy House",
    "city": "London",
    "postcode": "W14 0QH",
    "latitude": 51.49446758,
    "longitude": -0.21250883,
    "status": "open",
    "openingHours": "Mon-Fri: 06:30-18:00, Sat-Sun: Closed",
    "phone": "+44 20 7602 8772",
    "brand": "pret"
  },
  {
    "id": "10273",
    "name": "Pret A Manger",
    "address": "211-213 Baker Street",
    "city": "London",
    "postcode": "NW1 6UY",
    "latitude": 51.5228759,
    "longitude": -0.1580332,
    "status": "open",
    "openingHours": "Mon-Fri: 06:00-20:30, Sat-Sun: 06:30-20:00",
    "phone": "+44 20 7487 2712",
    "brand": "pret"
  },
  {
    "id": "10511",
    "name": "Pret A Manger",
    "address": "2 Garratt Lane, Southside Shopping Centre Unit 86, Wandsworth",
    "city": "London",
    "postcode": "SW18 4TF",
    "latitude": 51.4565325,
    "longitude": -0.1931406,
    "status": "open",
    "openingHours": "Mon-Fri: 06:00-17:30, Sat: 07:00-18:30, Sun: 07:30-18:30",
    "phone": "+44 20 8874 8039",
    "brand": "pret"
  },
  {
    "id": "10741",
    "name": "Pret A Manger",
    "address": "143-171 Moorgate",
    "city": "London",
    "postcode": "EC2M 6XB",
    "latitude": 51.5187839,
    "longitude": -0.0882404,
    "status": "open",
    "openingHours": "Mon-Fri: 05:30-21:00, Sat: 06:00-19:00, Sun: 06:00-18:00",
    "phone": "+44 20 7256 7868",
    "brand": "pret"
  },
  {
    "id": "65",
    "name": "Pret A Manger",
    "address": "381 Oxford Street, Unit G15, West One Shopping Centre",
    "city": "London",
    "postcode": "W1C 2JS",
    "latitude": 51.5137898,
    "longitude": -0.1495888,
    "status": "open",
    "openingHours": "Mon-Fri: 06:30-22:00, Sat: 08:00-22:00, Sun: 10:00-21:00",
    "phone": "+44 20 7932 5280",
    "brand": "pret"
  },
  {
    "id": "10237",
    "name": "Pret A Manger",
    "address": "201 Bishopsgate, Units 1 and 2",
    "city": "London",
    "postcode": "EC2M 3AB",
    "latitude": 51.52075169,
    "longitude": -0.07928689,
    "status": "open",
    "openingHours": "Mon-Thu: 05:30-18:30, Fri: 05:30-17:00, Sat-Sun: Closed",
    "phone": "+44 20 7932 5427",
    "brand": "pret"
  },
  {
    "id": "10696",
    "name": "Pret A Manger",
    "address": "257-258 Upper Street",
    "city": "London",
    "postcode": "N1 1RU",
    "latitude": 51.54586384,
    "longitude": -0.10345024,
    "status": "open",
    "openingHours": "Mon-Fri: 05:30-20:00, Sat-Sun: 06:00-20:00",
    "phone": "+44 20 7288 2766",
    "brand": "pret"
  },
  {
    "id": "10623",
    "name": "Pret A Manger",
    "address": "Endeavour Square, Stratford International Quarter",
    "city": "London",
    "postcode": "E20 1GL",
    "latitude": 51.5413728,
    "longitude": -0.0093168,
    "status": "open",
    "openingHours": "Mon-Fri: 06:00-18:30, Sat-Sun: 07:00-18:30",
    "phone": "+44 20 8534 6310",
    "brand": "pret"
  },
  {
    "id": "10274",
    "name": "Pret A Manger",
    "address": "133 Houndsditch",
    "city": "London",
    "postcode": "EC3A 7BX",
    "latitude": 51.5152008,
    "longitude": -0.078125,
    "status": "open",
    "openingHours": "Mon-Fri: 06:00-17:30, Sat-Sun: Closed",
    "phone": "+44 20 7283 8494",
    "brand": "pret"
  },
  {
    "id": "10108",
    "name": "Pret A Manger",
    "address": "A219, Unit 30, Broadway Shopping Centre",
    "city": "London",
    "postcode": "W6 9YE",
    "latitude": 51.49239676,
    "longitude": -0.22337689,
    "status": "open",
    "openingHours": "Mon-Thu: 06:00-20:30, Fri: 06:00-20:00, Sat: 06:00-20:30, Sun: 06:30-20:30",
    "phone": "+44 20 8741 0864",
    "brand": "pret"
  },
  {
    "id": "78",
    "name": "Pret A Manger",
    "address": "29-30 Queens Road",
    "city": "Bristol",
    "postcode": "BS8 1QE",
    "latitude": 51.4558703,
    "longitude": -2.605728,
    "status": "open",
    "openingHours": "Mon-Fri: 07:00-17:00, Sat: 08:00-17:00, Sun: 09:00-16:00",
    "phone": "+44 117 929 3885",
    "brand": "pret"
  },
  {
    "id": "70",
    "name": "Pret A Manger",
    "address": "Eastern Mall, Unit L0006",
    "city": "Greenhithe",
    "postcode": "DA9 9SH",
    "latitude": 51.439677,
    "longitude": 0.272056,
    "status": "open",
    "openingHours": "Mon-Sat: 08:00-21:00, Sun: 08:30-17:30",
    "phone": "+44 1322 624988",
    "brand": "pret"
  },
  {
    "id": "10426",
    "name": "Pret A Manger",
    "address": "90 Queen Street",
    "city": "London",
    "postcode": "EC4N 1SA",
    "latitude": 51.5134092007999,
    "longitude": -0.091684502137973,
    "status": "open",
    "openingHours": "Mon: 06:00-17:30, Tue-Thu: 06:00-18:30, Fri: 06:00-17:30, Sat-Sun: Closed",
    "phone": "+44 20 7332 0238",
    "brand": "pret"
  },
  {
    "id": "10296",
    "name": "Pret A Manger",
    "address": "110 Fetter Lane",
    "city": "London",
    "postcode": "EC4A 1ES",
    "latitude": 51.515906,
    "longitude": -0.109562,
    "status": "open",
    "openingHours": "Mon-Thu: 06:00-19:30, Fri: 06:00-18:30, Sat-Sun: Closed",
    "phone": "+44 20 7932 5453",
    "brand": "pret"
  },
  {
    "id": "10757",
    "name": "Pret A Manger",
    "address": "Brindley Place, Unit 5",
    "city": "Birmingham",
    "postcode": "B1 2JB",
    "latitude": 52.47827292,
    "longitude": -1.91330591,
    "status": "open",
    "openingHours": "Mon: 07:00-16:00, Tue-Thu: 06:30-16:30, Fri: 07:00-16:00, Sat-Sun: Closed",
    "phone": "+44 121 643 1904",
    "brand": "pret"
  },
  {
    "id": "80",
    "name": "Pret A Manger",
    "address": "58-60 Stamford Street",
    "city": "London",
    "postcode": "SE1 9LX",
    "latitude": 51.5071699,
    "longitude": -0.1078545,
    "status": "open",
    "openingHours": "Mon-Thu: 06:00-17:30, Fri: 06:00-16:30, Sat-Sun: Closed",
    "phone": "+44 20 7932 5295",
    "brand": "pret"
  },
  {
    "id": "10660",
    "name": "Pret A Manger",
    "address": "140 Ladbroke Grove",
    "city": "London",
    "postcode": "W10 5NE",
    "latitude": 51.51784776,
    "longitude": -0.21003508,
    "status": "open",
    "openingHours": "Mon-Fri: 06:00-18:00, Sat: 07:00-18:00, Sun: 08:00-17:30",
    "phone": "+44 20 8960 4281",
    "brand": "pret"
  },
  {
    "id": "10752",
    "name": "Pret A Manger",
    "address": "106-108 Brompton Road",
    "city": "London",
    "postcode": "SW3 1JJ",
    "latitude": 51.49934742,
    "longitude": -0.16468526,
    "status": "open",
    "openingHours": "Mon-Fri: 05:30-20:00, Sat: 06:30-19:00, Sun: 07:00-19:00",
    "phone": "+44 20 7589 5306",
    "brand": "pret"
  },
  {
    "id": "81",
    "name": "Pret A Manger",
    "address": "27-28 Great Marlborough Street",
    "city": "London",
    "postcode": "W1F 7HY",
    "latitude": 51.5137561,
    "longitude": -0.1396972,
    "status": "open",
    "openingHours": "Mon-Fri: 06:00-22:00, Sat: 06:30-22:00, Sun: 06:30-20:30",
    "phone": "+44 20 7932 5296",
    "brand": "pret"
  },
  {
    "id": "10295",
    "name": "Pret A Manger",
    "address": "4 Sheldon Square, Unit 8 Terrace Level",
    "city": "London",
    "postcode": "W2 6EZ",
    "latitude": 51.5192202,
    "longitude": -0.18009402,
    "status": "open",
    "openingHours": "Mon: 06:30-16:30, Tue-Thu: 06:30-17:30, Fri: 06:30-16:30, Sat-Sun: Closed",
    "phone": "+44 20 7932 5451",
    "brand": "pret"
  },
  {
    "id": "10711",
    "name": "Pret A Manger",
    "address": "Paddington Station, Platform 12",
    "city": "London",
    "postcode": "W2 1DA",
    "latitude": 51.5166744,
    "longitude": -0.1769328,
    "status": "open",
    "openingHours": "Mon-Fri: 05:00-22:30, Sat: 05:00-21:30, Sun: 05:30-21:30",
    "phone": "+44 20 7402 2132",
    "brand": "pret"
  },
  {
    "id": "10712",
    "name": "Pret A Manger",
    "address": "Melcombe Place, Unit 5, Marylebone Railway Station",
    "city": "London",
    "postcode": "NW1 6JJ",
    "latitude": 51.52253148,
    "longitude": -0.16336733,
    "status": "open",
    "openingHours": "Mon-Fri: 05:30-21:00, Sat: 06:30-20:00, Sun: 07:00-19:30",
    "phone": "+44 20 7724 7226",
    "brand": "pret"
  },
  {
    "id": "10284",
    "name": "Pret A Manger",
    "address": "Gee's Court, Unit 3 and 4",
    "city": "London",
    "postcode": "W1U 1JF",
    "latitude": 51.5150324,
    "longitude": -0.1500155,
    "status": "open",
    "openingHours": "Mon-Fri: 06:30-19:00, Sat-Sun: 07:00-19:00",
    "phone": "+44 20 7932 5441",
    "brand": "pret"
  },
  {
    "id": "10581",
    "name": "Pret A Manger",
    "address": "Marsh Wall, Retail Unit, SQP3, South Quay",
    "city": "London",
    "postcode": "E14 9SH",
    "latitude": 51.5011677,
    "longitude": -0.0172657,
    "status": "open",
    "openingHours": "Mon: 06:00-16:00, Tue-Thu: 06:00-16:30, Fri: 06:00-16:00, Sat-Sun: Closed",
    "phone": "+44 20 7531 1648",
    "brand": "pret"
  },
  {
    "id": "10212",
    "name": "Pret A Manger",
    "address": "125 High Holborn",
    "city": "London",
    "postcode": "WC1V 6AN",
    "latitude": 51.5176865,
    "longitude": -0.121175,
    "status": "open",
    "openingHours": "Mon-Fri: 06:00-19:00, Sat: 07:30-18:00, Sun: 08:00-16:30",
    "phone": "+44 20 3674 8960",
    "brand": "pret"
  },
  {
    "id": "177",
    "name": "Pret A Manger",
    "address": "3 America Square",
    "city": "London",
    "postcode": "EC3N 2LR",
    "latitude": 51.51148784,
    "longitude": -0.07564366,
    "status": "open",
    "openingHours": "Mon-Thu: 06:00-17:00, Fri: 06:00-16:30, Sat: 07:00-16:00, Sun: Closed",
    "phone": "+44 20 7932 5342",
    "brand": "pret"
  },
  {
    "id": "10604",
    "name": "Pret A Manger",
    "address": "164 Buckingham Palace Road, Victoria Coach Station",
    "city": "London",
    "postcode": "SW1W 9TP",
    "latitude": 51.49246256,
    "longitude": -0.14848442,
    "status": "open",
    "openingHours": "Mon-Sun: 05:30-23:30",
    "phone": "+44 20 7730 8267",
    "brand": "pret"
  },
  {
    "id": "10666",
    "name": "Pret A Manger",
    "address": null,
    "city": "London",
    "postcode": "E15 1AZ",
    "latitude": 51.5412813,
    "longitude": -0.0034123,
    "status": "open",
    "openingHours": "Mon-Sat: 06:00-23:00, Sun: 06:00-22:00",
    "phone": "+44 20 8519 4030",
    "brand": "pret"
  },
  {
    "id": "10292",
    "name": "Pret A Manger",
    "address": "19-23 Horseferry Road, Unit 12, Great Minster",
    "city": "London",
    "postcode": "SW1P 2AA",
    "latitude": 51.4947145,
    "longitude": -0.1295317,
    "status": "open",
    "openingHours": "Mon-Fri: 05:30-20:00, Sat-Sun: 06:00-20:00",
    "phone": "+44 20 7932 5459",
    "brand": "pret"
  },
  {
    "id": "10759",
    "name": "Pret A Manger",
    "address": "19-20 Liverpool Street",
    "city": "London",
    "postcode": "EC2M 7PD",
    "latitude": 51.51735514,
    "longitude": -0.08250872,
    "status": "open",
    "openingHours": "Mon-Fri: 05:00-21:30, Sat-Sun: 05:30-19:00",
    "phone": "+44 20 7929 7253",
    "brand": "pret"
  },
  {
    "id": "272",
    "name": "Pret A Manger",
    "address": "2 Stall Street",
    "city": "Bath",
    "postcode": "BA1 1QL",
    "latitude": 51.3814418,
    "longitude": -2.3602462,
    "status": "open",
    "openingHours": "Mon-Fri: 07:30-16:00, Sat: 08:00-17:30, Sun: 09:00-16:30",
    "phone": "+44 1225 338225",
    "brand": "pret"
  },
  {
    "id": "10287",
    "name": "Pret A Manger",
    "address": "24 Farringdon Street, Nexus Place",
    "city": "London",
    "postcode": "EC4A 4AB",
    "latitude": 51.5157599,
    "longitude": -0.1042396,
    "status": "open",
    "openingHours": "Mon-Thu: 06:00-18:30, Fri: 06:00-17:00, Sat-Sun: Closed",
    "phone": "+44 20 7932 5450",
    "brand": "pret"
  },
  {
    "id": "10220",
    "name": "Pret A Manger",
    "address": "Hartmann Road, Royal Docks London City Airport",
    "city": "London",
    "postcode": "E16 2PB",
    "latitude": 51.5036156,
    "longitude": 0.0497659,
    "status": "open",
    "openingHours": "Mon-Fri: 05:00-23:00, Sat: 05:00-12:00, Sun: 11:00-23:00",
    "phone": "+44 20 7932 5389",
    "brand": "pret"
  },
  {
    "id": "10304",
    "name": "Pret A Manger",
    "address": "A6, Piccadilly Station, Unit 3 Concourse",
    "city": "Manchester",
    "postcode": "M1 2BN",
    "latitude": 53.47744847,
    "longitude": -2.23110349,
    "status": "open",
    "openingHours": "Mon: 07:00-22:00, Tue-Fri: 05:00-22:00, Sat: 06:30-22:00, Sun: 07:00-22:00",
    "phone": "+44 161 228 6511",
    "brand": "pret"
  },
  {
    "id": "10289",
    "name": "Pret A Manger",
    "address": "87-88 Strand",
    "city": "London",
    "postcode": "WC2R 0DW",
    "latitude": 51.5103242,
    "longitude": -0.1214387,
    "status": "open",
    "openingHours": "Mon-Fri: 06:00-20:30, Sat: 06:00-20:00, Sun: 06:30-19:00",
    "phone": "+44 20 7932 5455",
    "brand": "pret"
  },
  {
    "id": "10669",
    "name": "Pret A Manger",
    "address": "Airport Way, Luton Airport",
    "city": "Luton",
    "postcode": "LU2 9LY",
    "latitude": 51.88035022,
    "longitude": -0.37548001,
    "status": "open",
    "openingHours": "Mon-Sun: 05:00-19:00",
    "phone": "+44 1582 730919",
    "brand": "pret"
  },
  {
    "id": "179",
    "name": "Pret A Manger",
    "address": "City Road, Unit 1, Oliver's Yard",
    "city": "London",
    "postcode": "EC1Y 1HQ",
    "latitude": 51.52440832,
    "longitude": -0.08726891,
    "status": "open",
    "openingHours": "Mon-Thu: 06:00-18:00, Fri: 06:00-17:00, Sat: 07:00-16:00, Sun: 07:30-15:30",
    "phone": "+44 20 7932 5343",
    "brand": "pret"
  },
  {
    "id": "10576",
    "name": "Pret A Manger",
    "address": "T1 Outwood Lane, Manchester Airport landside, T1",
    "city": "Manchester",
    "postcode": "M90 3FE",
    "latitude": 53.36269668,
    "longitude": -2.27373096,
    "status": "open",
    "openingHours": "Mon-Fri: 06:00-19:00, Sat-Sun: 07:00-17:00",
    "phone": "+44 161 437 6967",
    "brand": "pret"
  },
  {
    "id": "10738",
    "name": "Pret A Manger",
    "address": "3 Mitcham Road",
    "city": "London",
    "postcode": "SW17 9PA",
    "latitude": 51.42804,
    "longitude": -0.16755,
    "status": "open",
    "openingHours": "Mon-Fri: 06:00-18:00, Sat: 06:30-18:00, Sun: 06:30-17:00",
    "phone": "+44 20 8672 6215",
    "brand": "pret"
  },
  {
    "id": "10662",
    "name": "Pret A Manger",
    "address": "Euston Road, Unit 29, Eurostar Departure Lounge",
    "city": "London",
    "postcode": "NW1 2QP",
    "latitude": 51.5315184,
    "longitude": -0.1261342,
    "status": "open",
    "openingHours": "Mon-Fri: 04:30-19:45, Sat: 05:00-19:45, Sun: 06:00-20:00",
    "phone": "+44 20 7833 4095",
    "brand": "pret"
  },
  {
    "id": "275",
    "name": "Pret A Manger",
    "address": "Fulham Road, Fulham Broadway Retail Centre, Unit 5",
    "city": "London",
    "postcode": "SW6 1BW",
    "latitude": 51.48034865,
    "longitude": -0.19451943,
    "status": "open",
    "openingHours": "Mon-Fri: 06:00-20:30, Sat-Sun: 07:00-20:00",
    "phone": "+44 20 7932 5373",
    "brand": "pret"
  },
  {
    "id": "10396",
    "name": "Pret A Manger",
    "address": "26 The Martletts",
    "city": "Crawley",
    "postcode": "RH10 1ES",
    "latitude": 51.1142803,
    "longitude": -0.1867556,
    "status": "open",
    "openingHours": "Mon-Sun: Closed",
    "phone": "+44 1293 228929",
    "brand": "pret"
  },
  {
    "id": "10583",
    "name": "Pret A Manger",
    "address": "2-4 Camden High Street",
    "city": "London",
    "postcode": "NW1 0JH",
    "latitude": 51.5348448,
    "longitude": -0.1384267,
    "status": "open",
    "openingHours": "Mon-Fri: 06:30-19:00, Sat: 08:00-18:00, Sun: 08:00-17:00",
    "phone": "+44 20 7387 8730",
    "brand": "pret"
  },
  {
    "id": "10399",
    "name": "Pret A Manger",
    "address": "5 Vere Street",
    "city": "London",
    "postcode": "W1G 0DJ",
    "latitude": 51.51518008,
    "longitude": -0.14697921,
    "status": "open",
    "openingHours": "Mon-Thu: 06:30-19:00, Fri: 06:30-18:00, Sat: 08:00-17:30, Sun: 08:30-17:00",
    "phone": "+44 20 7495 0840",
    "brand": "pret"
  },
  {
    "id": "10211",
    "name": "Pret A Manger",
    "address": "40 Stoney Street",
    "city": "London",
    "postcode": "SE1 9LB",
    "latitude": 51.5068357,
    "longitude": -0.0912484,
    "status": "open",
    "openingHours": "Mon-Fri: 07:00-17:30, Sat-Sun: 08:30-17:30",
    "phone": "+44 20 7932 5226",
    "brand": "pret"
  },
  {
    "id": "292",
    "name": "Pret A Manger",
    "address": "125-135 Fenchurch Street, Unit C, Fountain House",
    "city": "London",
    "postcode": "EC3M 5DJ",
    "latitude": 51.51187442,
    "longitude": -0.08166179,
    "status": "open",
    "openingHours": "Mon-Thu: 06:30-18:00, Fri: 06:30-17:00, Sat-Sun: Closed",
    "phone": "+44 20 7932 5277",
    "brand": "pret"
  },
  {
    "id": "10705",
    "name": "Pret A Manger",
    "address": "84-86 Holland Park Avenue",
    "city": "London",
    "postcode": "W11 3RB",
    "latitude": 51.507197,
    "longitude": -0.206148,
    "status": "open",
    "openingHours": "Mon-Fri: 06:00-19:00, Sat: 06:30-19:00, Sun: 07:00-17:30",
    "phone": "+44 20 7792 7813",
    "brand": "pret"
  },
  {
    "id": "10167",
    "name": "Pret A Manger",
    "address": "Perimeter Road East, Unit Acu06, South Terminal International Departure Lounge",
    "city": "Crawley",
    "postcode": "RH6 0NP",
    "latitude": 51.1555886,
    "longitude": -0.1625586,
    "status": "open",
    "openingHours": "Mon-Sun: 00:00-23:59",
    "phone": "+44 1293 223495",
    "brand": "pret"
  },
  {
    "id": "10215",
    "name": "Pret A Manger",
    "address": "200 Aldersgate Street, Unit 1",
    "city": "London",
    "postcode": "EC1A 4HD",
    "latitude": 51.51756481,
    "longitude": -0.09758021,
    "status": "open",
    "openingHours": "Mon-Thu: 06:00-19:00, Fri: 06:00-17:30, Sat-Sun: Closed",
    "phone": "+44 20 7932 5437",
    "brand": "pret"
  },
  {
    "id": "10410",
    "name": "Pret A Manger",
    "address": "157-168 Blackfriars Road",
    "city": "London",
    "postcode": "SE1 8EZ",
    "latitude": 51.5017164988996,
    "longitude": -0.104305257565902,
    "status": "open",
    "openingHours": "Mon-Thu: 06:30-18:00, Fri: 06:30-17:30, Sat-Sun: Closed",
    "phone": "+44 20 7620 0689",
    "brand": "pret"
  },
  {
    "id": "10221",
    "name": "Pret A Manger",
    "address": "7 More London Riverside, London Riverside",
    "city": "London",
    "postcode": "SE1 2RT",
    "latitude": 51.5045414,
    "longitude": -0.08148789,
    "status": "open",
    "openingHours": "Mon-Tue: 06:00-19:30, Wed-Thu: 06:00-19:00, Fri: 06:00-19:30, Sat: 09:00-17:30, Sun: Closed",
    "phone": "+44 20 7932 5391",
    "brand": "pret"
  },
  {
    "id": "10244",
    "name": "Pret A Manger",
    "address": "Buckingham Palace Road, Victoria Place Shopping Centre, Unit 2",
    "city": "London",
    "postcode": "SW1W 9SJ",
    "latitude": 51.4946954,
    "longitude": -0.1458012,
    "status": "open",
    "openingHours": "Mon-Wed: 06:00-21:00, Thu-Sat: 06:00-21:30, Sun: 06:00-21:00",
    "phone": "+44 20 7592 0046",
    "brand": "pret"
  },
  {
    "id": "10702",
    "name": "Pret A Manger",
    "address": "Oxford Road, Unit 8, Manchester Business School Unit 8 University Green",
    "city": "Manchester",
    "postcode": "M13 9GP",
    "latitude": 53.46786833,
    "longitude": -2.23541131,
    "status": "open",
    "openingHours": "Mon: 07:00-17:30, Tue-Thu: 07:00-18:00, Fri: 07:00-17:30, Sat: 08:30-17:30, Sun: Closed",
    "phone": "+44 161 273 1815",
    "brand": "pret"
  },
  {
    "id": "10424",
    "name": "Pret A Manger",
    "address": "165-166 London Wall",
    "city": "London",
    "postcode": "EC2M 5QD",
    "latitude": 51.51738659,
    "longitude": -0.08795169,
    "status": "open",
    "openingHours": "Mon-Thu: 06:00-18:30, Fri: 06:00-17:00, Sat-Sun: Closed",
    "phone": "+44 20 7628 0368",
    "brand": "pret"
  },
  {
    "id": "10423",
    "name": "Pret A Manger",
    "address": "22-24 Colmore Row",
    "city": "Birmingham",
    "postcode": "B3 2QD",
    "latitude": 52.48199879,
    "longitude": -1.89790503,
    "status": "open",
    "openingHours": "Mon: 06:00-17:00, Tue-Thu: 06:00-17:30, Fri: 06:00-17:00, Sat: 07:30-16:30, Sun: 08:00-16:00",
    "phone": "+44 121 236 9394",
    "brand": "pret"
  },
  {
    "id": "10708",
    "name": "Pret A Manger",
    "address": "128 Shoreditch High Street",
    "city": "London",
    "postcode": "E1 6JE",
    "latitude": 51.5267733,
    "longitude": -0.0783155,
    "status": "open",
    "openingHours": "Mon-Thu: 07:00-16:30, Fri: 07:00-15:30, Sat-Sun: Closed",
    "phone": "+44 20 7729 2713",
    "brand": "pret"
  },
  {
    "id": "10251",
    "name": "Pret A Manger",
    "address": "64-68 New Oxford Street",
    "city": "London",
    "postcode": "WC1A 1AZ",
    "latitude": 51.5170143,
    "longitude": -0.1272275,
    "status": "open",
    "openingHours": "Mon: 06:00-19:30, Tue-Wed: 05:30-20:00, Thu: 05:30-20:30, Fri: 05:30-19:30, Sat: 06:00-19:30, Sun: 07:00-19:00",
    "phone": "+44 20 7932 5308",
    "brand": "pret"
  },
  {
    "id": "10223",
    "name": "Pret A Manger",
    "address": "128 Queen Victoria Street, Old Change House",
    "city": "London",
    "postcode": "EC4V 4BY",
    "latitude": 51.5121032,
    "longitude": -0.0978839,
    "status": "open",
    "openingHours": "Mon-Thu: 06:00-19:00, Fri: 06:00-18:00, Sat: 08:00-17:30, Sun: 08:00-16:00",
    "phone": "+44 20 7932 5386",
    "brand": "pret"
  },
  {
    "id": "10194",
    "name": "Pret A Manger",
    "address": "67 Coleman Street",
    "city": "London",
    "postcode": "EC2R 5BT",
    "latitude": 51.5164199,
    "longitude": -0.0895298,
    "status": "open",
    "openingHours": "Mon-Thu: 05:30-19:00, Fri: 05:30-17:00, Sat-Sun: Closed",
    "phone": "+44 20 7932 5410",
    "brand": "pret"
  },
  {
    "id": "10456",
    "name": "Pret A Manger",
    "address": "5-11 Mortimer Street, Network House",
    "city": "London",
    "postcode": "W1T 3JB",
    "latitude": 51.5186638,
    "longitude": -0.1372491,
    "status": "open",
    "openingHours": "Mon-Fri: 06:30-18:00, Sat-Sun: Closed",
    "phone": "+44 7502 612535",
    "brand": "pret"
  },
  {
    "id": "10262",
    "name": "Pret A Manger",
    "address": "Retail Unit 1 Thomas More Square, Retail Unit 1",
    "city": "London",
    "postcode": "E1W 1YN",
    "latitude": 51.50812864,
    "longitude": -0.06816988,
    "status": "open",
    "openingHours": "Mon-Thu: 06:00-17:00, Fri: 06:00-16:30, Sat-Sun: Closed",
    "phone": "+44 20 7932 5279",
    "brand": "pret"
  },
  {
    "id": "12",
    "name": "Pret A Manger",
    "address": "77-78 Saint Martin's Lane",
    "city": "London",
    "postcode": "WC2N 4AA",
    "latitude": 51.5116009,
    "longitude": -0.1274809,
    "status": "open",
    "openingHours": "Mon-Fri: 05:00-23:30, Sat: 05:30-23:30, Sun: 06:00-23:00",
    "phone": "+44 7469 650251",
    "brand": "pret"
  },
  {
    "id": "10303",
    "name": "Pret A Manger",
    "address": "3-5 Praed Street",
    "city": "London",
    "postcode": "W2 1NJ",
    "latitude": 51.518928,
    "longitude": -0.1692863,
    "status": "open",
    "openingHours": "Mon: 06:00-18:00, Tue-Thu: 06:00-18:30, Fri: 06:00-18:00, Sat: 06:30-18:00, Sun: 06:30-17:30",
    "phone": "+44 20 7932 5445",
    "brand": "pret"
  },
  {
    "id": "10541",
    "name": "Pret A Manger",
    "address": "25 High Street",
    "city": "Winchester",
    "postcode": "SO23 9BL",
    "latitude": 51.4773363,
    "longitude": 0.323117,
    "status": "open",
    "openingHours": "Mon-Fri: 07:00-18:00, Sat: 07:30-17:30, Sun: 07:30-17:00",
    "phone": "+44 1962 860284",
    "brand": "pret"
  },
  {
    "id": "10365",
    "name": "Pret A Manger",
    "address": "367B Fulham Road",
    "city": "London",
    "postcode": "SW10 9TN",
    "latitude": 51.485408,
    "longitude": -0.1816043,
    "status": "open",
    "openingHours": "Mon-Fri: 06:00-20:00, Sat: 06:30-18:00, Sun: 07:00-18:00",
    "phone": "+44 20 7351 0649",
    "brand": "pret"
  },
  {
    "id": "10457",
    "name": "Pret A Manger",
    "address": "79-81 Deansgate",
    "city": "Manchester",
    "postcode": "M3 2BW",
    "latitude": 53.48213911,
    "longitude": -2.24691611,
    "status": "open",
    "openingHours": "Mon-Fri: 06:45-18:00, Sat: 07:30-18:00, Sun: 08:30-17:30",
    "phone": "+44 161 832 8292",
    "brand": "pret"
  },
  {
    "id": "10605",
    "name": "Pret A Manger",
    "address": "7-9 Queensway",
    "city": "London",
    "postcode": "W2 4QJ",
    "latitude": 51.5106746,
    "longitude": -0.1872789,
    "status": "open",
    "openingHours": "Mon-Fri: 07:00-21:00, Sat: 07:00-21:45, Sun: 08:00-21:30",
    "phone": "+44 20 7221 0656",
    "brand": "pret"
  },
  {
    "id": "19",
    "name": "Pret A Manger",
    "address": "163 Piccadilly",
    "city": "London",
    "postcode": "W1J 9ED",
    "latitude": 51.5078158,
    "longitude": -0.1400834,
    "status": "open",
    "openingHours": "Mon-Fri: 06:00-21:00, Sat-Sun: 06:00-20:30",
    "phone": "+44 20 7932 5229",
    "brand": "pret"
  },
  {
    "id": "10232",
    "name": "Pret A Manger",
    "address": "Comet Road, Birmingham Airport,Coventry Road",
    "city": "Birmingham",
    "postcode": "B26 3QJ",
    "latitude": 52.453158,
    "longitude": -1.734342,
    "status": "open",
    "openingHours": "Mon-Sun: 03:00-22:15",
    "phone": "+44 121 767 8231",
    "brand": "pret"
  },
  {
    "id": "10544",
    "name": "Pret A Manger",
    "address": "152 Waterloo Road",
    "city": "London",
    "postcode": "SE1 7AA",
    "latitude": 51.5023003,
    "longitude": -0.112773,
    "status": "open",
    "openingHours": "Mon-Tue: 06:00-20:30, Wed-Thu: 05:30-20:30, Fri: 06:00-20:30, Sat: 06:30-19:30, Sun: 07:30-18:00",
    "phone": "+44 20 3937 7828",
    "brand": "pret"
  },
  {
    "id": "121",
    "name": "Pret A Manger",
    "address": "141 Cheapside",
    "city": "London",
    "postcode": "EC2V 6BJ",
    "latitude": 51.5145692,
    "longitude": -0.0960176,
    "status": "open",
    "openingHours": "Mon-Thu: 06:00-19:00, Fri: 06:00-18:00, Sat: 07:00-18:00, Sun: 07:00-17:00",
    "phone": "+44 20 7600 1649",
    "brand": "pret"
  },
  {
    "id": "10602",
    "name": "Pret A Manger",
    "address": "111 Westminster Bridge Road",
    "city": "London",
    "postcode": "SE1 7HR",
    "latitude": 51.49919101,
    "longitude": -0.11325905,
    "status": "open",
    "openingHours": "Mon: 06:00-18:30, Tue-Thu: 06:00-19:00, Fri: 06:00-18:30, Sat: 06:30-17:00, Sun: 06:30-16:00",
    "phone": "+44 20 3674 0012",
    "brand": "pret"
  },
  {
    "id": "1",
    "name": "Pret A Manger",
    "address": "83 Chancery Lane, Unit 6",
    "city": "London",
    "postcode": "WC2A 1DD",
    "latitude": 51.5158202,
    "longitude": -0.1120312,
    "status": "open",
    "openingHours": "Mon: 06:00-18:00, Tue-Thu: 06:00-19:00, Fri: 06:00-18:00, Sat-Sun: Closed",
    "phone": "+44 20 7242 5627",
    "brand": "pret"
  },
  {
    "id": "10367",
    "name": "Pret A Manger",
    "address": "Pancras Rd, Norther Ticket Hall, Kings Cross Station",
    "city": "London",
    "postcode": "N1C 4AP",
    "latitude": 51.53226002,
    "longitude": -0.126561,
    "status": "open",
    "openingHours": "Mon-Fri: 06:00-20:00, Sat-Sun: 07:00-20:00",
    "phone": "+44 20 7713 9512",
    "brand": "pret"
  },
  {
    "id": "243",
    "name": "Pret A Manger",
    "address": "3-5 Saint John Street, Clerkenwell",
    "city": "London",
    "postcode": "EC1M 4AA",
    "latitude": 51.52003944,
    "longitude": -0.10191644,
    "status": "open",
    "openingHours": "Mon-Thu: 05:30-18:00, Fri: 06:30-18:00, Sat-Sun: Closed",
    "phone": "+44 20 7490 1830",
    "brand": "pret"
  },
  {
    "id": "10587",
    "name": "Pret A Manger",
    "address": "Arch 16 Station Place",
    "city": "London",
    "postcode": "N4 2DQ",
    "latitude": 51.5650509,
    "longitude": -0.1058653,
    "status": "open",
    "openingHours": "Mon-Fri: 06:00-19:00, Sat: 06:30-19:30, Sun: 06:30-18:00",
    "phone": "+44 20 7263 7598",
    "brand": "pret"
  },
  {
    "id": "39",
    "name": "Pret A Manger",
    "address": "Cabot Square, Canary Wharf, Unit 320, RT1 Cabot Place",
    "city": "London",
    "postcode": "E14 4QS",
    "latitude": 51.50517151,
    "longitude": -0.02019024,
    "status": "open",
    "openingHours": "Mon-Fri: 05:30-22:00, Sat-Sun: 06:30-21:00",
    "phone": "+44 20 7932 5249",
    "brand": "pret"
  },
  {
    "id": "10621",
    "name": "Pret A Manger",
    "address": "Ariel Way, Southern Interchange, Unit SUC303 Westfield London",
    "city": "London",
    "postcode": "W12 7GA",
    "latitude": 51.507666,
    "longitude": -0.2214629,
    "status": "open",
    "openingHours": "Mon: 08:00-19:00, Tue-Fri: 06:30-20:00, Sat: 07:30-20:00, Sun: 08:00-20:00",
    "phone": "+44 20 8749 2215",
    "brand": "pret"
  },
  {
    "id": "10667",
    "name": "Pret A Manger",
    "address": "Ariel Way, Unit Su2203a, Westfield Shopping Centre",
    "city": "London",
    "postcode": "W12 7HT",
    "latitude": 51.5070917,
    "longitude": -0.22049998,
    "status": "open",
    "openingHours": "Mon-Thu: 08:30-21:00, Fri-Sat: 08:30-22:00, Sun: 09:30-18:30",
    "phone": "+44 20 8749 5499",
    "brand": "pret"
  },
  {
    "id": "10498",
    "name": "Pret A Manger",
    "address": "Station Street, Unit 32A, Birmingham New Street Station",
    "city": "Birmingham",
    "postcode": "B2 4PX",
    "latitude": 52.4776198,
    "longitude": -1.8993359,
    "status": "open",
    "openingHours": "Mon-Sat: 05:30-22:30, Sun: 08:00-22:30",
    "phone": "+44 121 643 6943",
    "brand": "pret"
  },
  {
    "id": "10376",
    "name": "Pret A Manger",
    "address": "4 Regent Place",
    "city": "London",
    "postcode": "W1B 5EA",
    "latitude": 51.5111586,
    "longitude": -0.1383445,
    "status": "open",
    "openingHours": "Mon-Fri: 06:00-20:00, Sat: 07:30-20:00, Sun: 08:00-19:00",
    "phone": "+44 20 7494 4760",
    "brand": "pret"
  },
  {
    "id": "10631",
    "name": "Pret A Manger",
    "address": "21 Spafield Street, Exmouth Market",
    "city": "London",
    "postcode": "EC1R 4QD",
    "latitude": 51.52566006,
    "longitude": -0.10993477,
    "status": "open",
    "openingHours": "Mon-Thu: 07:00-17:30, Fri: 07:00-17:00, Sat-Sun: Closed",
    "phone": "+44 20 8001 0259",
    "brand": "pret"
  },
  {
    "id": "10697",
    "name": "Pret A Manger",
    "address": "42 Baldwin Street",
    "city": "Bristol",
    "postcode": "BS1 1PN",
    "latitude": 51.45331169,
    "longitude": -2.59393311,
    "status": "open",
    "openingHours": "Mon: 07:30-16:00, Tue-Thu: 07:30-16:30, Fri: 07:30-16:00, Sat-Sun: Closed",
    "phone": "+44 117 929 3439",
    "brand": "pret"
  },
  {
    "id": "10720",
    "name": "Pret A Manger",
    "address": "202-206 Union Street",
    "city": "London",
    "postcode": "SE1 0LX",
    "latitude": 51.5038806,
    "longitude": -0.1026117,
    "status": "open",
    "openingHours": "Mon: 06:30-16:30, Tue-Thu: 06:00-17:00, Fri: 06:30-16:00, Sat-Sun: Closed",
    "phone": "+44 20 7620 2085",
    "brand": "pret"
  },
  {
    "id": "253",
    "name": "Pret A Manger",
    "address": "92 Buckingham Palace Road",
    "city": "London",
    "postcode": "SW1W 0SS",
    "latitude": 51.49442624,
    "longitude": -0.14697332,
    "status": "open",
    "openingHours": "Mon-Fri: 06:00-16:30, Sat: 07:00-15:30, Sun: Closed",
    "phone": "+44 20 7932 5367",
    "brand": "pret"
  },
  {
    "id": "10715",
    "name": "Pret A Manger",
    "address": "219 Finchley Road",
    "city": "London",
    "postcode": "NW3 6LP",
    "latitude": 51.54829,
    "longitude": -0.18094,
    "status": "open",
    "openingHours": "Mon-Sat: 06:00-19:30, Sun: 07:00-19:30",
    "phone": "+44 20 7372 3010",
    "brand": "pret"
  },
  {
    "id": "10486",
    "name": "Pret A Manger",
    "address": "168-188 Fulham Palace Road",
    "city": "London",
    "postcode": "W6 9PA",
    "latitude": 51.4854353,
    "longitude": -0.2204083,
    "status": "open",
    "openingHours": "Mon-Fri: 05:30-17:00, Sat: 06:00-17:00, Sun: 07:00-16:00",
    "phone": "+44 20 7381 0906",
    "brand": "pret"
  },
  {
    "id": "10254",
    "name": "Pret A Manger",
    "address": "Unit 29a High Street, Unit 29a",
    "city": "Solihull",
    "postcode": "B91 3TA",
    "latitude": 52.4137533,
    "longitude": -1.7787857,
    "status": "open",
    "openingHours": "Mon-Fri: 08:00-17:00, Sat: 08:00-17:30, Sun: 09:00-16:00",
    "phone": "+44 121 709 0751",
    "brand": "pret"
  },
  {
    "id": "10698",
    "name": "Pret A Manger",
    "address": "120-125 Strand",
    "city": "London",
    "postcode": "WC2R 0AP",
    "latitude": 51.5109324640443,
    "longitude": -0.119285482424048,
    "status": "open",
    "openingHours": "Mon-Fri: 05:30-21:00, Sat: 06:00-21:00, Sun: 06:30-19:00",
    "phone": "+44 20 7240 2689",
    "brand": "pret"
  },
  {
    "id": "10693",
    "name": "Pret A Manger",
    "address": "7-8 Saint Martin's Place",
    "city": "London",
    "postcode": "WC2N 4HA",
    "latitude": 51.5093776,
    "longitude": -0.1267583,
    "status": "open",
    "openingHours": "Mon-Fri: 06:00-21:00, Sat: 07:00-20:00, Sun: 07:00-19:00",
    "phone": "+44 20 7930 6222",
    "brand": "pret"
  },
  {
    "id": "10739",
    "name": "Pret A Manger",
    "address": "6 Lord Bhattacharyya Way, Coventry, Rootes Building, Warwickshire",
    "city": "Birmingham",
    "postcode": "CV4 7EZ",
    "latitude": 52.3783382,
    "longitude": -1.5612244,
    "status": "open",
    "openingHours": "Mon-Sun: 07:30-19:00",
    "phone": "+44 24 7641 4067",
    "brand": "pret"
  },
  {
    "id": "254",
    "name": "Pret A Manger",
    "address": "15 Old Brompton Road",
    "city": "London",
    "postcode": "SW7 3HZ",
    "latitude": 51.4935407,
    "longitude": -0.17427353,
    "status": "open",
    "openingHours": "Mon-Wed: 05:00-22:30, Thu-Fri: 05:00-22:00, Sat: 06:00-21:30, Sun: 06:30-20:30",
    "phone": "+44 20 7932 5368",
    "brand": "pret"
  },
  {
    "id": "10476",
    "name": "Pret A Manger",
    "address": "161 City Road, Eagle House",
    "city": "London",
    "postcode": "EC1V 1NR",
    "latitude": 51.52798726,
    "longitude": -0.08944553,
    "status": "open",
    "openingHours": "Mon-Fri: 05:30-20:00, Sat: 06:00-19:00, Sun: 06:30-18:00",
    "phone": "+44 20 7253 7266",
    "brand": "pret"
  },
  {
    "id": "10723",
    "name": "Pret A Manger",
    "address": "Kimberley Way, Ashford Designer Outlet Village, Unit 1, Unit 154",
    "city": "Ashford",
    "postcode": "TN24 0SD",
    "latitude": 51.13703502,
    "longitude": 0.87860748,
    "status": "open",
    "openingHours": "Mon-Sat: 08:30-19:00, Sun: 10:00-18:00",
    "phone": "+44 1233 621562",
    "brand": "pret"
  },
  {
    "id": "10756",
    "name": "Pret A Manger",
    "address": "Belvedere Road, Unit 4 Royal Festival Hall",
    "city": "London",
    "postcode": "SE1 8XX",
    "latitude": 51.50597386,
    "longitude": -0.11707268,
    "status": "open",
    "openingHours": "Mon-Sat: 07:30-21:30, Sun: 07:30-20:00",
    "phone": "+44 20 7021 0191",
    "brand": "pret"
  },
  {
    "id": "10770",
    "name": "Pret A Manger",
    "address": "Corporation Street, Unit R1, Arndale Centre",
    "city": "Manchester",
    "postcode": "M4 3AQ",
    "latitude": 53.4838904,
    "longitude": -2.24199,
    "status": "open",
    "openingHours": "Mon-Fri: 07:45-20:00, Sat: 07:45-20:30, Sun: 09:30-17:30",
    "phone": "+44 161 832 2014",
    "brand": "pret"
  },
  {
    "id": "10755",
    "name": "Pret A Manger",
    "address": "1 George Street, Ariel Way",
    "city": "London",
    "postcode": "W1U 3QF",
    "latitude": 51.51787666,
    "longitude": -0.15173055,
    "status": "open",
    "openingHours": "Mon-Fri: 06:30-19:30, Sat: 07:30-19:00, Sun: 07:30-18:30",
    "phone": "+44 20 7224 4730",
    "brand": "pret"
  },
  {
    "id": "10786",
    "name": "Pret A Manger",
    "address": "190 Strand",
    "city": "London",
    "postcode": "WC2R 1DP",
    "latitude": 51.51272916,
    "longitude": -0.1141443,
    "status": "open",
    "openingHours": "Mon-Thu: 06:30-20:00, Fri: 06:30-17:00, Sat-Sun: 07:00-16:00",
    "phone": "+44 20 7240 9925",
    "brand": "pret"
  },
  {
    "id": "10330",
    "name": "Pret A Manger",
    "address": "Widgeon Road, Heathrow Airport, Terminal 5, Airside Lounge",
    "city": "Hounslow",
    "postcode": "TW6 2GA",
    "latitude": 51.47283306,
    "longitude": -0.48723192,
    "status": "open",
    "openingHours": "Mon-Sun: 05:30-20:30",
    "phone": "+44 20 8283 8120",
    "brand": "pret"
  },
  {
    "id": "10378",
    "name": "Pret A Manger",
    "address": "192 Shoreditch High Street",
    "city": "London",
    "postcode": "E1 6HU",
    "latitude": 51.52403,
    "longitude": -0.07747,
    "status": "open",
    "openingHours": "Mon-Fri: 05:30-20:00, Sat-Sun: 06:30-20:00",
    "phone": "+44 20 7033 0209",
    "brand": "pret"
  },
  {
    "id": "103",
    "name": "Pret A Manger",
    "address": "25 Castle Street, Unit 7",
    "city": "Edinburgh",
    "postcode": "EH2 3DN",
    "latitude": 55.95208501,
    "longitude": -3.20296392,
    "status": "open",
    "openingHours": "Mon: 07:30-16:30, Tue-Thu: 07:00-16:30, Fri: 07:30-16:30, Sat: 08:30-16:30, Sun: Closed",
    "phone": "+44 131 260 9728",
    "brand": "pret"
  },
  {
    "id": "10749",
    "name": "Pret A Manger",
    "address": "3 Duke of York Street",
    "city": "London",
    "postcode": "SW1Y 6JP",
    "latitude": 51.508293,
    "longitude": -0.136507,
    "status": "open",
    "openingHours": "Mon-Thu: 06:00-17:00, Fri: 06:00-16:00, Sat-Sun: Closed",
    "phone": "+44 20 7839 6390",
    "brand": "pret"
  },
  {
    "id": "10520",
    "name": "Pret A Manger",
    "address": "49-52 Bow Lane",
    "city": "London",
    "postcode": "EC4M 9DJ",
    "latitude": 51.5134517,
    "longitude": -0.0932354,
    "status": "open",
    "openingHours": "Mon-Thu: 06:00-18:00, Fri: 06:30-16:30, Sat-Sun: Closed",
    "phone": "+44 20 7248 2190",
    "brand": "pret"
  },
  {
    "id": "33",
    "name": "Pret A Manger",
    "address": "52 New Street",
    "city": "Birmingham",
    "postcode": "B2 4EG",
    "latitude": 52.4794338,
    "longitude": -1.8998463,
    "status": "open",
    "openingHours": "Mon-Tue: 07:00-16:30, Wed: 07:00-17:00, Thu: 07:00-16:30, Fri: 06:30-17:00, Sat: 08:00-17:00, Sun: 09:00-16:00",
    "phone": "+44 121 643 2359",
    "brand": "pret"
  },
  {
    "id": "10508",
    "name": "Pret A Manger",
    "address": "Orange, Media City, Unit C, Orange Building",
    "city": "Salford",
    "postcode": "M50 2HE",
    "latitude": 53.47291912,
    "longitude": -2.29678307,
    "status": "open",
    "openingHours": "Mon: 06:30-18:30, Tue-Thu: 06:30-19:00, Fri: 06:30-18:00, Sat-Sun: 07:30-18:00",
    "phone": "+44 161 713 3829",
    "brand": "pret"
  },
  {
    "id": "10474",
    "name": "Pret A Manger",
    "address": "Terminal Rd N, International Departure Lounge, Unit Acs9",
    "city": "Stansted",
    "postcode": "CM24 1RW",
    "latitude": 51.8899565,
    "longitude": 0.2607307,
    "status": "open",
    "openingHours": "Mon-Sun: 00:00-23:50",
    "phone": "+44 1279 661149",
    "brand": "pret"
  },
  {
    "id": "114",
    "name": "Pret A Manger",
    "address": "18 Hanover Street",
    "city": "London",
    "postcode": "W1S 1YN",
    "latitude": 51.5138039,
    "longitude": -0.1419489,
    "status": "open",
    "openingHours": "Mon-Fri: 06:30-20:00, Sat: 07:00-20:00, Sun: 08:00-19:00",
    "phone": "+44 20 7629 4350",
    "brand": "pret"
  },
  {
    "id": "10629",
    "name": "Pret A Manger",
    "address": "Hepdon Mews, St George's University of London, Jenner Wing, Ground Floor",
    "city": "London",
    "postcode": "SW17 0RE",
    "latitude": 51.42669,
    "longitude": -0.17558,
    "status": "open",
    "openingHours": "Mon-Fri: 06:00-19:00, Sat: 07:00-18:00, Sun: 07:00-17:30",
    "phone": "+44 20 8672 8734",
    "brand": "pret"
  },
  {
    "id": "107",
    "name": "Pret A Manger",
    "address": "65 Long Acre",
    "city": "London",
    "postcode": "WC2E 9JD",
    "latitude": 51.513926,
    "longitude": -0.122915,
    "status": "open",
    "openingHours": "Mon-Fri: 06:30-19:00, Sat: 08:00-19:00, Sun: 08:30-18:00",
    "phone": "+44 20 7932 5324",
    "brand": "pret"
  },
  {
    "id": "21",
    "name": "Pret A Manger",
    "address": "240-241 High Holborn",
    "city": "London",
    "postcode": "WC1V 7DN",
    "latitude": 51.5176072,
    "longitude": -0.1189221,
    "status": "open",
    "openingHours": "Mon: 06:00-19:00, Tue-Thu: 06:00-19:30, Fri: 06:00-16:30, Sat-Sun: Closed",
    "phone": "+44 20 7932 5231",
    "brand": "pret"
  },
  {
    "id": "116",
    "name": "Pret A Manger",
    "address": "157 Camden High Street",
    "city": "London",
    "postcode": "NW1 7JY",
    "latitude": 51.53812,
    "longitude": -0.142214,
    "status": "open",
    "openingHours": "Mon-Fri: 06:30-17:30, Sat-Sun: 07:30-17:30",
    "phone": "+44 20 7932 5407",
    "brand": "pret"
  },
  {
    "id": "10676",
    "name": "Pret A Manger",
    "address": "86 High Street",
    "city": "Bromley",
    "postcode": "BR1 1EY",
    "latitude": 51.4028644,
    "longitude": 0.0150561,
    "status": "open",
    "openingHours": "Mon-Thu: 07:00-17:00, Fri: 07:00-16:00, Sat: 07:00-17:00, Sun: 08:00-16:30",
    "phone": "+44 20 8290 5376",
    "brand": "pret"
  },
  {
    "id": "10745",
    "name": "Pret A Manger",
    "address": "2 White Kennett Street, The St Botolphs Building",
    "city": "London",
    "postcode": "E1 7BS",
    "latitude": 51.5150581,
    "longitude": -0.0769397,
    "status": "open",
    "openingHours": "Mon-Thu: 06:30-17:00, Fri: 06:30-16:00, Sat-Sun: Closed",
    "phone": "+44 20 7283 1118",
    "brand": "pret"
  },
  {
    "id": "10591",
    "name": "Pret A Manger",
    "address": "Bassingbourn Road, Unit A Sb18, Departure Lounge Stansted",
    "city": "Stansted",
    "postcode": "CM24 8QW",
    "latitude": 51.8860181,
    "longitude": 0.2388661,
    "status": "open",
    "openingHours": "Mon-Sun: 02:30-22:00",
    "phone": "+44 1279 681950",
    "brand": "pret"
  },
  {
    "id": "10404",
    "name": "Pret A Manger",
    "address": "93 Northbrook Street",
    "city": "Newbury",
    "postcode": "RG14 1AA",
    "latitude": 51.4019656099405,
    "longitude": -1.32459797432626,
    "status": "open",
    "openingHours": "Mon-Fri: 07:30-16:30, Sat: 07:30-17:30, Sun: 08:30-16:30",
    "phone": "+44 1635 581630",
    "brand": "pret"
  },
  {
    "id": "10110",
    "name": "Pret A Manger",
    "address": "2 Canvey Street",
    "city": "London",
    "postcode": "SE1 9AN",
    "latitude": 51.5057588,
    "longitude": -0.0992494,
    "status": "open",
    "openingHours": "Mon-Thu: 06:00-18:30, Fri: 06:00-17:00, Sat: 06:30-17:00, Sun: Closed",
    "phone": "+44 20 7932 5257",
    "brand": "pret"
  },
  {
    "id": "319",
    "name": "Pret A Manger",
    "address": "99 Gloucester Road",
    "city": "London",
    "postcode": "SW7 4SS",
    "latitude": 51.49400308,
    "longitude": -0.18201869,
    "status": "open",
    "openingHours": "Mon: 06:00-20:00, Tue-Thu: 05:30-20:00, Fri: 06:00-20:00, Sat: 05:30-20:00, Sun: 06:00-19:30",
    "phone": "+44 20 7932 5214",
    "brand": "pret"
  },
  {
    "id": "113",
    "name": "Pret A Manger",
    "address": "27 Islington High Street",
    "city": "London",
    "postcode": "N1 9LH",
    "latitude": 51.53288847,
    "longitude": -0.10638551,
    "status": "open",
    "openingHours": "Mon-Fri: 05:30-20:00, Sat-Sun: 06:00-19:00",
    "phone": "+44 20 7932 5403",
    "brand": "pret"
  },
  {
    "id": "38",
    "name": "Pret A Manger",
    "address": "25 Villiers Street",
    "city": "London",
    "postcode": "WC2N 6ND",
    "latitude": 51.5082401,
    "longitude": -0.1238025,
    "status": "open",
    "openingHours": "Mon-Fri: 06:00-19:30, Sat: 07:00-19:30, Sun: 08:30-17:00",
    "phone": "+44 20 7932 5248",
    "brand": "pret"
  },
  {
    "id": "310",
    "name": "Pret A Manger",
    "address": "Kinsey Road, Unit 100 Cheshire Oaks Designer Outlet",
    "city": "Chester",
    "postcode": "CH65 9JJ",
    "latitude": 53.26577438,
    "longitude": -2.87915934,
    "status": "open",
    "openingHours": "Mon-Fri: 09:00-20:00, Sat: 08:30-21:00, Sun: 09:00-18:00",
    "phone": "+44 151 355 9162",
    "brand": "pret"
  },
  {
    "id": "10002",
    "name": "Pret A Manger",
    "address": "43 King William Street",
    "city": "London",
    "postcode": "EC4R 9AN",
    "latitude": 51.5098409,
    "longitude": -0.0866542,
    "status": "open",
    "openingHours": "Mon-Thu: 06:00-20:00, Fri: 06:30-18:30, Sat-Sun: 08:30-18:30",
    "phone": "+44 20 7932 5217",
    "brand": "pret"
  },
  {
    "id": "47",
    "name": "Pret A Manger",
    "address": "29-33 Kingsway",
    "city": "London",
    "postcode": "WC2B 6UF",
    "latitude": 51.5141584,
    "longitude": -0.118532,
    "status": "open",
    "openingHours": "Mon-Thu: 06:30-19:30, Fri: 06:30-18:00, Sat: 08:30-17:00, Sun: Closed",
    "phone": "+44 20 7932 5262",
    "brand": "pret"
  },
  {
    "id": "10779",
    "name": "Pret A Manger",
    "address": "21-24 Grosvenor Place",
    "city": "London",
    "postcode": "SW1X 7HN",
    "latitude": 51.49986593,
    "longitude": -0.14943966,
    "status": "open",
    "openingHours": "Mon-Fri: 06:00-20:00, Sat: 07:00-19:30, Sun: 07:30-18:30",
    "phone": "+44 20 7235 1927",
    "brand": "pret"
  },
  {
    "id": "10645",
    "name": "Pret A Manger",
    "address": "Tottenham Court Road, Unit 1, Ticket Hall, Tube Station",
    "city": "London",
    "postcode": "W1D 1AN",
    "latitude": 51.5165573907211,
    "longitude": -0.130815098804287,
    "status": "open",
    "openingHours": "Mon: 06:00-19:30, Tue-Wed: 05:45-20:30, Thu: 06:00-20:00, Fri: 05:45-20:00, Sat: 06:00-18:30, Sun: 07:30-16:30",
    "phone": "+44 20 7287 1472",
    "brand": "pret"
  },
  {
    "id": "35",
    "name": "Pret A Manger",
    "address": "101 Turnmill Street",
    "city": "London",
    "postcode": "EC1M 5QP",
    "latitude": 51.5203373,
    "longitude": -0.1043052,
    "status": "open",
    "openingHours": "Mon-Fri: 05:00-19:00, Sat-Sun: 06:00-19:30",
    "phone": "+44 20 3937 7825",
    "brand": "pret"
  },
  {
    "id": "10777",
    "name": "Pret A Manger",
    "address": "17 City Road",
    "city": "London",
    "postcode": "EC1Y 1AG",
    "latitude": 51.52249124,
    "longitude": -0.08686051,
    "status": "open",
    "openingHours": "Mon-Thu: 07:00-16:00, Fri: 07:00-15:30, Sat-Sun: Closed",
    "phone": "+44 20 7374 6634",
    "brand": "pret"
  },
  {
    "id": "10149",
    "name": "Pret A Manger",
    "address": "14-16 Lombard Street, Unit 1",
    "city": "London",
    "postcode": "EC3V 9AU",
    "latitude": 51.51275452,
    "longitude": -0.08765949,
    "status": "open",
    "openingHours": "Mon: 06:00-18:00, Tue-Thu: 06:00-19:00, Fri: 06:00-18:00, Sat-Sun: Closed",
    "phone": "+44 20 7932 5405",
    "brand": "pret"
  },
  {
    "id": "30",
    "name": "Pret A Manger",
    "address": "556 Oxford Street",
    "city": "London",
    "postcode": "W1C 1LZ",
    "latitude": 51.51364754,
    "longitude": -0.15860488,
    "status": "open",
    "openingHours": "Mon-Fri: 06:15-22:00, Sat: 07:00-22:00, Sun: 07:00-21:00",
    "phone": "+44 20 7932 5240",
    "brand": "pret"
  },
  {
    "id": "43",
    "name": "Pret A Manger",
    "address": "Kensington High Street, Arcade, Unit 14",
    "city": "London",
    "postcode": "W8 5SF",
    "latitude": 51.50079688,
    "longitude": -0.19265253,
    "status": "open",
    "openingHours": "Mon-Fri: 06:00-21:00, Sat-Sun: 07:00-21:00",
    "phone": "+44 20 7932 5254",
    "brand": "pret"
  },
  {
    "id": "10240",
    "name": "Pret A Manger",
    "address": "Ariel Way, Westfield, Mall South, Unit 2033, Level 50",
    "city": "London",
    "postcode": "W12 7GR",
    "latitude": 51.50749237,
    "longitude": -0.2212054,
    "status": "open",
    "openingHours": "Mon-Thu: 08:00-21:00, Fri: 08:00-21:30, Sat: 08:00-22:00, Sun: 09:30-19:00",
    "phone": "+44 20 8749 1681",
    "brand": "pret"
  },
  {
    "id": "10248",
    "name": "Pret A Manger",
    "address": "49 Eastcastle Street",
    "city": "London",
    "postcode": "W1W 8DZ",
    "latitude": 51.5163649,
    "longitude": -0.138999,
    "status": "open",
    "openingHours": "Mon-Fri: 06:00-19:00, Sat: 08:30-17:00, Sun: Closed",
    "phone": "+44 20 7932 5412",
    "brand": "pret"
  },
  {
    "id": "10253",
    "name": "Pret A Manger",
    "address": "32 Avery Row",
    "city": "London",
    "postcode": "W1K 4BE",
    "latitude": 51.51229638,
    "longitude": -0.145394,
    "status": "open",
    "openingHours": "Mon-Thu: 06:30-18:00, Fri: 06:30-17:30, Sat-Sun: Closed",
    "phone": "+44 20 7932 5447",
    "brand": "pret"
  },
  {
    "id": "10246",
    "name": "Pret A Manger",
    "address": "21-23 Northgate Street",
    "city": "Chester",
    "postcode": "CH1 2HA",
    "latitude": 53.1910938,
    "longitude": -2.8913903,
    "status": "open",
    "openingHours": "Mon: 07:00-17:00, Tue-Wed: 07:00-17:30, Thu-Fri: 07:00-17:00, Sat: 07:00-17:30, Sun: 08:00-17:00",
    "phone": "+44 7920 020150",
    "brand": "pret"
  },
  {
    "id": "10354",
    "name": "Pret A Manger",
    "address": "14-24 Caxton Street",
    "city": "London",
    "postcode": "SW1H 0QU",
    "latitude": 51.49868944,
    "longitude": -0.13596343,
    "status": "open",
    "openingHours": "Mon: 06:30-18:00, Tue-Fri: 06:30-17:00, Sat-Sun: Closed",
    "phone": "+44 20 7799 6002",
    "brand": "pret"
  },
  {
    "id": "10197",
    "name": "Pret A Manger",
    "address": "Euston Station, P1",
    "city": "London",
    "postcode": "NW1 2SX",
    "latitude": 51.528334,
    "longitude": -0.1275658,
    "status": "open",
    "openingHours": "Mon-Sat: 05:00-23:00, Sun: 06:00-22:00",
    "phone": "+44 20 7932 5432",
    "brand": "pret"
  },
  {
    "id": "10369",
    "name": "Pret A Manger",
    "address": "19 Eastcheap",
    "city": "London",
    "postcode": "EC3M 1BU",
    "latitude": 51.5108879,
    "longitude": -0.0844184,
    "status": "open",
    "openingHours": "Mon-Wed: 06:00-19:30, Thu: 06:00-20:00, Fri: 06:00-19:00, Sat: 08:00-17:00, Sun: 08:00-17:30",
    "phone": "+44 20 7283 7261",
    "brand": "pret"
  },
  {
    "id": "239",
    "name": "Pret A Manger",
    "address": "Airside Departure Lounge, London-Luton Airport, Airport Way",
    "city": "Luton",
    "postcode": "LU2 9LY",
    "latitude": 51.88035783,
    "longitude": -0.37539066,
    "status": "open",
    "openingHours": "Mon-Sun: 03:00-22:00",
    "phone": "+44 1582 453398",
    "brand": "pret"
  },
  {
    "id": "14",
    "name": "Pret A Manger",
    "address": "298 Regent Street",
    "city": "London",
    "postcode": "W1B 3AP",
    "latitude": 51.516306,
    "longitude": -0.1420877,
    "status": "open",
    "openingHours": "Mon-Fri: 06:00-21:30, Sat: 06:30-20:30, Sun: 07:00-20:30",
    "phone": "+44 20 7580 3876",
    "brand": "pret"
  },
  {
    "id": "10374",
    "name": "Pret A Manger",
    "address": "167 Borough High Street",
    "city": "London",
    "postcode": "SE1 1HR",
    "latitude": 51.502713,
    "longitude": -0.09191,
    "status": "open",
    "openingHours": "Mon: 06:30-17:00, Tue-Thu: 06:00-17:00, Fri: 06:30-17:00, Sat-Sun: Closed",
    "phone": "+44 20 8001 7457",
    "brand": "pret"
  },
  {
    "id": "10366",
    "name": "Pret A Manger",
    "address": "37 Lower George Street",
    "city": "Richmond",
    "postcode": "TW9 1HY",
    "latitude": 51.4608931,
    "longitude": -0.3035163,
    "status": "open",
    "openingHours": "Mon-Fri: 06:00-18:30, Sat-Sun: 06:30-18:30",
    "phone": "+44 20 8332 1012",
    "brand": "pret"
  },
  {
    "id": "10375",
    "name": "Pret A Manger",
    "address": "20 Baker Street",
    "city": "London",
    "postcode": "W1U 3BY",
    "latitude": 51.5176734,
    "longitude": -0.1551687,
    "status": "open",
    "openingHours": "Mon: 06:30-18:30, Tue-Fri: 06:00-18:30, Sat: 07:00-18:30, Sun: 08:00-17:00",
    "phone": "+44 20 7486 1713",
    "brand": "pret"
  },
  {
    "id": "41",
    "name": "Pret A Manger",
    "address": "8-10 King Street, Hammersmith",
    "city": "London",
    "postcode": "W6 0QA",
    "latitude": 51.49307,
    "longitude": -0.22559,
    "status": "open",
    "openingHours": "Mon-Wed: 05:30-20:00, Thu-Fri: 06:00-20:00, Sat: 06:30-20:00, Sun: 07:00-19:00",
    "phone": "+44 20 7932 5252",
    "brand": "pret"
  },
  {
    "id": "10488",
    "name": "Pret A Manger",
    "address": "247-249 High Street",
    "city": "Exeter",
    "postcode": "EX4 3PZ",
    "latitude": 50.7250723,
    "longitude": -3.5285448,
    "status": "open",
    "openingHours": "Mon-Fri: 07:00-18:00, Sat: 07:00-18:30, Sun: 08:30-17:30",
    "phone": "+44 1392 459661",
    "brand": "pret"
  },
  {
    "id": "120",
    "name": "Pret A Manger",
    "address": "49 Tothill Street",
    "city": "London",
    "postcode": "SW1H 9LQ",
    "latitude": 51.4996039,
    "longitude": -0.1325016,
    "status": "open",
    "openingHours": "Mon-Thu: 05:30-22:00, Fri-Sun: 06:00-22:00",
    "phone": "+44 20 7932 5328",
    "brand": "pret"
  },
  {
    "id": "10475",
    "name": "Pret A Manger",
    "address": "121 Bethnal Green Road",
    "city": "London",
    "postcode": "E2 7DG",
    "latitude": 51.5249789,
    "longitude": -0.0718784,
    "status": "open",
    "openingHours": "Mon-Sun: 07:00-17:00",
    "phone": "+44 20 7739 0086",
    "brand": "pret"
  },
  {
    "id": "124",
    "name": "Pret A Manger",
    "address": "121 Putney High Street",
    "city": "London",
    "postcode": "SW15 1SU",
    "latitude": 51.46239,
    "longitude": -0.21622,
    "status": "open",
    "openingHours": "Mon-Fri: 06:00-18:30, Sat: 06:30-18:30, Sun: 07:30-17:30",
    "phone": "+44 20 8780 3150",
    "brand": "pret"
  },
  {
    "id": "10497",
    "name": "Pret A Manger",
    "address": "1 Portland Street",
    "city": "Manchester",
    "postcode": "M1 1RG",
    "latitude": 53.48053,
    "longitude": -2.23594,
    "status": "open",
    "openingHours": "Mon: 06:30-18:30, Tue-Thu: 06:30-19:00, Fri: 06:30-18:00, Sat: 08:00-18:00, Sun: Closed",
    "phone": "+44 161 228 6797",
    "brand": "pret"
  },
  {
    "id": "235",
    "name": "Pret A Manger",
    "address": "11 Haymarket",
    "city": "Norwich",
    "postcode": "NR2 1QD",
    "latitude": 52.6271497,
    "longitude": 1.293512,
    "status": "open",
    "openingHours": "Mon: 07:00-17:30, Tue-Fri: 06:30-17:30, Sat: 07:00-18:00, Sun: 07:30-17:30",
    "phone": "+44 117 370 5847",
    "brand": "pret"
  },
  {
    "id": "10236",
    "name": "Pret A Manger",
    "address": "21 Saint George Wharf, Vauxhall",
    "city": "London",
    "postcode": "SW8 2JW",
    "latitude": 51.48625,
    "longitude": -0.12483,
    "status": "open",
    "openingHours": "Mon-Fri: 05:30-20:00, Sat-Sun: 06:00-20:00",
    "phone": "+44 20 7932 5415",
    "brand": "pret"
  },
  {
    "id": "10470",
    "name": "Pret A Manger",
    "address": "240 Blackfriars Road",
    "city": "London",
    "postcode": "SE1 8NW",
    "latitude": 51.506604,
    "longitude": -0.1040824,
    "status": "open",
    "openingHours": "Mon-Thu: 06:00-18:00, Fri: 06:00-17:00, Sat-Sun: Closed",
    "phone": "+44 20 7620 4580",
    "brand": "pret"
  },
  {
    "id": "166",
    "name": "Pret A Manger",
    "address": "51 Hanover Street",
    "city": "Edinburgh",
    "postcode": "EH2 2PJ",
    "latitude": 55.95318276,
    "longitude": -3.19679578,
    "status": "open",
    "openingHours": "Mon-Sat: 07:00-18:00, Sun: 07:30-18:00",
    "phone": "+44 131 260 9727",
    "brand": "pret"
  },
  {
    "id": "282",
    "name": "Pret A Manger",
    "address": "39 Coventry Street",
    "city": "London",
    "postcode": "W1D 6BZ",
    "latitude": 51.5102973,
    "longitude": -0.1316134,
    "status": "open",
    "openingHours": "Mon-Fri: 06:00-22:30, Sat: 07:00-22:30, Sun: 07:00-20:00",
    "phone": "+44 20 3272 0090",
    "brand": "pret"
  },
  {
    "id": "250",
    "name": "Pret A Manger",
    "address": "47-49 Tooley Street",
    "city": "London",
    "postcode": "SE1 2QN",
    "latitude": 51.5055593,
    "longitude": -0.08499506,
    "status": "open",
    "openingHours": "Mon-Fri: 05:30-19:30, Sat-Sun: 07:00-19:30",
    "phone": "+44 20 7932 5366",
    "brand": "pret"
  },
  {
    "id": "252",
    "name": "Pret A Manger",
    "address": "1 Finsbury Square, Unit 2",
    "city": "London",
    "postcode": "EC2A 1AE",
    "latitude": 51.5207044,
    "longitude": -0.0875261,
    "status": "open",
    "openingHours": "Mon: 06:00-17:30, Tue-Thu: 06:00-18:00, Fri: 06:30-17:00, Sat-Sun: Closed",
    "phone": "+44 20 7932 5365",
    "brand": "pret"
  },
  {
    "id": "283",
    "name": "Pret A Manger",
    "address": "Contrail Way, Landside, Terminal 2, Terminal 3",
    "city": "Hounslow",
    "postcode": "TW6 1QG",
    "latitude": 51.4712258,
    "longitude": -0.4533148,
    "status": "open",
    "openingHours": "Mon-Sun: 06:00-22:00",
    "phone": "+44 20 8759 6716",
    "brand": "pret"
  },
  {
    "id": "10599",
    "name": "Pret A Manger",
    "address": "93-95 High Street",
    "city": "Epsom",
    "postcode": "KT18 5DA",
    "latitude": 51.3331395,
    "longitude": -0.267315,
    "status": "open",
    "openingHours": "Mon-Fri: 06:00-17:30, Sat: 06:30-17:30, Sun: 07:30-16:30",
    "phone": "+44 1372 722458",
    "brand": "pret"
  },
  {
    "id": "87",
    "name": "Pret A Manger",
    "address": "9/10 Goswell Road, Charterhouse Buildings",
    "city": "London",
    "postcode": "EC1M 7AN",
    "latitude": 51.5231115,
    "longitude": -0.0985752,
    "status": "open",
    "openingHours": "Mon: 06:00-19:00, Tue: 06:00-20:00, Wed: 06:00-20:30, Thu: 06:00-20:00, Fri: 06:00-19:00, Sat: 07:30-15:30, Sun: Closed",
    "phone": "+44 20 7932 5302",
    "brand": "pret"
  },
  {
    "id": "51",
    "name": "Pret A Manger",
    "address": "52-54 Cannon Street",
    "city": "London",
    "postcode": "EC4N 6LY",
    "latitude": 51.5119992,
    "longitude": -0.0925261,
    "status": "open",
    "openingHours": "Mon-Thu: 06:00-20:00, Fri: 06:00-18:00, Sat: 06:30-17:00, Sun: 07:00-17:00",
    "phone": "+44 20 7932 5266",
    "brand": "pret"
  },
  {
    "id": "10593",
    "name": "Pret A Manger",
    "address": "36-38 Cowcross Street",
    "city": "London",
    "postcode": "EC1M 6BY",
    "latitude": 51.52022976,
    "longitude": -0.10464827,
    "status": "open",
    "openingHours": "Mon-Fri: 05:30-17:30, Sat-Sun: Closed",
    "phone": "+44 20 7253 8111",
    "brand": "pret"
  },
  {
    "id": "10199",
    "name": "Pret A Manger",
    "address": "10 Parade",
    "city": "Canterbury",
    "postcode": "CT1 2SG",
    "latitude": 51.2787598,
    "longitude": 1.0806776,
    "status": "open",
    "openingHours": "Mon-Fri: 07:00-17:00, Sat: 07:30-17:30, Sun: 08:30-17:00",
    "phone": "+44 1227 479563",
    "brand": "pret"
  },
  {
    "id": "278",
    "name": "Pret A Manger",
    "address": "10 Paternoster Square, Unit 1",
    "city": "London",
    "postcode": "EC4M 7DY",
    "latitude": 51.51520101,
    "longitude": -0.09907372,
    "status": "open",
    "openingHours": "Mon-Thu: 06:00-20:00, Fri: 06:00-18:00, Sat-Sun: 07:00-18:00",
    "phone": "+44 20 7932 5379",
    "brand": "pret"
  },
  {
    "id": "10595",
    "name": "Pret A Manger",
    "address": "7-8 Rathbone Place",
    "city": "London",
    "postcode": "W1T 1HN",
    "latitude": 51.5168322,
    "longitude": -0.1330828,
    "status": "open",
    "openingHours": "Mon-Thu: 06:00-20:00, Fri: 06:00-19:00, Sat: 07:00-19:00, Sun: 08:30-17:00",
    "phone": "+44 20 7631 3195",
    "brand": "pret"
  },
  {
    "id": "117",
    "name": "Pret A Manger",
    "address": "7 Berkeley Square",
    "city": "London",
    "postcode": "W1J 6ES",
    "latitude": 51.50950978,
    "longitude": -0.1445307,
    "status": "open",
    "openingHours": "Mon-Fri: 05:30-21:30, Sat: 06:30-20:30, Sun: 07:00-20:00",
    "phone": "+44 20 7932 5408",
    "brand": "pret"
  },
  {
    "id": "68",
    "name": "Pret A Manger",
    "address": "7 Westferry Circus, Unit B2.S.50",
    "city": "London",
    "postcode": "E14 4HD",
    "latitude": 51.505973,
    "longitude": -0.0272556,
    "status": "open",
    "openingHours": "Mon-Thu: 06:30-17:00, Fri: 06:30-16:30, Sat-Sun: Closed",
    "phone": "+44 20 3229 0248",
    "brand": "pret"
  },
  {
    "id": "10159",
    "name": "Pret A Manger",
    "address": "28 Fenchurch Avenue",
    "city": "London",
    "postcode": "EC3M 5AD",
    "latitude": 51.51293351,
    "longitude": -0.08140526,
    "status": "open",
    "openingHours": "Mon-Fri: 06:00-17:00, Sat-Sun: Closed",
    "phone": "+44 20 7932 5344",
    "brand": "pret"
  },
  {
    "id": "84",
    "name": "Pret A Manger",
    "address": "34 Sauchiehall Street",
    "city": "Glasgow",
    "postcode": "G2 3AH",
    "latitude": 55.8645271,
    "longitude": -4.2543235,
    "status": "open",
    "openingHours": "Mon-Fri: 06:30-18:30, Sat: 07:30-18:00, Sun: 07:30-17:30",
    "phone": "+44 141 333 9647",
    "brand": "pret"
  },
  {
    "id": "10363",
    "name": "Pret A Manger",
    "address": "Departures Road, International Departure Lounge, Gatwick North Terminal",
    "city": "Gatwick",
    "postcode": "RH6 0NP",
    "latitude": 51.1560845,
    "longitude": -0.1775294,
    "status": "open",
    "openingHours": "Mon-Sun: 00:00-23:59",
    "phone": "+44 1293 223496",
    "brand": "pret"
  },
  {
    "id": "10147",
    "name": "Pret A Manger",
    "address": "Wellington Road, Terminal 5, Heathrow Airport, Unit 8 Gate Level",
    "city": "Hounslow",
    "postcode": "TW6 2GA",
    "latitude": 51.47227624,
    "longitude": -0.48812143,
    "status": "open",
    "openingHours": "Mon-Sun: 04:30-22:00",
    "phone": "+44 20 8283 8120",
    "brand": "pret"
  },
  {
    "id": "10323",
    "name": "Pret A Manger",
    "address": "182 Saint John Street",
    "city": "London",
    "postcode": "EC1V 4JZ",
    "latitude": 51.5245722,
    "longitude": -0.1030966,
    "status": "open",
    "openingHours": "Mon-Thu: 06:00-18:00, Fri: 06:00-17:30, Sat: 07:30-15:30, Sun: Closed",
    "phone": "+44 20 3370 9296",
    "brand": "pret"
  },
  {
    "id": "10191",
    "name": "Pret A Manger",
    "address": "5 Aldermanbury Square, Unit 2",
    "city": "London",
    "postcode": "EC2V 7HR",
    "latitude": 51.51712345,
    "longitude": -0.0933459,
    "status": "open",
    "openingHours": "Mon-Thu: 06:00-18:00, Fri: 06:00-16:30, Sat-Sun: Closed",
    "phone": "+44 20 7726 6323",
    "brand": "pret"
  },
  {
    "id": "10446",
    "name": "Pret A Manger",
    "address": "Harbour Exchange Square, Millwall Dock, Docklands, Unit CGN, 19, Island",
    "city": "London",
    "postcode": "E14 9GE",
    "latitude": 51.49854,
    "longitude": -0.01583,
    "status": "open",
    "openingHours": "Mon-Thu: 06:00-19:00, Fri: 06:00-18:00, Sat-Sun: 07:00-18:00",
    "phone": "+44 20 7537 9672",
    "brand": "pret"
  },
  {
    "id": "90",
    "name": "Pret A Manger",
    "address": "65-69 Bothwell Street",
    "city": "Glasgow",
    "postcode": "G2 6TS",
    "latitude": 55.8610979,
    "longitude": -4.2612866,
    "status": "open",
    "openingHours": "Mon: 06:30-17:00, Tue-Thu: 06:30-16:00, Fri: 07:00-15:30, Sat-Sun: Closed",
    "phone": "+44 141 248 6335",
    "brand": "pret"
  },
  {
    "id": "10326",
    "name": "Pret A Manger",
    "address": "402 Saint John Street",
    "city": "London",
    "postcode": "EC1V 4NJ",
    "latitude": 51.5310634,
    "longitude": -0.1057951,
    "status": "open",
    "openingHours": "Mon-Fri: 06:00-19:30, Sat: 07:30-17:00, Sun: Closed",
    "phone": "+44 20 7932 5470",
    "brand": "pret"
  },
  {
    "id": "10332",
    "name": "Pret A Manger",
    "address": "14-15 West Street",
    "city": "Horsham",
    "postcode": "RH12 1PB",
    "latitude": 51.062728,
    "longitude": -0.330537,
    "status": "open",
    "openingHours": "Mon-Fri: 07:00-17:00, Sat: 07:30-17:30, Sun: 08:30-16:30",
    "phone": "+44 1403 241280",
    "brand": "pret"
  },
  {
    "id": "10291",
    "name": "Pret A Manger",
    "address": "21 Mansell Street",
    "city": "London",
    "postcode": "E1 8AA",
    "latitude": 51.5137929,
    "longitude": -0.0732797,
    "status": "open",
    "openingHours": "Mon: 06:00-17:00, Tue-Thu: 06:00-17:30, Fri: 06:00-16:30, Sat-Sun: Closed",
    "phone": "+44 20 7932 5456",
    "brand": "pret"
  },
  {
    "id": "10163",
    "name": "Pret A Manger",
    "address": "27 Gordon Street",
    "city": "Glasgow",
    "postcode": "G1 3PL",
    "latitude": 55.8603083,
    "longitude": -4.2552977,
    "status": "open",
    "openingHours": "Mon: 06:30-17:00, Tue-Thu: 06:30-17:30, Fri: 06:30-17:00, Sat: 08:00-16:30, Sun: 08:30-16:30",
    "phone": "+44 141 847 0449",
    "brand": "pret"
  },
  {
    "id": "10477",
    "name": "Pret A Manger",
    "address": "95 Cannon Street, The Walbrook Building",
    "city": "London",
    "postcode": "EC4N 5AE",
    "latitude": 51.5118373,
    "longitude": -0.0904335,
    "status": "open",
    "openingHours": "Mon-Thu: 05:30-20:30, Fri: 05:30-20:00, Sat: 06:00-19:30, Sun: 06:30-17:30",
    "phone": "+44 20 7929 3960",
    "brand": "pret"
  },
  {
    "id": "10174",
    "name": "Pret A Manger",
    "address": "1 Canada Square, Canary Wharf, Ds7",
    "city": "London",
    "postcode": "E14 4QS",
    "latitude": 51.5051589,
    "longitude": -0.0201856,
    "status": "open",
    "openingHours": "Mon-Thu: 05:30-19:00, Fri: 05:30-18:00, Sat-Sun: Closed",
    "phone": "+44 20 7516 0323",
    "brand": "pret"
  },
  {
    "id": "10290",
    "name": "Pret A Manger",
    "address": "Westfield Avenue, Stratford City, Su 2054, 202 The Gallery",
    "city": "London",
    "postcode": "E20 1ES",
    "latitude": 51.543251,
    "longitude": -0.007338,
    "status": "open",
    "openingHours": "Mon: 08:00-20:00, Tue-Sat: 08:00-21:00, Sun: 09:00-20:00",
    "phone": "+44 20 8221 2335",
    "brand": "pret"
  },
  {
    "id": "10552",
    "name": "Pret A Manger",
    "address": "35 Frith Street",
    "city": "London",
    "postcode": "W1D 5LQ",
    "latitude": 51.5126935,
    "longitude": -0.1310827,
    "status": "open",
    "openingHours": "Mon-Fri: 06:30-20:00, Sat: 08:30-19:30, Sun: 08:30-19:00",
    "phone": "+44 20 7287 6729",
    "brand": "pret"
  },
  {
    "id": "10321",
    "name": "Pret A Manger",
    "address": "230-232 Earls Court Road",
    "city": "London",
    "postcode": "SW5 9RD",
    "latitude": 51.4920426,
    "longitude": -0.1930876,
    "status": "open",
    "openingHours": "Mon: 06:00-19:00, Tue-Fri: 06:30-19:00, Sat: 07:00-17:30, Sun: 07:30-17:30",
    "phone": "+44 20 7932 5462",
    "brand": "pret"
  },
  {
    "id": "10674",
    "name": "Pret A Manger",
    "address": "The Avenue, Unit 5K, Block 5, The Lexicon",
    "city": "Bracknell",
    "postcode": "RG12 1AP",
    "latitude": 51.4178607,
    "longitude": -0.7501637,
    "status": "open",
    "openingHours": "Mon-Fri: 08:00-17:00, Sat: 08:00-17:30, Sun: 08:30-17:00",
    "phone": "+44 1344 864775",
    "brand": "pret"
  },
  {
    "id": "10557",
    "name": "Pret A Manger",
    "address": "268 Byres Road",
    "city": "Glasgow",
    "postcode": "G12 8SH",
    "latitude": 55.8755272,
    "longitude": -4.2931142,
    "status": "open",
    "openingHours": "Mon-Fri: 07:15-17:30, Sat: 08:00-17:30, Sun: 09:00-17:00",
    "phone": "+44 7824 318714",
    "brand": "pret"
  },
  {
    "id": "195",
    "name": "Pret A Manger",
    "address": "Bank Street, Unit 13, RT3, Canary Wharf",
    "city": "London",
    "postcode": "E14 5NY",
    "latitude": 51.5030777,
    "longitude": -0.0182551,
    "status": "open",
    "openingHours": "Mon-Fri: 06:00-19:30, Sat: 07:30-18:30, Sun: 08:00-18:00",
    "phone": "+44 20 7932 5346",
    "brand": "pret"
  },
  {
    "id": "10790",
    "name": "Pret A Manger",
    "address": "1 Stratford Place, Westfield Stratford City, Unit SU37A-M6, Stratford Place 1",
    "city": "London",
    "postcode": "E20 1EJ",
    "latitude": 51.543369,
    "longitude": -0.00413,
    "status": "open",
    "openingHours": "Mon-Fri: 05:45-22:30, Sat: 06:00-22:00, Sun: 07:00-21:00",
    "phone": "+44 20 8555 8809",
    "brand": "pret"
  },
  {
    "id": "10820",
    "name": "Pret A Manger",
    "address": "1 The Pavement, Clapham Town",
    "city": "London",
    "postcode": "SW4 0HY",
    "latitude": 51.46209,
    "longitude": -0.13791,
    "status": "open",
    "openingHours": "Mon-Sat: 06:00-18:00, Sun: 07:00-17:30",
    "phone": "+44 20 7720 6213",
    "brand": "pret"
  },
  {
    "id": "10837",
    "name": "Pret A Manger",
    "address": "2-3 Pride Hill",
    "city": "Liverpool",
    "postcode": "SY1 1DB",
    "latitude": 52.7077319074937,
    "longitude": -2.75412583048382,
    "status": "open",
    "openingHours": "Mon-Sat: 07:00-16:30, Sun: Closed",
    "phone": "+44 1743 231623",
    "brand": "pret"
  },
  {
    "id": "10832",
    "name": "Pret A Manger",
    "address": "99 Chase Side, Southgate",
    "city": "London",
    "postcode": "N14 5BU",
    "latitude": 51.63386556050822,
    "longitude": -0.13301843064253938,
    "status": "open",
    "openingHours": "Mon-Fri: 05:30-20:00, Sat: 06:00-19:30, Sun: 06:00-18:00",
    "phone": "+44 20 8882 7256",
    "brand": "pret"
  },
  {
    "id": "10822",
    "name": "Pret A Manger",
    "address": "Churchover, New Ash Tree Farm, Rugby",
    "city": "Birmingham",
    "postcode": "CV23 0EZ",
    "latitude": 52.4048,
    "longitude": -1.24537,
    "status": "open",
    "openingHours": "Mon-Thu: 06:00-19:00, Fri: 06:00-21:00, Sat: 06:00-19:00, Sun: 07:00-19:00",
    "brand": "pret"
  },
  {
    "id": "10825",
    "name": "Pret A Manger",
    "address": "West Thurrock Way, Unit 2-3 Lower Level, Lakeside Shopping Centre",
    "city": "Grays",
    "postcode": "RM20 2ZP",
    "latitude": 51.4870512173096,
    "longitude": 0.28357625876468,
    "status": "open",
    "openingHours": "Mon-Sat: 08:00-21:00, Sun: 10:00-17:00",
    "phone": "+44 1708 680748",
    "brand": "pret"
  },
  {
    "id": "10848",
    "name": "Pret A Manger",
    "address": "192 Haverstock Hill",
    "city": "London",
    "postcode": "NW3 2AJ",
    "latitude": 51.54803,
    "longitude": -0.16075,
    "status": "open",
    "openingHours": "Mon-Fri: 06:15-19:00, Sat: 07:00-19:00, Sun: 07:30-19:00",
    "phone": "+44 20 7435 0443",
    "brand": "pret"
  },
  {
    "id": "10802",
    "name": "Pret A Manger",
    "address": "Piccadilly",
    "city": "London",
    "postcode": "W1J 0DP",
    "latitude": 51.50907835,
    "longitude": -0.13740609,
    "status": "open",
    "openingHours": "Mon-Fri: 06:00-20:00, Sat: 07:00-20:00, Sun: 08:00-19:00",
    "phone": "+44 20 7287 6007",
    "brand": "pret"
  },
  {
    "id": "10784",
    "name": "Pret A Manger",
    "address": "Atlanta Avenue, Terminal 2 Manchester Airport Landside",
    "city": "Manchester",
    "postcode": "M90 1QX",
    "latitude": 53.3679533,
    "longitude": -2.2821395,
    "status": "open",
    "openingHours": "Mon-Fri: 06:00-18:00, Sat-Sun: 06:00-17:00",
    "phone": "+44 161 437 2804",
    "brand": "pret"
  },
  {
    "id": "10842",
    "name": "Pret A Manger",
    "address": "Creek Road, Unit SU5 Crescent Arcade, Cutty Sark",
    "city": "London",
    "postcode": "SE10 9EJ",
    "latitude": 51.4818227,
    "longitude": -0.010761,
    "status": "open",
    "openingHours": "Mon-Fri: 07:00-17:00, Sat-Sun: 08:00-17:30",
    "phone": "+44 20 8853 1861",
    "brand": "pret"
  },
  {
    "id": "10852",
    "name": "Pret A Manger",
    "address": "200 Balham High Road",
    "city": "London",
    "postcode": "SW12 9DH",
    "latitude": 51.44485,
    "longitude": -0.1516,
    "status": "open",
    "openingHours": "Mon-Fri: 05:30-18:00, Sat: 06:30-18:00, Sun: 06:30-17:00",
    "phone": "+44 20 8673 1710",
    "brand": "pret"
  },
  {
    "id": "10855",
    "name": "Pret A Manger",
    "address": "13 Clifton Road",
    "city": "London",
    "postcode": "W9 1SZ",
    "latitude": 51.52560583,
    "longitude": -0.17899788,
    "status": "open",
    "openingHours": "Mon-Fri: 06:30-17:00, Sat-Sun: 07:30-16:00",
    "phone": "+44 20 7289 9163",
    "brand": "pret"
  },
  {
    "id": "10847",
    "name": "Pret A Manger",
    "address": "Eversholt Street, Unit 4 The Piazza, Euston Piazza",
    "city": "London",
    "postcode": "NW1 2RT",
    "latitude": 51.528664,
    "longitude": -0.133296,
    "status": "open",
    "openingHours": "Mon-Sun: 05:00-23:00",
    "phone": "+44 20 7388 5401",
    "brand": "pret"
  },
  {
    "id": "10851",
    "name": "Pret A Manger",
    "address": "Shopping Precinct, Palace Exchange Shopping Centre. Units 3 and 4, Shopping",
    "city": "Enfield",
    "postcode": "EN2 6LF",
    "latitude": 51.65166,
    "longitude": -0.08213,
    "status": "open",
    "openingHours": "Mon-Sat: 07:00-18:30, Sun: 07:30-18:00",
    "phone": "+44 20 8363 1708",
    "brand": "pret"
  },
  {
    "id": "10856",
    "name": "Pret A Manger",
    "address": "High Street, Unit 4 Holly Parade, Cobham",
    "city": "Surrey",
    "postcode": "KT11 3EE",
    "latitude": 51.32819599,
    "longitude": -0.41067,
    "status": "open",
    "openingHours": "Mon: 07:30-15:00, Tue-Wed: 07:00-15:00, Thu-Fri: 06:30-15:00, Sat: 07:30-15:30, Sun: 08:00-15:30",
    "phone": "+44 1932 866811",
    "brand": "pret"
  },
  {
    "id": "10781",
    "name": "Pret A Manger",
    "address": "Cayley Road, Inner Ring East, Terminal 2",
    "city": "Hounslow",
    "postcode": "TW6 1EW",
    "latitude": 51.4695758,
    "longitude": -0.4496072,
    "status": "open",
    "openingHours": "Mon-Sun: 04:30-22:00",
    "phone": "+44 20 8745 4802",
    "brand": "pret"
  },
  {
    "id": "10859",
    "name": "Pret A Manger",
    "address": "Bothwell Close, Unit C01, Hallsville Quarter",
    "city": "London",
    "postcode": "E16 1QT",
    "latitude": 51.51492443,
    "longitude": 0.00923386,
    "status": "open",
    "openingHours": "Mon-Fri: 06:30-16:00, Sat: 07:00-17:00, Sun: 08:00-17:00",
    "phone": "+44 20 7473 6209",
    "brand": "pret"
  },
  {
    "id": "10867",
    "name": "Pret A Manger",
    "address": "21 King Street",
    "city": "Twickenham",
    "postcode": "TW1 3SD",
    "latitude": 51.4457707,
    "longitude": -0.3287572,
    "status": "open",
    "openingHours": "Mon-Fri: 07:00-16:00, Sat: 08:30-16:00, Sun: 08:30-15:00",
    "phone": "+44 20 8891 3966",
    "brand": "pret"
  },
  {
    "id": "10853",
    "name": "Pret A Manger",
    "address": "Station Road",
    "city": "York",
    "postcode": "YO24 1AB",
    "latitude": 53.95832938,
    "longitude": -1.09317067,
    "status": "open",
    "openingHours": "Mon-Fri: 05:30-21:00, Sat: 05:30-21:30, Sun: 07:00-21:30",
    "phone": "+44 1904 629346",
    "brand": "pret"
  },
  {
    "id": "10783",
    "name": "Pret A Manger",
    "address": "Atlanta Ave, Terminal 2 Manchester Airport Airside",
    "city": "Manchester",
    "postcode": "M90 1QX",
    "latitude": 53.36785117,
    "longitude": -2.28188467,
    "status": "open",
    "openingHours": "Mon-Thu: 03:30-20:30, Fri: 03:30-22:00, Sat-Sun: 03:30-20:30",
    "phone": "+44 161 437 8175",
    "brand": "pret"
  },
  {
    "id": "10841",
    "name": "Pret A Manger",
    "address": "York Road, Unit 2B, Southbank Place",
    "city": "London",
    "postcode": "SE1 7NA",
    "latitude": 51.5037078,
    "longitude": -0.1163002,
    "status": "open",
    "openingHours": "Mon-Fri: 06:00-17:30, Sat-Sun: Closed",
    "phone": "+44 20 7261 0934",
    "brand": "pret"
  },
  {
    "id": "10868",
    "name": "Pret A Manger",
    "address": "42 High Street",
    "city": "Brentwood",
    "postcode": "CM14 4AJ",
    "latitude": 51.619881,
    "longitude": 0.3003,
    "status": "open",
    "openingHours": "Mon-Thu: 07:30-16:00, Fri-Sat: 07:30-16:30, Sun: 08:00-16:00",
    "phone": "+44 1277 217268",
    "brand": "pret"
  },
  {
    "id": "10869",
    "name": "Pret A Manger",
    "address": "198 High Street",
    "city": "Hounslow",
    "postcode": "TW3 1HL",
    "latitude": 51.4688984,
    "longitude": -0.362738,
    "status": "open",
    "openingHours": "Mon: 08:30-16:00, Tue-Thu: 07:30-16:00, Fri: 08:00-16:00, Sat: 08:00-17:30, Sun: 09:00-16:00",
    "phone": "+44 20 8814 0681",
    "brand": "pret"
  },
  {
    "id": "10878",
    "name": "Pret A Manger",
    "address": "26-27 Cornmarket St, Oxford",
    "city": "Oxford",
    "postcode": "OX1 3EY",
    "latitude": 51.75304,
    "longitude": -1.25838,
    "status": "open",
    "openingHours": "Mon-Sat: 07:00-20:00, Sun: 08:00-18:00",
    "phone": "+44 1865 251864",
    "brand": "pret"
  },
  {
    "id": "10870",
    "name": "Pret A Manger",
    "address": "356-358 South Lambeth Road",
    "city": "London",
    "postcode": "SW8 1UG",
    "latitude": 51.4727035,
    "longitude": -0.1225105,
    "status": "open",
    "openingHours": "Mon-Fri: 06:30-16:30, Sat: 07:00-16:30, Sun: 07:30-16:00",
    "phone": "+44 20 7720 8232",
    "brand": "pret"
  },
  {
    "id": "10877",
    "name": "Pret A Manger",
    "address": "Unit U30, Westgate Shopping Centre, Oxford, Unit U30, Westgate Shopping Centre",
    "city": "Oxford",
    "postcode": "OX1 1NZ",
    "latitude": 51.74945,
    "longitude": -1.2658,
    "status": "open",
    "openingHours": "Mon-Fri: 07:30-20:00, Sat: 08:00-20:00, Sun: 08:30-18:00",
    "brand": "pret"
  },
  {
    "id": "10887",
    "name": "Pret A Manger",
    "address": "8 Victoria Road",
    "city": "London",
    "postcode": "KT6 4JL",
    "latitude": 51.5006881,
    "longitude": -0.1860604,
    "status": "open",
    "openingHours": "Mon: 06:30-15:30, Tue-Thu: 06:30-16:00, Fri: 06:30-15:30, Sat: 07:30-15:30, Sun: 08:00-15:30",
    "phone": "+44 20 8390 3221",
    "brand": "pret"
  },
  {
    "id": "10824",
    "name": "Pret A Manger",
    "address": "100 Liverpool Street, Unit LG4",
    "city": "London",
    "postcode": "EC2M 2RH",
    "latitude": 51.5187,
    "longitude": -0.0827,
    "status": "open",
    "openingHours": "Mon-Fri: 06:00-20:00, Sat: 07:00-17:30, Sun: 07:00-17:00",
    "brand": "pret"
  },
  {
    "id": "10883",
    "name": "Pret A Manger",
    "address": "172 Stoke Newington High Street",
    "city": "London",
    "postcode": "N16 0PE",
    "latitude": 51.56155553,
    "longitude": -0.07346572,
    "status": "open",
    "openingHours": "Mon-Fri: 06:30-17:00, Sat: 08:00-16:30, Sun: 08:00-16:00",
    "brand": "pret"
  },
  {
    "id": "10897",
    "name": "Pret A Manger",
    "address": "252 Tottenham Court Road",
    "city": "London",
    "postcode": "W1T 7RB",
    "latitude": 51.51781,
    "longitude": -0.13127,
    "status": "open",
    "openingHours": "Mon-Thu: 06:00-20:00, Fri: 06:00-18:00, Sat: 08:00-18:00, Sun: 08:00-17:00",
    "phone": "+44 20 7436 1981",
    "brand": "pret"
  },
  {
    "id": "10896",
    "name": "Pret A Manger",
    "address": "Circus Rd W, Power Station, Battersea, Turbine Hall B",
    "city": "London",
    "postcode": "SW8 5BN",
    "latitude": 51.4823811,
    "longitude": -0.1444907,
    "status": "open",
    "openingHours": "Mon-Fri: 07:00-20:30, Sat: 08:00-20:30, Sun: 08:00-19:30",
    "brand": "pret"
  },
  {
    "id": "10913",
    "name": "Pret A Manger",
    "address": "336 Chiswick High Road, Building 5, Chiswick Business Park",
    "city": "London",
    "postcode": "W4 5YA",
    "latitude": 51.4928524,
    "longitude": -0.2623105,
    "status": "open",
    "openingHours": "Mon-Fri: 06:30-17:00, Sat-Sun: Closed",
    "brand": "pret"
  },
  {
    "id": "10903",
    "name": "Pret A Manger",
    "address": "19-21 Ludgate Hill",
    "city": "London",
    "postcode": "EC4M 7AE",
    "latitude": 51.51378,
    "longitude": -0.10124,
    "status": "open",
    "openingHours": "Mon-Thu: 06:00-19:30, Fri: 06:00-18:00, Sat: 07:30-17:30, Sun: 07:30-16:30",
    "phone": "+44 20 7248 9181",
    "brand": "pret"
  },
  {
    "id": "10506",
    "name": "Pret A Manger",
    "address": "73 Russell Square",
    "city": "London",
    "postcode": "WC1B 5BG",
    "latitude": 51.5221659,
    "longitude": -0.1244796,
    "status": "open",
    "openingHours": "Mon: 06:15-19:00, Tue-Fri: 06:15-19:30, Sat-Sun: 06:45-17:00",
    "phone": "+44 20 7837 7098",
    "brand": "pret"
  },
  {
    "id": "10918",
    "name": "Pret A Manger",
    "address": "240 Banbury Road, Summertown, Oxford, Summertown",
    "city": "Oxford",
    "postcode": "OX2 7BY",
    "latitude": 51.777431,
    "longitude": -1.26488,
    "status": "open",
    "openingHours": "Mon-Sat: 08:00-18:00, Sun: 09:00-17:00",
    "phone": "+44 1865 515060",
    "brand": "pret"
  },
  {
    "id": "10889",
    "name": "Pret A Manger",
    "address": "4-6 James Street",
    "city": "Harrogate",
    "postcode": "HG1 1RF",
    "latitude": 53.99239191,
    "longitude": -1.53866808,
    "status": "open",
    "openingHours": "Mon-Fri: 07:00-16:30, Sat: 07:30-17:00, Sun: 08:30-16:00",
    "brand": "pret"
  },
  {
    "id": "10876",
    "name": "Pret A Manger",
    "address": "Headley Way, Unit 2 West Wing, John Radcliffe Hospital, West Wing",
    "city": "Oxford",
    "postcode": "OX3 9DU",
    "latitude": 51.765549,
    "longitude": -1.21975,
    "status": "open",
    "openingHours": "Mon-Fri: 06:30-20:00, Sat-Sun: 08:00-16:00",
    "phone": "+44 1865 760910",
    "brand": "pret"
  },
  {
    "id": "10880",
    "name": "Pret A Manger",
    "address": "13-14 High Street",
    "city": "Chelmsford",
    "postcode": "CM1 1BE",
    "latitude": 51.7337906,
    "longitude": 0.4737235,
    "status": "open",
    "openingHours": "Mon-Sat: 07:00-18:00, Sun: 08:00-17:00",
    "phone": "+44 1245 269224",
    "brand": "pret"
  },
  {
    "id": "312",
    "name": "Pret A Manger",
    "address": "173 Victoria Street",
    "city": "London",
    "postcode": "SW1E 5NA",
    "latitude": 51.496379,
    "longitude": -0.1422169,
    "status": "open",
    "openingHours": "Mon-Thu: 05:30-21:00, Fri-Sat: 06:00-21:00, Sun: 06:30-21:00",
    "phone": "+44 7721 149049",
    "brand": "pret"
  },
  {
    "id": "10554",
    "name": "Pret A Manger",
    "address": "Gordon Street, Glasgow Central Station, The Concourse, Unit 6&7",
    "city": "Glasgow",
    "postcode": "G1 3SL",
    "latitude": 55.8605147,
    "longitude": -4.256242,
    "status": "open",
    "openingHours": "Mon-Fri: 06:00-19:30, Sat: 06:30-19:30, Sun: 07:30-17:00",
    "phone": "+44 141 221 7331",
    "brand": "pret"
  },
  {
    "id": "10854",
    "name": "Pret A Manger",
    "address": "465 Victoria Road, Ruislip Middlesex, Bp",
    "city": "Ruislip",
    "postcode": "HA4 0EQ",
    "latitude": 51.55931334096806,
    "longitude": -0.3979765613428984,
    "status": "open",
    "openingHours": "Mon-Fri: 05:30-18:30, Sat: 06:30-18:00, Sun: 06:30-17:00",
    "brand": "pret"
  },
  {
    "id": "10871",
    "name": "Pret A Manger",
    "address": "Basingstoke, Unit 17-19, Festival Place Shopping Centre",
    "city": "Basingstoke",
    "postcode": "RG21 7LG",
    "latitude": 51.2657141143961,
    "longitude": -1.08791754177914,
    "status": "open",
    "openingHours": "Mon-Sat: 07:00-18:30, Sun: 08:00-18:00",
    "phone": "+44 1256 353808",
    "brand": "pret"
  },
  {
    "id": "10872",
    "name": "Pret A Manger",
    "address": "14 Commercial Road",
    "city": "Bournemouth",
    "postcode": "BH2 5LP",
    "latitude": 50.7203177005141,
    "longitude": -1.88151236257204,
    "status": "open",
    "openingHours": "Mon-Fri: 07:00-18:00, Sat: 07:30-19:00, Sun: 07:30-18:00",
    "phone": "+44 1202 290417",
    "brand": "pret"
  },
  {
    "id": "10873",
    "name": "Pret A Manger",
    "address": "26/28 Swan Lane",
    "city": "Guildford",
    "postcode": "GU1 4EQ",
    "latitude": 51.235821177619,
    "longitude": -0.574418750380237,
    "status": "open",
    "openingHours": "Mon-Fri: 07:00-17:30, Sat: 07:30-18:00, Sun: 08:30-17:30",
    "phone": "+44 1483 458406",
    "brand": "pret"
  },
  {
    "id": "10874",
    "name": "Pret A Manger",
    "address": "Unit 41, Wolsey Walk, Unit 41",
    "city": "Woking",
    "postcode": "GU21 6XX",
    "latitude": 51.3210080999179,
    "longitude": -0.580346863024071,
    "status": "open",
    "openingHours": "Mon-Sat: 07:00-19:00, Sun: 08:00-18:00",
    "phone": "+44 1483 725788",
    "brand": "pret"
  },
  {
    "id": "10875",
    "name": "Pret A Manger",
    "address": "2 Cornmarket St, Oxford",
    "city": "Oxford",
    "postcode": "OX1 3EX",
    "latitude": 51.7523005043286,
    "longitude": -1.25772905703761,
    "status": "open",
    "openingHours": "Mon-Fri: 07:00-15:00, Sat: 08:00-15:00, Sun: Closed",
    "brand": "pret"
  },
  {
    "id": "10879",
    "name": "Pret A Manger",
    "address": "25-27 Saint Peter's Street",
    "city": "St Albans",
    "postcode": "AL1 3DP",
    "latitude": 51.75316,
    "longitude": -0.33815,
    "status": "open",
    "openingHours": "Mon-Sat: 07:00-17:00, Sun: 07:30-17:00",
    "brand": "pret"
  },
  {
    "id": "10881",
    "name": "Pret A Manger",
    "address": "Unit 4, 1 Station Square Cambridge",
    "city": "Cambridge",
    "postcode": "CB1 2GA",
    "latitude": 52.201536536746,
    "longitude": 0.13783147737267,
    "status": "open",
    "openingHours": "Mon-Fri: 07:00-19:00, Sat: 07:30-17:00, Sun: 08:00-17:00",
    "brand": "pret"
  },
  {
    "id": "10882",
    "name": "Pret A Manger",
    "address": "22 Market Street",
    "city": "Cambridge",
    "postcode": "CB2 3NZ",
    "latitude": 52.205819,
    "longitude": 0.1197258,
    "status": "open",
    "openingHours": "Mon-Fri: 07:30-16:00, Sat: 08:00-17:00, Sun: 08:00-16:00",
    "brand": "pret"
  },
  {
    "id": "10845",
    "name": "Pret A Manger",
    "address": "Station Street, Birmingham New Street Station",
    "city": "Birmingham",
    "postcode": "B2 4PX",
    "latitude": 52.47722604,
    "longitude": -1.89919102,
    "status": "open",
    "openingHours": "Mon: 05:30-19:30, Tue-Thu: 05:30-19:00, Fri: 05:30-19:30, Sat: 06:00-19:00, Sun: 09:00-18:00",
    "brand": "pret"
  },
  {
    "id": "10904",
    "name": "Pret A Manger",
    "address": "212-214 High Street",
    "city": "Beckenham",
    "postcode": "BR3 1EN",
    "latitude": 51.4067062,
    "longitude": -0.0285417,
    "status": "open",
    "openingHours": "Mon-Tue: 06:30-16:00, Wed: 07:00-16:00, Thu: 06:30-16:30, Fri: 06:30-16:00, Sat: 08:00-16:00, Sun: 08:30-15:30",
    "phone": "+44 20 8650 1772",
    "brand": "pret"
  },
  {
    "id": "10857",
    "name": "Pret A Manger",
    "address": "M5 Junction 30 Sandygate Exeter Devon, Junction M5",
    "city": "London",
    "postcode": "EX2 7HF",
    "latitude": 50.7165959908581,
    "longitude": -3.46359359459995,
    "status": "open",
    "openingHours": "Mon-Tue: 07:30-19:00, Wed: 06:00-19:00, Thu: 07:30-19:00, Fri: 06:00-21:00, Sat: 06:00-19:00, Sun: 07:00-21:00",
    "phone": "+44 1392 436266",
    "brand": "pret"
  },
  {
    "id": "10914",
    "name": "Pret A Manger",
    "address": "336 Chiswick High Road",
    "city": "London",
    "postcode": "W4 5TL",
    "latitude": 51.4925,
    "longitude": -0.26341,
    "status": "open",
    "openingHours": "Mon-Sat: 07:00-18:00, Sun: 08:00-17:00",
    "brand": "pret"
  },
  {
    "id": "10817",
    "name": "Pret A Manger",
    "address": "Northampton Road, M40, Moto Services, Cherwell Valley Junction 10",
    "city": "Bicester",
    "postcode": "OX27 7RD",
    "latitude": 51.95023983137285,
    "longitude": -1.1985541846640826,
    "status": "open",
    "openingHours": "Mon-Thu: 06:00-20:00, Fri: 06:00-21:00, Sat: 06:00-20:00, Sun: 07:00-21:00",
    "brand": "pret"
  },
  {
    "id": "10906",
    "name": "Pret A Manger",
    "address": "130 Eastern Avenue",
    "city": "Ilford",
    "postcode": "IG4 5AQ",
    "latitude": 51.57597700514442,
    "longitude": 0.046837513524284946,
    "status": "open",
    "openingHours": "Mon-Sun: 06:00-18:00",
    "phone": "+44 20 8554 7395",
    "brand": "pret"
  },
  {
    "id": "10865",
    "name": "Pret A Manger",
    "address": "A1m A1M, Junction 46",
    "city": "Wetherby",
    "postcode": "LS22 5GT",
    "latitude": 53.9467389871521,
    "longitude": -1.36859577407483,
    "status": "open",
    "openingHours": "Mon-Sat: 06:00-20:00, Sun: 07:00-20:00",
    "brand": "pret"
  },
  {
    "id": "10866",
    "name": "Pret A Manger",
    "address": "M1 Junction 23 A Derby East Midlands, Junction 23 A, M1",
    "city": "London",
    "postcode": "DE74 2TN",
    "latitude": 52.8216898590715,
    "longitude": -1.30815431573782,
    "status": "open",
    "openingHours": "Mon-Sat: 07:00-19:00, Sun: 07:00-20:00",
    "brand": "pret"
  },
  {
    "id": "10890",
    "name": "Pret A Manger",
    "address": "10 Green Lane, Jct, M42 JCT",
    "city": "Dordon",
    "postcode": "B77 5PS",
    "latitude": 52.6074314852375,
    "longitude": -1.64012230442322,
    "status": "open",
    "openingHours": "Mon-Fri: 07:00-18:00, Sat: 06:00-18:00, Sun: 07:00-19:00",
    "brand": "pret"
  },
  {
    "id": "10922",
    "name": "Pret A Manger",
    "address": "410-422 Gloucester Road Bristol Avon, Avon",
    "city": "London",
    "postcode": "BS7 8TX",
    "latitude": 51.48490260929731,
    "longitude": -2.5865627018228294,
    "status": "open",
    "openingHours": "Mon-Sat: 07:00-17:00, Sun: 08:00-16:00",
    "phone": "+44 117 924 9376",
    "brand": "pret"
  },
  {
    "id": "10891",
    "name": "Pret A Manger",
    "address": "14-15 Stone, North Junction",
    "city": "London",
    "postcode": "ST15 0EU",
    "latitude": 52.884371036112,
    "longitude": -2.17054242481578,
    "status": "open",
    "openingHours": "Mon-Thu: 06:00-19:00, Fri: 06:00-21:00, Sat: 06:00-19:00, Sun: 07:00-21:00",
    "brand": "pret"
  },
  {
    "id": "10895",
    "name": "Pret A Manger",
    "address": "Chancellor Lane, Bp Ardwick",
    "city": "Manchester",
    "postcode": "M12 6JZ",
    "latitude": 53.473745237259486,
    "longitude": -2.216070001743739,
    "status": "open",
    "openingHours": "Mon-Fri: 06:00-17:00, Sat: 07:00-17:00, Sun: 08:00-16:00",
    "phone": "+44 161 273 1030",
    "brand": "pret"
  },
  {
    "id": "10901",
    "name": "Pret A Manger",
    "address": "Station Road, Esso Champion, Edenbridge",
    "city": "Edenbridge",
    "postcode": "TN8 6HL",
    "latitude": 51.20627774706307,
    "longitude": 0.06149208282267444,
    "status": "open",
    "openingHours": "Mon-Fri: 06:00-17:00, Sat: 07:00-17:00, Sun: 08:00-16:00",
    "phone": "+44 1732 867481",
    "brand": "pret"
  },
  {
    "id": "10892",
    "name": "Pret A Manger",
    "address": "33 Knottingley, A1m Junction",
    "city": "London",
    "postcode": "WF11 0AF",
    "latitude": 53.6975967091935,
    "longitude": -1.26665496545494,
    "status": "open",
    "openingHours": "Mon-Sat: 06:00-19:00, Sun: 07:00-20:00",
    "brand": "pret"
  },
  {
    "id": "10936",
    "name": "Pret A Manger",
    "address": "Fremlin Walk, Unit 7",
    "city": "Maidstone",
    "postcode": "ME14 1QG",
    "latitude": 51.275208,
    "longitude": 0.5212304,
    "status": "open",
    "openingHours": "Mon-Sat: 07:30-17:30, Sun: 09:00-16:30",
    "phone": "+44 1622 664747",
    "brand": "pret"
  },
  {
    "id": "10940",
    "name": "Pret A Manger",
    "address": "101 Kilburn High Road",
    "city": "London",
    "postcode": "NW6 6JE",
    "latitude": 51.53594,
    "longitude": -0.19107,
    "status": "open",
    "openingHours": "Mon-Fri: 07:00-18:00, Sat: 07:30-18:00, Sun: 08:00-18:00",
    "brand": "pret"
  },
  {
    "id": "10921",
    "name": "Pret A Manger",
    "address": "Great Cambridge Road, London",
    "city": "Enfield",
    "postcode": "EN1 1JD",
    "latitude": 51.64233,
    "longitude": -0.06142,
    "status": "open",
    "openingHours": "Mon-Fri: 05:30-20:00, Sat: 05:30-19:00, Sun: 06:00-18:00",
    "phone": "+44 20 8363 8856",
    "brand": "pret"
  },
  {
    "id": "10935",
    "name": "Pret A Manger",
    "address": "121-123 Mount Pleasant Road",
    "city": "Tunbridge Wells",
    "postcode": "TN1 1QR",
    "latitude": 51.13444,
    "longitude": 0.26362,
    "status": "open",
    "openingHours": "Mon-Fri: 06:00-17:30, Sat: 07:00-17:30, Sun: 07:00-16:30",
    "phone": "+44 1892 575392",
    "brand": "pret"
  },
  {
    "id": "10907",
    "name": "Pret A Manger",
    "address": "197 Muswell Hill Broadway",
    "city": "London",
    "postcode": "N10 3RS",
    "latitude": 51.59142,
    "longitude": -0.14267,
    "status": "open",
    "openingHours": "Mon-Fri: 06:30-18:30, Sat-Sun: 07:00-18:30",
    "brand": "pret"
  },
  {
    "id": "10929",
    "name": "Pret A Manger",
    "address": "Henley Street, Unit 2, Bards Walk",
    "city": "Stratford-Upon-Avon",
    "postcode": "CV37 6EY",
    "latitude": 52.1931,
    "longitude": -1.7076,
    "status": "open",
    "openingHours": "Mon-Sat: 08:00-17:30, Sun: 09:00-17:00",
    "brand": "pret"
  },
  {
    "id": "10930",
    "name": "Pret A Manger",
    "address": "1 Bell Street",
    "city": "Reigate",
    "postcode": "RH2 7AA",
    "latitude": 51.23770299430357,
    "longitude": -0.20552719145471196,
    "status": "open",
    "openingHours": "Mon-Sat: 07:30-17:00, Sun: 09:00-16:00",
    "phone": "+44 1737 860009",
    "brand": "pret"
  },
  {
    "id": "10972",
    "name": "Pret A Manger",
    "address": "Unit 19-2 Jackson Square Shopping Centre, Unit 19-2, Jackson Square Shopping Centre",
    "city": "Bishop's Stortford",
    "postcode": "CM23 3XH",
    "latitude": 51.87034,
    "longitude": 0.160271030691,
    "status": "open",
    "openingHours": "Mon-Sat: 07:30-17:00, Sun: 08:00-16:00",
    "phone": "+44 1279 800029",
    "brand": "pret"
  },
  {
    "id": "10969",
    "name": "Pret A Manger",
    "address": "211 Shinfield Road, Shell Shinfield",
    "city": "Reading",
    "postcode": "RG2 8HA",
    "latitude": 51.4277017,
    "longitude": -0.9459703,
    "status": "open",
    "openingHours": "Mon-Fri: 06:00-18:00, Sat: 07:00-17:00, Sun: 08:00-16:00",
    "phone": "+44 118 986 1393",
    "brand": "pret"
  },
  {
    "id": "10933",
    "name": "Pret A Manger",
    "address": "BRIGHTON, 42 EAST STREET",
    "city": "Brighton",
    "postcode": "BN1 1HL",
    "latitude": 50.8211158083623,
    "longitude": -0.139318344878207,
    "status": "open",
    "openingHours": "Mon-Sat: 07:00-18:00, Sun: 08:30-17:00",
    "phone": "+44 1273 779478",
    "brand": "pret"
  },
  {
    "id": "10932",
    "name": "Pret A Manger",
    "address": "unit2 and 3 station Queen's Road, Unit 2 & 3 Brighton Station",
    "city": "Brighton",
    "postcode": "BN1 3XP",
    "latitude": 50.8293962189612,
    "longitude": -0.141403173649544,
    "status": "open",
    "openingHours": "Mon-Fri: 06:00-18:30, Sat: 07:00-18:30, Sun: 07:30-18:00",
    "phone": "+44 1273 738992",
    "brand": "pret"
  },
  {
    "id": "10934",
    "name": "Pret A Manger",
    "address": "BRIGHTON, NORTH STREET, 77 NORTH STREET",
    "city": "Brighton",
    "postcode": "BN1 1ZA",
    "latitude": 50.8235962,
    "longitude": -0.1440408,
    "status": "open",
    "openingHours": "Mon-Fri: 07:00-17:00, Sat: 07:00-18:00, Sun: 08:30-17:00",
    "phone": "+44 1273 894391",
    "brand": "pret"
  },
  {
    "id": "10902",
    "name": "Pret A Manger",
    "address": "Saint John's Hill, Unit 7a One Stop Shop",
    "city": "London",
    "postcode": "SW11 1SS",
    "latitude": 51.46363317,
    "longitude": -0.16887541,
    "status": "open",
    "openingHours": "Mon-Fri: 05:30-19:00, Sat: 06:00-19:00, Sun: 07:00-18:00",
    "phone": "+44 20 7223 6074",
    "brand": "pret"
  },
  {
    "id": "10941",
    "name": "Pret A Manger",
    "address": "Meadowhall Way, Unit 5, The Arcade",
    "city": "Sheffield",
    "postcode": "S9 1EH",
    "latitude": 53.414988698987564,
    "longitude": -1.4115792,
    "status": "open",
    "openingHours": "Mon-Fri: 08:30-21:00, Sat: 09:00-20:00, Sun: 10:00-17:00",
    "phone": "+44 114 256 9181",
    "brand": "pret"
  },
  {
    "id": "10962",
    "name": "Pret A Manger",
    "address": "3 Bridge Street, St Davids Centre, Unit KLG08",
    "city": "Cardiff",
    "postcode": "CF10 2EF",
    "latitude": 51.4776638445611,
    "longitude": -3.17992101534399,
    "status": "open",
    "openingHours": "Mon-Sat: 07:30-18:30, Sun: 09:00-17:00",
    "phone": "+44 29 2022 4657",
    "brand": "pret"
  },
  {
    "id": "10964",
    "name": "Pret A Manger",
    "address": "52 King Edward Court, Slough",
    "city": "Windsor",
    "postcode": "SL4 1TG",
    "latitude": 51.4827197068118,
    "longitude": -0.610546361375997,
    "status": "open",
    "openingHours": "Mon-Thu: 08:30-16:30, Fri: 08:00-17:00, Sat-Sun: 09:00-17:00",
    "phone": "+44 1753 857298",
    "brand": "pret"
  },
  {
    "id": "10963",
    "name": "Pret A Manger",
    "address": "31 New Canal",
    "city": "Salisbury",
    "postcode": "SP1 2AA",
    "latitude": 51.0686885658583,
    "longitude": -1.79544442328,
    "status": "open",
    "openingHours": "Mon-Fri: 08:00-16:00, Sat: 08:00-16:30, Sun: 09:00-16:00",
    "phone": "+44 1722 325448",
    "brand": "pret"
  },
  {
    "id": "10920",
    "name": "Pret A Manger",
    "address": "357-361 Lewisham High Street",
    "city": "London",
    "postcode": "SE13 6NZ",
    "latitude": 51.45207972,
    "longitude": -0.01604869,
    "status": "open",
    "openingHours": "Mon-Sun: 06:00-20:00",
    "brand": "pret"
  },
  {
    "id": "10978",
    "name": "Pret A Manger",
    "address": "J17/18 M4 east Chippenham wiltshire, East Chippenham, J17/18",
    "city": "Leigh Delamere",
    "postcode": "SN14 6LB",
    "latitude": 51.51169,
    "longitude": -2.1587,
    "status": "open",
    "openingHours": "Mon-Sun: 07:00-19:00",
    "phone": "+44 7961 034696",
    "brand": "pret"
  },
  {
    "id": "10858",
    "name": "Pret A Manger",
    "address": "5 Millennium Way",
    "city": "London",
    "postcode": "SE10 0PH",
    "latitude": 51.50026158,
    "longitude": 0.00344265,
    "status": "open",
    "openingHours": "Mon: 05:30-20:00, Tue-Fri: 05:30-20:30, Sat: 06:00-21:00, Sun: 07:00-20:00",
    "phone": "+44 20 8853 0908",
    "brand": "pret"
  },
  {
    "id": "10942",
    "name": "Pret A Manger",
    "address": "Mossy Lea Road",
    "city": "Wrightington",
    "postcode": "WN6 9RB",
    "latitude": 53.5926448,
    "longitude": -2.6948141,
    "status": "open",
    "openingHours": "Mon-Sun: 06:00-18:00",
    "phone": "+44 1257 421390",
    "brand": "pret"
  },
  {
    "id": "10983",
    "name": "Pret A Manger",
    "address": "31-33 East Street",
    "city": "Chichester",
    "postcode": "PO19 1HL",
    "latitude": 50.836821993987506,
    "longitude": -0.7763858846596069,
    "status": "open",
    "openingHours": "Mon-Sun: 08:00-17:00",
    "phone": "+44 7767 028036",
    "brand": "pret"
  },
  {
    "id": "10968",
    "name": "Pret A Manger",
    "address": "A591 Near Windermere",
    "city": "Ings",
    "postcode": "LA8 9PY",
    "latitude": 54.38047,
    "longitude": -2.85607,
    "status": "open",
    "openingHours": "Mon-Fri: 07:00-18:00, Sat-Sun: 07:00-20:00",
    "brand": "pret"
  },
  {
    "id": "10979",
    "name": "Pret A Manger",
    "address": "M4 13 Oxford Road Hermitage Thatcham, Hermitage Thatcham M4",
    "city": "West Berkshire",
    "postcode": "RG13 9XX",
    "latitude": 51.44917,
    "longitude": -1.31106,
    "status": "open",
    "openingHours": "Mon-Thu: 06:00-19:00, Fri: 06:00-21:00, Sat: 06:00-19:00, Sun: 06:00-21:00",
    "phone": "+44 7961 036562",
    "brand": "pret"
  },
  {
    "id": "10977",
    "name": "Pret A Manger",
    "address": "Junction 11/12 M4 Reading, West Burghfield",
    "city": "Reading",
    "postcode": "RG30 3UQ",
    "latitude": 51.4239,
    "longitude": -1.03687,
    "status": "open",
    "openingHours": "Mon-Thu: 06:00-20:00, Fri: 06:00-21:00, Sat: 06:00-20:00, Sun: 07:00-21:00",
    "phone": "+44 7961 034170",
    "brand": "pret"
  },
  {
    "id": "11001",
    "name": "Pret A Manger",
    "address": "Eastfield Avenue",
    "city": "Edinburgh",
    "postcode": "EH12 9DN",
    "latitude": 55.94890601,
    "longitude": -3.36362482,
    "status": "open",
    "openingHours": "Mon-Sun: 04:00-20:00",
    "brand": "pret"
  },
  {
    "id": "10996",
    "name": "Pret A Manger",
    "address": "Unit 37, The springs retail park, Leeds, Unit 37, The Springs Retail Park",
    "city": "Leeds",
    "postcode": "LS15 8GH",
    "latitude": 53.80041621561581,
    "longitude": -1.4239499,
    "status": "open",
    "openingHours": "Mon-Fri: 07:30-18:30, Sat: 08:00-19:00, Sun: 09:00-17:00",
    "phone": "+44 113 340 7080",
    "brand": "pret"
  },
  {
    "id": "10997",
    "name": "Pret A Manger",
    "address": "Mount Pleasant Road, BP",
    "city": "Luton",
    "postcode": "LU3 2RR",
    "latitude": 51.9062321153059,
    "longitude": -0.458434967753206,
    "status": "open",
    "openingHours": "Mon-Fri: 05:00-19:00, Sat: 07:00-18:00, Sun: 08:00-17:00",
    "phone": "+44 1582 342711",
    "brand": "pret"
  },
  {
    "id": "11005",
    "name": "Pret A Manger",
    "address": "Colchester, Unit 7, Lion Walk Shopping Centre",
    "city": "Colchester",
    "postcode": "CO1 1LX",
    "latitude": 51.8887,
    "longitude": 0.9004,
    "status": "open",
    "openingHours": "Mon-Sat: 07:30-17:00, Sun: 09:00-16:00",
    "brand": "pret"
  },
  {
    "id": "11006",
    "name": "Pret A Manger",
    "address": "Braintree, Unit L2,",
    "city": "Braintree",
    "postcode": "CM77 8YH",
    "latitude": 51.8801,
    "longitude": 0.5509,
    "status": "open",
    "openingHours": "Mon-Fri: 09:00-18:00, Sat: 08:30-19:00, Sun: 08:30-17:00",
    "brand": "pret"
  },
  {
    "id": "11004",
    "name": "Pret A Manger",
    "address": "21-23 Montague Street",
    "city": "Worthing",
    "postcode": "BN11 3HA",
    "latitude": 50.81062228887865,
    "longitude": -0.3711851613615719,
    "status": "open",
    "openingHours": "Mon-Sun: 08:00-17:00",
    "phone": "+44 7721 416510",
    "brand": "pret"
  },
  {
    "id": "11012",
    "name": "Pret A Manger",
    "address": "4A/5 M3, Fleet Services, Southbound, Junction 4A-5 , Fleet South",
    "city": "Fleet",
    "postcode": "GU51 1AA",
    "latitude": 51.35477168990843,
    "longitude": -0.8531763620630891,
    "status": "open",
    "openingHours": "Mon-Wed: 07:00-20:00, Thu-Sun: 07:00-21:00",
    "brand": "pret"
  },
  {
    "id": "11007",
    "name": "Pret A Manger",
    "address": "Warwick Southbound Services, M40 Motorway Jct 12/13 &14/12, Banbury Road, Ashorne, Warwick Southbound Service, Junction 12/13 & 14/12",
    "city": "Warwick",
    "postcode": "CV35 0AA",
    "latitude": 52.21943208,
    "longitude": -1.50266772000067,
    "status": "open",
    "openingHours": "Mon-Sun: 07:00-19:00",
    "brand": "pret"
  },
  {
    "id": "10980",
    "name": "Pret A Manger",
    "address": "Broad Lane",
    "city": "London",
    "postcode": "N15 4QT",
    "latitude": 51.58707666,
    "longitude": -0.06357376,
    "status": "open",
    "openingHours": "Mon-Sat: 06:30-19:00, Sun: 07:00-18:30",
    "brand": "pret"
  },
  {
    "id": "11015",
    "name": "Pret A Manger",
    "address": "32 Charles Street, The Broadway",
    "city": "Bradford",
    "postcode": "BD1 1PR",
    "latitude": 53.79451674587288,
    "longitude": -1.7515428594426157,
    "status": "open",
    "openingHours": "Mon-Fri: 08:00-17:00, Sat: 09:00-18:00, Sun: Closed",
    "brand": "pret"
  },
  {
    "id": "11040",
    "name": "Pret A Manger",
    "address": "St Clears Roundabout, Tenby Road, St Clears",
    "city": "St Clears",
    "postcode": "SA33 4JW",
    "latitude": 51.81773310968125,
    "longitude": -4.505122814626002,
    "status": "open",
    "openingHours": "Mon-Fri: 06:00-18:00, Sat: 07:00-17:00, Sun: 08:00-16:00",
    "brand": "pret"
  },
  {
    "id": "11045",
    "name": "Pret A Manger",
    "address": "500 Elder Gate, Milton Keynes",
    "city": "Milton Keynes",
    "postcode": "MK9 1BB",
    "latitude": 52.0347,
    "longitude": -0.774,
    "status": "open",
    "openingHours": "Mon-Fri: 05:30-19:00, Sat: 06:00-19:00, Sun: 07:00-19:00",
    "phone": "+44 1908 393298",
    "brand": "pret"
  },
  {
    "id": "11050",
    "name": "Pret A Manger",
    "address": "32 M6",
    "city": "Lancaster",
    "postcode": "LA2 9DU",
    "latitude": 53.96192,
    "longitude": -2.7604,
    "status": "open",
    "openingHours": "Mon-Sun: 07:00-18:00",
    "brand": "pret"
  },
  {
    "id": "11036",
    "name": "Pret A Manger",
    "address": "Western Road, Unit B.9, The Liberty Shopping Centre",
    "city": "Romford",
    "postcode": "RM1 3RJ",
    "latitude": 51.5774161366792,
    "longitude": 0.18301417274721,
    "status": "open",
    "openingHours": "Mon-Fri: 06:30-18:30, Sat: 06:30-19:00, Sun: 06:30-17:30",
    "brand": "pret"
  },
  {
    "id": "11059",
    "name": "Pret A Manger",
    "address": "18/19 M62, Heywood Lancashire",
    "city": "Heywood",
    "postcode": "OL10 2QH",
    "latitude": 53.56822,
    "longitude": -2.232,
    "status": "open",
    "openingHours": "Mon-Sat: 07:00-17:00, Sun: 07:00-18:00",
    "brand": "pret"
  },
  {
    "id": "11055",
    "name": "Pret A Manger",
    "address": "Toddington Bedfordshire m1 jct 11/12",
    "city": "Toddington",
    "postcode": "LU5 6HR",
    "latitude": 51.94769,
    "longitude": -0.50387,
    "status": "open",
    "openingHours": "Mon-Sun: 07:00-20:00",
    "brand": "pret"
  },
  {
    "id": "11051",
    "name": "Pret A Manger",
    "address": "9 High Street",
    "city": "Weybridge",
    "postcode": "KT13 8ED",
    "latitude": 51.3726,
    "longitude": -0.4579,
    "status": "open",
    "openingHours": "Mon-Fri: 07:00-17:00, Sat: 08:00-17:30, Sun: 08:30-17:00",
    "phone": "+44 1932 848240",
    "brand": "pret"
  },
  {
    "id": "11065",
    "name": "Pret A Manger",
    "address": "93a George Street",
    "city": "Croydon",
    "postcode": "CR0 1LD",
    "latitude": 51.3746705,
    "longitude": -0.094682,
    "status": "open",
    "openingHours": "Mon-Fri: 06:00-17:00, Sat-Sun: 07:30-16:00",
    "brand": "pret"
  },
  {
    "id": "11067",
    "name": "Pret A Manger",
    "address": "Unit SUK2 Two Rivers Shopping Centre",
    "city": "London",
    "postcode": "TW18 4UP",
    "latitude": 51.43467,
    "longitude": -0.51096,
    "status": "open",
    "openingHours": "Mon-Fri: 07:00-18:00, Sat: 07:30-18:30, Sun: 08:00-17:00",
    "brand": "pret"
  },
  {
    "id": "11068",
    "name": "Pret A Manger",
    "address": "84-89 Harrow Manorway, BP Thamesmead Service Station, Way Abbeywood",
    "city": "London",
    "postcode": "SE2 9SA",
    "latitude": 51.492875,
    "longitude": 0.121503,
    "status": "open",
    "openingHours": "Mon-Sat: 06:00-18:00, Sun: 08:00-17:00",
    "brand": "pret"
  },
  {
    "id": "11060",
    "name": "Pret A Manger",
    "address": "86-88 Midsummer Boulevard, Kiosk 1",
    "city": "Milton Keynes",
    "postcode": "MK9 3GB",
    "latitude": 52.041439,
    "longitude": -0.76056,
    "status": "open",
    "openingHours": "Mon-Wed: 08:00-18:00, Thu-Sat: 08:00-19:00, Sun: 09:00-17:00",
    "brand": "pret"
  },
  {
    "id": "11070",
    "name": "Pret A Manger",
    "address": "107-109 Market Street, St Andrews",
    "city": "St Andrews",
    "postcode": "KY16 9NX",
    "latitude": 56.34069726377303,
    "longitude": -2.7966551153403927,
    "status": "open",
    "openingHours": "Mon-Sat: 07:30-18:00, Sun: 08:00-18:00",
    "phone": "+44 1334 478835",
    "brand": "pret"
  },
  {
    "id": "11069",
    "name": "Pret A Manger",
    "address": "234 Union Street",
    "city": "Aberdeen",
    "postcode": "AB10 1TL",
    "latitude": 57.1460202486865,
    "longitude": -2.1027125079502276,
    "status": "open",
    "openingHours": "Mon-Fri: 06:30-17:30, Sat-Sun: 08:00-17:00",
    "brand": "pret"
  },
  {
    "id": "11073",
    "name": "Pret A Manger",
    "address": "142-145 Northumberland Street",
    "city": "Newcastle",
    "postcode": "NE1 7AG",
    "latitude": 54.975941,
    "longitude": -1.6128,
    "status": "open",
    "openingHours": "Mon-Fri: 07:00-17:30, Sat: 07:30-17:30, Sun: 09:30-15:30",
    "brand": "pret"
  },
  {
    "id": "11072",
    "name": "Pret A Manger",
    "address": "6 lands lane",
    "city": "Leeds",
    "postcode": "LS1 6AW",
    "latitude": 53.7974,
    "longitude": -1.54382,
    "status": "open",
    "openingHours": "Mon-Sat: 07:30-18:00, Sun: 08:00-17:00",
    "brand": "pret"
  },
  {
    "id": "11076",
    "name": "Pret A Manger",
    "address": "10 Infirmary street",
    "city": "Leeds",
    "postcode": "LS1 2JP",
    "latitude": 53.79772,
    "longitude": -1.54941,
    "status": "open",
    "openingHours": "Mon: 07:00-16:00, Tue-Thu: 07:00-16:30, Fri: 07:00-16:00, Sat-Sun: Closed",
    "brand": "pret"
  },
  {
    "id": "11078",
    "name": "Pret A Manger",
    "address": "Perimeter Road East, Gatwick Airport - South Landside Unit 3C",
    "city": "Gatwick",
    "postcode": "RH6 0NP",
    "latitude": 51.1555928,
    "longitude": -0.1625842,
    "status": "open",
    "openingHours": "Mon-Sun: 00:00-23:59",
    "brand": "pret"
  },
  {
    "id": "11096",
    "name": "Pret A Manger",
    "address": "Essington wolverhampton staffordshire",
    "city": "London",
    "postcode": "WV11 2AT",
    "latitude": 52.64297,
    "longitude": -2.05768,
    "status": "open",
    "openingHours": "Mon-Thu: 07:00-18:00, Fri: 06:00-19:00, Sat: 06:00-18:00, Sun: 07:00-19:00",
    "brand": "pret"
  },
  {
    "id": "11095",
    "name": "Pret A Manger",
    "address": "cobham extra motorway services downside cobham",
    "city": "London",
    "postcode": "KT11 3DB",
    "latitude": 51.30438,
    "longitude": -0.40567,
    "status": "open",
    "openingHours": "Mon-Sat: 06:00-19:00, Sun: 07:00-19:00",
    "brand": "pret"
  },
  {
    "id": "11101",
    "name": "Pret A Manger",
    "address": "Perimeter Road East, Gatwick Airport - South Airside Unit 3A",
    "city": "Gatwick",
    "postcode": "RH6 0NP",
    "latitude": 51.15627616,
    "longitude": -0.16271817,
    "status": "open",
    "openingHours": "Mon-Sun: 05:00-20:00",
    "brand": "pret"
  },
  {
    "id": "11102",
    "name": "Pret A Manger",
    "address": "Gatwick Airport - South Airside Pier3 UNIT 3B",
    "city": "Gatwick",
    "postcode": "RH6 0NP",
    "latitude": 51.152069,
    "longitude": -0.16198,
    "status": "open",
    "openingHours": "Mon-Sun: 05:00-16:00",
    "brand": "pret"
  },
  {
    "id": "11094",
    "name": "Pret A Manger",
    "address": "Food Unit 3 Bon Accord Shopping Centre",
    "city": "Aberdeen",
    "postcode": "AB25 1HJ",
    "latitude": 57.149373,
    "longitude": -2.0995095,
    "status": "open",
    "openingHours": "Mon-Sat: 07:30-18:00, Sun: 09:00-17:00",
    "phone": "+44 1224 620020",
    "brand": "pret"
  },
  {
    "id": "11061",
    "name": "Pret A Manger",
    "address": "11 Donegall Square W Belfast",
    "city": "Belfast",
    "postcode": "BT1 6JH",
    "latitude": 54.5968,
    "longitude": -0.593177,
    "status": "open",
    "openingHours": "Mon-Sat: 07:00-18:00, Sun: 09:00-17:00",
    "phone": "+44 28 9568 5695",
    "brand": "pret"
  },
  {
    "id": "11079",
    "name": "Pret A Manger",
    "address": "M3, Fleet Services,Motorway Northbound",
    "city": "Fleet",
    "postcode": "GU51 1AA",
    "latitude": 51.29658056,
    "longitude": -0.85563424,
    "status": "open",
    "openingHours": "Mon-Sun: 07:00-19:00",
    "phone": "+44 1908 299700",
    "brand": "pret"
  },
  {
    "id": "11110",
    "name": "Pret A Manger",
    "address": "Units 5-7, Central station, Neville street Newcastle upon Tyne",
    "city": "Newcastle",
    "postcode": "NE1 5DL",
    "latitude": 54.96909,
    "longitude": -1.61813,
    "status": "open",
    "openingHours": "Mon-Fri: 05:30-20:30, Sat: 07:00-21:00, Sun: 07:30-20:00",
    "brand": "pret"
  },
  {
    "id": "11109",
    "name": "Pret A Manger",
    "address": "Unit C02, 35 Cambridge St Sheffield City Centre, Sheffield",
    "city": "Sheffield",
    "postcode": "S1 4HN",
    "latitude": 53.379372,
    "longitude": -1.47203,
    "status": "open",
    "openingHours": "Mon-Fri: 07:30-17:00, Sat: 10:00-17:00, Sun: 10:30-17:00",
    "brand": "pret"
  },
  {
    "id": "11112",
    "name": "Pret A Manger",
    "address": "Departures Road, Gatwick Airport - North Terminal Landside Unit 2",
    "city": "Gatwick",
    "postcode": "RH6 0NP",
    "latitude": 51.160496,
    "longitude": -0.17783708,
    "status": "open",
    "openingHours": "Mon-Sun: 00:00-23:59",
    "brand": "pret"
  },
  {
    "id": "11113",
    "name": "Pret A Manger",
    "address": "130 West End Lane",
    "city": "London",
    "postcode": "NW6 1SA",
    "latitude": 51.547242706853,
    "longitude": -0.190931838956602,
    "status": "open",
    "openingHours": "Mon-Fri: 06:00-20:00, Sat: 06:30-19:30, Sun: 07:00-19:30",
    "brand": "pret"
  },
  {
    "id": "209876",
    "name": "Pret a Manger",
    "address": "Broad Lane, Unit F, Tottenham Hale Retail Park",
    "city": "London",
    "postcode": "N15 4QT",
    "latitude": 51.58692,
    "longitude": -0.0635134,
    "status": "open",
    "openingHours": "",
    "brand": "pret"
  },
  {
    "id": "11121",
    "name": "Pret A Manger",
    "address": "39 Broad Street",
    "city": "Reading",
    "postcode": "RG1 2AQ",
    "latitude": 51.4536,
    "longitude": -0.9718,
    "status": "open",
    "openingHours": "Mon-Fri: 07:00-18:30, Sat: 07:30-18:30, Sun: 08:30-17:30",
    "phone": "+44 118 227 5675",
    "brand": "pret"
  },
  {
    "id": "11120",
    "name": "Pret A Manger",
    "address": "Station Road, Ground Floor, Station Approach, Thames Tower",
    "city": "Reading",
    "postcode": "RG1 1LX",
    "latitude": 51.4581,
    "longitude": -0.9727,
    "status": "open",
    "openingHours": "Mon-Wed: 07:00-18:30, Thu-Fri: 07:00-19:00, Sat: 07:30-19:00, Sun: 08:30-17:30",
    "phone": "+44 118 958 8020",
    "brand": "pret"
  },
  {
    "id": "10898",
    "name": "Pret A Manger",
    "address": "Unit 2, Oxford Train Station Park End Street, Oxford",
    "city": "Oxford",
    "postcode": "OX1 1HS",
    "latitude": 51.7533761021506,
    "longitude": -1.27011246985964,
    "status": "open",
    "openingHours": "Mon-Fri: 06:00-21:00, Sat: 07:00-19:00, Sun: 07:00-17:00",
    "phone": "+44 1789 414071",
    "brand": "pret"
  },
  {
    "id": "11130",
    "name": "Pret A Manger",
    "address": "10 High Street",
    "city": "Nottingham",
    "postcode": "NG1 2ET",
    "latitude": 52.9533995,
    "longitude": -1.1477178,
    "status": "open",
    "openingHours": "Mon-Sat: 07:30-18:30, Sun: 08:30-17:30",
    "phone": "+44 115 941 9883",
    "brand": "pret"
  },
  {
    "id": "11131",
    "name": "Pret A Manger",
    "address": "163 -165 High St, Chelthenham",
    "city": "Cheltenham",
    "postcode": "GL50 1DF",
    "latitude": 51.9003811,
    "longitude": -2.0734148,
    "status": "open",
    "openingHours": "Mon-Fri: 07:30-17:30, Sat: 07:30-18:00, Sun: 08:30-17:00",
    "phone": "+44 1242 220378",
    "brand": "pret"
  },
  {
    "id": "11132",
    "name": "Pret A Manger",
    "address": "84 High Street, Sutton",
    "city": "Sutton",
    "postcode": "SM1 1EX",
    "latitude": 51.36245,
    "longitude": -0.19236,
    "status": "open",
    "openingHours": "Mon-Fri: 07:00-18:00, Sat: 07:30-18:00, Sun: 08:00-17:00",
    "phone": "+44 7407 792918",
    "brand": "pret"
  },
  {
    "id": "11135",
    "name": "Pret A Manger",
    "address": "127 High Street, Sevenoaks",
    "city": "Sevenoaks",
    "postcode": "TN13 1UP",
    "latitude": 51.274522,
    "longitude": 0.196117,
    "status": "open",
    "openingHours": "Mon-Fri: 07:30-17:00, Sat-Sun: 08:00-17:00",
    "brand": "pret"
  },
  {
    "id": "11136",
    "name": "Pret A Manger",
    "address": "331 Brighton Road, Bp Brooklands Service Station",
    "city": "Worthing",
    "postcode": "BN11 2HP",
    "latitude": 50.815904,
    "longitude": -0.340111,
    "status": "open",
    "openingHours": "Mon-Fri: 06:00-18:00, Sat: 07:00-17:00, Sun: 08:00-16:00",
    "phone": "+44 1903 497230",
    "brand": "pret"
  },
  {
    "id": "11092",
    "name": "Pret A Manger",
    "address": "9-10 Wells Terrace",
    "city": "London",
    "postcode": "N43JU",
    "latitude": 51.5652376989531,
    "longitude": -0.108083676352313,
    "status": "open",
    "openingHours": "Mon-Sat: 06:30-19:30, Sun: 07:00-19:30",
    "phone": "+44 20 7263 7598",
    "brand": "pret"
  },
  {
    "id": "11138",
    "name": "Pret A Manger",
    "address": "5 Whitehall Crescent",
    "city": "Dundee",
    "postcode": "DD1 4AR",
    "latitude": 56.459548563978245,
    "longitude": -2.96928883862977,
    "status": "open",
    "openingHours": "Mon-Fri: 07:30-17:00, Sat: 09:00-17:00, Sun: 09:00-14:30",
    "phone": "+44 1382 237717",
    "brand": "pret"
  },
  {
    "id": "11142",
    "name": "Pret A Manger",
    "address": "4 Wellington Place, Unit 1b",
    "city": "Leeds",
    "postcode": "LS1 4AP",
    "latitude": 53.796211,
    "longitude": -1.55781,
    "status": "open",
    "openingHours": "Mon-Thu: 07:00-17:30, Fri: 07:00-17:00, Sat-Sun: Closed",
    "brand": "pret"
  },
  {
    "id": "11146",
    "name": "Pret A Manger",
    "address": "M6 north j41/42 broadfield site carlisle",
    "city": "Southwaite",
    "postcode": "CA4 0NT",
    "latitude": 54.80154,
    "longitude": -2.87269,
    "status": "open",
    "openingHours": "Mon-Sun: 07:00-16:00",
    "phone": "+44 7565 996811",
    "brand": "pret"
  },
  {
    "id": "11147",
    "name": "Pret A Manger",
    "address": "M6 south j41/42 broadfield site carlisle",
    "city": "Southwaite",
    "postcode": "CA4 0NT",
    "latitude": 54.79922,
    "longitude": -2.86991,
    "status": "open",
    "openingHours": "Mon-Sun: 07:00-16:00",
    "phone": "+44 7565 996811",
    "brand": "pret"
  },
  {
    "id": "11148",
    "name": "Pret A Manger",
    "address": "9 Market Square, Market Harborough",
    "city": "Market Harborough",
    "postcode": "LE16 7PA",
    "latitude": 52.477462,
    "longitude": -0.920134,
    "status": "open",
    "openingHours": "Mon-Sat: 08:00-18:00, Sun: 09:00-17:00",
    "phone": "+44 1858 458880",
    "brand": "pret"
  },
  {
    "id": "11150",
    "name": "Pret A Manger",
    "address": "1 Albert Place, Leith Walk",
    "city": "Edinburgh",
    "postcode": "EH7 4PA",
    "latitude": 55.962519699999994,
    "longitude": -3.179567,
    "status": "open",
    "openingHours": "Mon-Fri: 06:30-17:30, Sat-Sun: 08:00-17:30",
    "phone": "+44 131 287 2584",
    "brand": "pret"
  },
  {
    "id": "11151",
    "name": "Pret A Manger",
    "address": "124-130 Bruntsfield Place",
    "city": "Edinburgh",
    "postcode": "EH10 4ES",
    "latitude": 55.9369202,
    "longitude": -3.207716,
    "status": "open",
    "openingHours": "Mon-Sat: 06:30-18:00, Sun: 08:00-17:00",
    "phone": "+44 131 287 0399",
    "brand": "pret"
  },
  {
    "id": "11152",
    "name": "Pret A Manger",
    "address": "2 Golders Green Rd",
    "city": "London",
    "postcode": "NW11 8LH",
    "latitude": 51.5720242195573,
    "longitude": -0.195881234055207,
    "status": "open",
    "openingHours": "Mon-Sun: 06:30-18:30",
    "phone": "+44 7918 337314",
    "brand": "pret"
  },
  {
    "id": "11153",
    "name": "Pret A Manger",
    "address": "M3, South J8/9 Shroner Wood Winchester",
    "city": "Winchester",
    "postcode": "SO21 1PP",
    "latitude": 51.1169,
    "longitude": -1.25419,
    "status": "open",
    "openingHours": "Mon-Thu: 07:00-18:00, Fri: 07:00-19:00, Sat: 06:00-18:00, Sun: 07:00-18:00",
    "phone": "+44 7961 033029",
    "brand": "pret"
  },
  {
    "id": "11154",
    "name": "Pret A Manger",
    "address": "m4 junction 17/18",
    "city": "Leigh Delamere",
    "postcode": "SN14 6LB",
    "latitude": 51.5103,
    "longitude": -2.15741,
    "status": "open",
    "openingHours": "Mon-Thu: 07:00-18:00, Fri: 07:00-19:00, Sat-Sun: 07:00-18:00",
    "phone": "+44 7961 034566",
    "brand": "pret"
  },
  {
    "id": "11157",
    "name": "Pret A Manger",
    "address": "251 Brook Street, Broughty Ferry",
    "city": "Dundee",
    "postcode": "DD5 2AG",
    "latitude": 56.46705,
    "longitude": -2.8736,
    "status": "open",
    "openingHours": "Mon-Sat: 07:00-18:00, Sun: 08:00-18:00",
    "phone": "+44 1382 237674",
    "brand": "pret"
  },
  {
    "id": "11156",
    "name": "Pret A Manger",
    "address": "147-149 London Road, West Sussex",
    "city": "East Grinstead",
    "postcode": "RH19 1ET",
    "latitude": 51.1278138133787,
    "longitude": -0.0127088492151697,
    "status": "open",
    "openingHours": "Mon-Fri: 06:00-18:00, Sat: 07:00-17:00, Sun: 08:00-16:00",
    "phone": "+44 1342 645335",
    "brand": "pret"
  },
  {
    "id": "11158",
    "name": "Pret A Manger",
    "address": "16B The concourse",
    "city": "Edmonton",
    "postcode": "N9 OTY",
    "latitude": 51.624893855218,
    "longitude": -0.0593754809996348,
    "status": "open",
    "openingHours": "Mon-Fri: 06:30-18:00, Sat: 07:00-18:00, Sun: 07:30-17:00",
    "brand": "pret"
  },
  {
    "id": "11159",
    "name": "Pret A Manger",
    "address": "45/47 Parsons Green Lane",
    "city": "London",
    "postcode": "SW6 4HH",
    "latitude": 51.47533587,
    "longitude": -0.20061257,
    "status": "open",
    "openingHours": "Mon-Fri: 07:00-18:30, Sat-Sun: 07:30-17:30",
    "phone": "+44 7553 356618",
    "brand": "pret"
  },
  {
    "id": "11161",
    "name": "Pret A Manger",
    "address": "Retail Unit 2, Grand Central Station Belfast",
    "city": "Belfast",
    "postcode": "BT12 5AH",
    "latitude": 54.586587,
    "longitude": -5.950769,
    "status": "open",
    "openingHours": "Mon-Sun: 06:00-20:00",
    "brand": "pret"
  },
  {
    "id": "11162",
    "name": "Pret A Manger",
    "address": "Meadowhall Way, Frasers, Meadowhall Shopping Centre",
    "city": "Sheffield",
    "postcode": "S9 1EL",
    "latitude": 53.41525,
    "longitude": -1.41404,
    "status": "open",
    "openingHours": "Mon-Fri: 10:00-21:00, Sat: 10:00-20:00, Sun: 11:00-17:00",
    "brand": "pret"
  },
  {
    "id": "11164",
    "name": "Pret A Manger",
    "address": "Unit R Broadwalk,Rushden Lakes, Unit R Broadwalk",
    "city": "Rushden",
    "postcode": "NN10 6FH",
    "latitude": 52.30098,
    "longitude": -0.62343,
    "status": "open",
    "openingHours": "Mon-Fri: 07:30-19:00, Sat: 08:00-19:00, Sun: 08:30-19:00",
    "phone": "+44 7503 900076",
    "brand": "pret"
  },
  {
    "id": "11165",
    "name": "Pret A Manger",
    "address": "Station Road, Unit A2, River Mill2, Lewisham",
    "city": "London",
    "postcode": "SE13 5FQ",
    "latitude": 51.46464,
    "longitude": -0.013,
    "status": "open",
    "openingHours": "Mon-Fri: 05:30-19:30, Sat-Sun: 06:00-19:30",
    "phone": "+44 7443 744825",
    "brand": "pret"
  },
  {
    "id": "11168",
    "name": "Pret A Manger",
    "address": "Saint Ann Way, Unit 68, Gloucester Quays Designer Outlet",
    "city": "Gloucester",
    "postcode": "GL1 5SH",
    "latitude": 51.8604223,
    "longitude": -2.25256,
    "status": "open",
    "openingHours": "Mon-Sat: 08:00-19:00, Sun: 09:00-17:00",
    "phone": "+44 1452 227637",
    "brand": "pret"
  },
  {
    "id": "11169",
    "name": "Pret A Manger",
    "address": "142 Terminus Road",
    "city": "Eastbourne",
    "postcode": "BN21 3AN",
    "latitude": 50.76826,
    "longitude": 0.28648,
    "status": "open",
    "openingHours": "Mon-Sun: 08:30-17:00",
    "brand": "pret"
  },
  {
    "id": "11176",
    "name": "Pret A Manger",
    "address": "45 High St,London",
    "city": "London",
    "postcode": "W5 5AW",
    "latitude": 51.51294,
    "longitude": -0.30506,
    "status": "open",
    "openingHours": "Mon-Sat: 07:00-19:00, Sun: 08:00-18:00",
    "phone": "+44 20 8579 4615",
    "brand": "pret"
  },
  {
    "id": "11178",
    "name": "Pret A Manger",
    "address": "1 The Parade",
    "city": "Watford",
    "postcode": "WD17 1LQ",
    "latitude": 51.656829,
    "longitude": -0.398025,
    "status": "open",
    "openingHours": "Mon: 06:30-16:30, Tue-Thu: 06:30-17:30, Fri: 06:30-16:30, Sat: 07:30-17:30, Sun: 08:30-17:30",
    "phone": "+44 1923 805285",
    "brand": "pret"
  },
  {
    "id": "11179",
    "name": "Pret A Manger",
    "address": "The Pavillions Shopping Centre Grainge Yard, Uxbridge",
    "city": "Uxbridge",
    "postcode": "UB8 1LN",
    "latitude": 51.546172,
    "longitude": -0.479919,
    "status": "open",
    "openingHours": "Mon: 07:00-18:00, Tue-Thu: 07:00-18:30, Fri: 07:00-18:00, Sat: 08:00-18:00, Sun: 08:30-17:00",
    "phone": "+44 1895 238614",
    "brand": "pret"
  },
  {
    "id": "11181",
    "name": "Pret A Manger",
    "address": "Prince Charles Drive, Unit R2, Brent Cross Shopping Centre",
    "city": "London",
    "postcode": "NW4 3FB",
    "latitude": 51.577256,
    "longitude": -0.224183,
    "status": "open",
    "openingHours": "Mon-Sat: 09:00-20:00, Sun: 11:00-19:00",
    "phone": "+44 20 8203 4719",
    "brand": "pret"
  },
  {
    "id": "11182",
    "name": "Pret A Manger",
    "address": "48 Wembley Park Boulevard, Units 46, Designer Outlet",
    "city": "Wembley",
    "postcode": "HA9 0FD",
    "latitude": 51.5593027,
    "longitude": -0.277903872,
    "status": "open",
    "openingHours": "Mon: 07:00-18:00, Tue-Fri: 07:00-18:30, Sat: 08:00-19:30, Sun: 08:30-18:30",
    "phone": "+44 20 8902 1735",
    "brand": "pret"
  },
  {
    "id": "11183",
    "name": "Pret A Manger",
    "address": "Kimberley Way, Kimberly Way Ashford Designer Outlet Village, Unit 1",
    "city": "Ashford",
    "postcode": "TN24 0SD",
    "latitude": 51.1368,
    "longitude": 0.8786,
    "status": "open",
    "openingHours": "Mon-Sun: 08:00-20:00",
    "phone": "+44 1233 621562",
    "brand": "pret"
  },
  {
    "id": "11188",
    "name": "Pret A Manger",
    "address": "Orchard Road, Welcome Break Motorway Services, Whiston",
    "city": "Rotherham",
    "postcode": "S60 4EQ",
    "latitude": 53.39714,
    "longitude": -1.35156,
    "status": "open",
    "openingHours": "Mon-Sun: 08:00-16:00",
    "phone": "+44 1709 288940",
    "brand": "pret"
  },
  {
    "id": "11191",
    "name": "Pret A Manger",
    "address": "12-16 Market Place, Henley on Thames",
    "city": "Henley On Thames",
    "postcode": "RG9 2AH",
    "latitude": 51.53773,
    "longitude": -0.90546,
    "status": "open",
    "openingHours": "Mon-Sat: 07:30-18:00, Sun: 08:00-17:00",
    "phone": "+44 1491 527822",
    "brand": "pret"
  },
  {
    "id": "11193",
    "name": "Pret A Manger",
    "address": "9 Haymarket Square, Edinburgh",
    "city": "Edinburgh",
    "postcode": "EH3 8RY",
    "latitude": 55.94548806558049,
    "longitude": -3.21590834887096,
    "status": "open",
    "openingHours": "Mon-Fri: 05:00-20:00, Sat-Sun: 06:30-16:30",
    "brand": "pret"
  },
  {
    "id": "11203",
    "name": "Pret A Manger",
    "address": "Fiveways Roundabout, Esso Barton Mills Servies",
    "city": "Suffolk",
    "postcode": "IP28 6AE",
    "latitude": 52.337425,
    "longitude": 0.535288,
    "status": "open",
    "openingHours": "Mon-Thu: 05:00-19:00, Fri: 05:00-21:00, Sat: 07:00-18:00, Sun: 08:00-21:00",
    "phone": "+44 1638 590829",
    "brand": "pret"
  },
  {
    "id": "11209",
    "name": "Pret A Manger",
    "address": "Queen Street, Unit D, 7, Maidenhead, Berkshire, Garden Boulevard",
    "city": "Maidenhead",
    "postcode": "SL6 1QQ",
    "latitude": 51.520768582404,
    "longitude": -0.720859859543313,
    "status": "open",
    "openingHours": "Mon-Fri: 07:00-18:00, Sat: 08:00-16:00, Sun: 09:00-16:00",
    "phone": "+44 1628 562762",
    "brand": "pret"
  },
  {
    "id": "11180",
    "name": "Pret A Manger",
    "address": "68-70 St. Anns Rd, Harrow",
    "city": "Harrow",
    "postcode": "HA1 1JX",
    "latitude": 51.581564,
    "longitude": -0.336786,
    "status": "open",
    "openingHours": "Mon-Fri: 07:30-17:30, Sat: 07:30-18:00, Sun: 08:30-17:00",
    "phone": "+44 20 8424 2698",
    "brand": "pret"
  },
  {
    "id": "11214",
    "name": "Pret A Manger",
    "address": "33 Parliament Street",
    "city": "London",
    "postcode": "YO1 8RU",
    "latitude": 53.9591926,
    "longitude": -1.0811166,
    "status": "open",
    "openingHours": "Mon-Sat: 07:30-17:30, Sun: 08:00-17:30",
    "phone": "+44 20 3937 7821",
    "brand": "pret"
  },
  {
    "id": "11215",
    "name": "Pret A Manger",
    "address": "140 Aldersgate Street",
    "city": "London",
    "postcode": "EC1A 4HY",
    "latitude": 51.5198609,
    "longitude": -0.09782261,
    "status": "open",
    "openingHours": "Mon: 06:00-20:00, Tue-Thu: 06:00-20:30, Fri: 06:00-20:00, Sat: 07:00-17:30, Sun: 08:00-17:00",
    "phone": "+44 7884 923782",
    "brand": "pret"
  },
  {
    "id": "11218",
    "name": "Pret A Manger",
    "address": "Amhurst Road, Pret Hackney",
    "city": "London",
    "postcode": "E8 1JB",
    "latitude": 51.546393,
    "longitude": -0.055069,
    "status": "open",
    "openingHours": "Mon-Fri: 06:30-19:00, Sat: 07:30-18:00, Sun: 08:00-18:00",
    "brand": "pret"
  },
  {
    "id": "11220",
    "name": "Pret A Manger",
    "address": "J15 A1 Toll bar way",
    "city": "Huntingdon",
    "postcode": "PE28 5XW",
    "latitude": 52.42663,
    "longitude": -0.2698,
    "status": "open",
    "openingHours": "Mon-Sat: 07:00-18:00, Sun: 08:00-18:00",
    "brand": "pret"
  },
  {
    "id": "11105",
    "name": "Pret A Manger",
    "address": "M4 East Burgh Field, JCT 11/12",
    "city": "Reading",
    "postcode": "RG30 3UQ",
    "latitude": 51.42600183,
    "longitude": -1.03514983,
    "status": "open",
    "openingHours": "Mon-Fri: 07:00-19:00, Sat-Sun: 08:00-19:00",
    "brand": "pret"
  },
  {
    "id": "11225",
    "name": "Pret A Manger",
    "address": "173 London Road, Shell Burgess Hill",
    "city": "London",
    "postcode": "RH15 8LJ",
    "latitude": 50.9578210058115,
    "longitude": -0.139219654339451,
    "status": "open",
    "openingHours": "Mon-Fri: 06:00-18:00, Sat: 07:00-17:00, Sun: 08:00-16:00",
    "brand": "pret"
  },
  {
    "id": "11226",
    "name": "Pret A Manger",
    "address": "Ten Perch Road, Wincheap Canterbury, Morrisons Canterbury Service Station",
    "city": "Canterbury",
    "postcode": "CT1 3TQ",
    "latitude": 51.2714535,
    "longitude": 1.061994,
    "status": "open",
    "openingHours": "Mon-Fri: 06:00-18:00, Sat: 07:00-17:00, Sun: 08:00-16:00",
    "phone": "+44 1227 201850",
    "brand": "pret"
  },
  {
    "id": "11227",
    "name": "Pret A Manger",
    "address": "Canaries Path, Wessex Filling Station",
    "city": "Shepton Mallet",
    "postcode": "BA4 4LY",
    "latitude": 51.1777868697527,
    "longitude": -2.53622815560272,
    "status": "open",
    "openingHours": "Mon-Fri: 06:00-18:00, Sat: 07:00-17:00, Sun: 08:00-16:00",
    "brand": "pret"
  },
  {
    "id": "11228",
    "name": "Pret A Manger",
    "address": "Platinum Drive, Unit 44-76, Cotswolds Designer Outlet, Ashchurch",
    "city": "Tewkesbury",
    "postcode": "GL20 7FY",
    "latitude": 51.996253,
    "longitude": -2.114679,
    "status": "open",
    "openingHours": "Mon-Fri: 09:30-20:30, Sat: 08:30-20:30, Sun: 10:00-16:30",
    "brand": "pret"
  },
  {
    "id": "11230",
    "name": "Pret A Manger",
    "address": "21 Wimbledon Bridge",
    "city": "London",
    "postcode": "SW19 7NH",
    "latitude": 51.4210612,
    "longitude": -0.206539,
    "status": "open",
    "openingHours": "Mon-Fri: 06:00-18:00, Sat-Sun: 07:00-17:00",
    "brand": "pret"
  },
  {
    "id": "11232",
    "name": "Pret A Manger",
    "address": "Unit C3.28 St James Quarter",
    "city": "Edinburgh",
    "postcode": "EH1 3AE",
    "latitude": 55.955180649151366,
    "longitude": -3.1883127477264583,
    "status": "open",
    "openingHours": "Mon-Sat: 08:00-20:00, Sun: 09:00-18:00",
    "phone": "+44 7980 554001",
    "brand": "pret"
  },
  {
    "id": "11234",
    "name": "Pret A Manger",
    "address": "Hatfield Road, Morrisons St Albans Service Station",
    "city": "London",
    "postcode": "AL1 4LW",
    "latitude": 51.751688,
    "longitude": -0.313178,
    "status": "open",
    "openingHours": "Mon-Wed: 05:30-19:00, Thu-Fri: 05:30-20:00, Sat: 06:30-20:00, Sun: 07:00-17:00",
    "phone": "+44 1727 221830",
    "brand": "pret"
  },
  {
    "id": "11235",
    "name": "Pret A Manger",
    "address": "Leamington Spa Warwickshire",
    "city": "Warwick",
    "postcode": "CV31 3NT",
    "latitude": 52.2842023,
    "longitude": -1.5428655,
    "status": "open",
    "openingHours": "Mon-Fri: 06:00-18:00, Sat: 07:00-17:00, Sun: 08:00-16:00",
    "phone": "+44 1926 293449",
    "brand": "pret"
  },
  {
    "id": "10961",
    "name": "Pret A Manger",
    "address": "Unit 6 Central Square",
    "city": "Cardiff",
    "postcode": "CF10 1FS",
    "latitude": 51.4767363852714,
    "longitude": -3.179496984656,
    "status": "open",
    "openingHours": "Mon-Fri: 07:00-19:00, Sat: 08:00-17:30, Sun: 09:00-16:00",
    "phone": "+44 29 2022 4736",
    "brand": "pret"
  },
  {
    "id": "11240",
    "name": "Pret A Manger",
    "address": "180 Queen's Gate, South Kensington",
    "city": "London",
    "postcode": "SW7 2AZ",
    "latitude": 51.49949760960905,
    "longitude": -0.17805464482421263,
    "status": "open",
    "openingHours": "Mon-Fri: 08:00-19:00, Sat-Sun: 08:00-16:00",
    "brand": "pret"
  },
  {
    "id": "11233",
    "name": "Pret A Manger",
    "address": "BP Wallisdown Service Station, 524 Wallisdown Road",
    "city": "Bournemouth",
    "postcode": "BH11 8PT",
    "latitude": 50.72162973247383,
    "longitude": -1.866051712164305,
    "status": "open",
    "openingHours": "Mon-Fri: 06:00-18:00, Sat: 07:00-17:00, Sun: 08:00-16:00",
    "phone": "+44 1202 573779",
    "brand": "pret"
  },
  {
    "id": "11236",
    "name": "Pret A Manger",
    "address": "Banbury Road, Warwick Services, M40 Northbound",
    "city": "Warwick",
    "postcode": "CV35 0AA",
    "latitude": 52.2166644621271,
    "longitude": -1.50532163627102,
    "status": "open",
    "openingHours": "Mon-Sun: 07:00-19:00",
    "brand": "pret"
  },
  {
    "id": "11237",
    "name": "Pret A Manger",
    "address": "Church Street, Morrisons Dalton Park Service Station",
    "city": "London",
    "postcode": "SR7 9HU",
    "latitude": 54.815043,
    "longitude": -1.3735886,
    "status": "open",
    "openingHours": "Mon-Fri: 06:00-18:00, Sat: 07:00-17:00, Sun: 08:00-16:00",
    "phone": "+44 191 406 5728",
    "brand": "pret"
  },
  {
    "id": "11238",
    "name": "Pret A Manger",
    "address": "Green Lanes, Esso Highfields Service Station",
    "city": "London",
    "postcode": "N21 3RL",
    "latitude": 51.629753,
    "longitude": -0.096905,
    "status": "open",
    "openingHours": "Mon-Fri: 06:00-18:00, Sat: 07:00-17:00, Sun: 08:00-16:00",
    "phone": "+44 20 3837 0687",
    "brand": "pret"
  },
  {
    "id": "11248",
    "name": "Pret A Manger",
    "address": "Morrisons Redditch Service Station Clearwell Road, Warwick Highway Redditch",
    "city": "Warwick",
    "postcode": "B98 0SW",
    "latitude": 52.30115093453935,
    "longitude": -1.9041994629852321,
    "status": "open",
    "openingHours": "Mon-Fri: 06:00-18:00, Sat: 07:00-17:00, Sun: 08:00-16:00",
    "phone": "+44 1527 911245",
    "brand": "pret"
  }
]