[
  {
    "id": "10325",
    "name": "Pret A Manger",
    "address": "37 Shelton Street",
    "city": "London",
    "postcode": "WC2H 9HN",
    "latitude": 51.51468871,
    "longitude": -0.12496523,
    "status": "open",
    "openingHours": "Mon-Fri: 06:30-20:00, Sat: 07:30-20:00, Sun: 08:00-18:30",
    "phone": "+44 20 7932 5466",
    "brand": "pret"
  },
  {
    "id": "10439",
    "name": "Pret A Manger",
    "address": "14 Warren Street",
    "city": "London",
    "postcode": "W1T 5LL",
    "latitude": 51.5241459,
    "longitude": -0.1389788,
    "status": "open",
    "openingHours": "Mon-Wed: 06:00-18:00, Thu: 06:00-18:30, Fri: 06:00-17:30, Sat: 07:00-16:30, Sun: Closed",
    "phone": "+44 20 7387 6661",
    "brand": "pret"
  },
  {
    "id": "10145",
    "name": "Pret A Manger",
    "address": "67 Tottenham Court Road",
    "city": "London",
    "postcode": "W1T 2EY",
    "latitude": 51.5202627,
    "longitude": -0.1342397,
    "status": "open",
    "openingHours": "Mon-Fri: 06:30-18:00, Sat-Sun: Closed",
    "phone": "+44 20 7932 5205",
    "brand": "pret"
  },
  {
    "id": "10560",
    "name": "Pret A Manger",
    "address": "Euston Road, Retail Unit 26 & 27, The Circle, St Pancras International",
    "city": "London",
    "postcode": "N1C 4QP",
    "latitude": 51.531427,
    "longitude": -0.126133,
    "status": "open",
    "openingHours": "Mon-Sun: Closed",
    "phone": "+44 20 7278 2563",
    "brand": "pret"
  },
  {
    "id": "10317",
    "name": "Pret A Manger",
    "address": "York Way, Kings Cross Station, Unit Cg08",
    "city": "London",
    "postcode": "N1C 9AP",
    "latitude": 51.53154315,
    "longitude": -0.12457351,
    "status": "open",
    "openingHours": "Mon-Sat: 05:00-24:00, Sun: 05:30-24:00",
    "phone": "+44 20 7932 5465",
    "brand": "pret"
  },
  {
    "id": "10563",
    "name": "Pret A Manger",
    "address": "Euston Road, Unit 1 Southern Square",
    "city": "London",
    "postcode": "N1C 4AP",
    "latitude": 51.527607,
    "longitude": -0.1331756,
    "status": "open",
    "openingHours": "Mon-Thu: 06:00-21:00, Fri: 06:00-24:00, Sat: 00:00-23:59, Sun: 00:00-21:00",
    "phone": "+44 20 7278 8054",
    "brand": "pret"
  },
  {
    "id": "10567",
    "name": "Pret A Manger",
    "address": "116 Lothian Road",
    "city": "Edinburgh",
    "postcode": "EH3 9BE",
    "latitude": 55.9459618,
    "longitude": -3.2058397,
    "status": "open",
    "openingHours": "Mon-Fri: 06:30-17:00, Sat: 08:30-16:00, Sun: Closed",
    "phone": "+44 131 228 2169",
    "brand": "pret"
  },
  {
    "id": "10555",
    "name": "Pret A Manger",
    "address": "26 Edgware Road",
    "city": "London",
    "postcode": "W2 2EH",
    "latitude": 51.5137263,
    "longitude": -0.160508,
    "status": "open",
    "openingHours": "Mon-Fri: 06:00-21:00, Sat-Sun: 07:30-21:00",
    "phone": "+44 20 7723 1141",
    "brand": "pret"
  },
  {
    "id": "10438",
    "name": "Pret A Manger",
    "address": "217 Strand",
    "city": "London",
    "postcode": "WC2R 1AT",
    "latitude": 51.5132807,
    "longitude": -0.1127745,
    "status": "open",
    "openingHours": "Mon: 06:30-21:00, Tue-Fri: 06:00-21:00, Sat-Sun: 07:00-19:00",
    "phone": "+44 20 7936 4839",
    "brand": "pret"
  },
  {
    "id": "10433",
    "name": "Pret A Manger",
    "address": "35-37 King's Road",
    "city": "London",
    "postcode": "SW3 4NB",
    "latitude": 51.49020613,
    "longitude": -0.16199477,
    "status": "open",
    "openingHours": "Mon-Fri: 05:00-21:00, Sat: 06:30-20:00, Sun: 07:00-19:00",
    "phone": "+44 20 7730 9655",
    "brand": "pret"
  },
  {
    "id": "10440",
    "name": "Pret A Manger",
    "address": "12 Parkfield Street, Islington",
    "city": "London",
    "postcode": "N1 0PS",
    "latitude": 51.5342006,
    "longitude": -0.1060342,
    "status": "open",
    "openingHours": "Mon-Fri: 06:30-20:30, Sat-Sun: 07:00-20:30",
    "phone": "+44 20 7226 4292",
    "brand": "pret"
  },
  {
    "id": "10680",
    "name": "Pret A Manger",
    "address": "Eastfield Avenue, Edinburgh Airport, Airside",
    "city": "Edinburgh",
    "postcode": "EH12 9DN",
    "latitude": 55.94879058,
    "longitude": -3.36381354,
    "status": "open",
    "openingHours": "Mon-Sun: 04:00-22:00",
    "phone": "+44 131 333 1714",
    "brand": "pret"
  },
  {
    "id": "10578",
    "name": "Pret A Manger",
    "address": "Marylebone Road, Baker Street Tube",
    "city": "London",
    "postcode": "NW1 5LA",
    "latitude": 51.52267336,
    "longitude": -0.15630102,
    "status": "open",
    "openingHours": "Mon-Fri: 06:45-18:00, Sat-Sun: 08:00-17:00",
    "phone": "+44 20 7486 2023",
    "brand": "pret"
  },
  {
    "id": "10382",
    "name": "Pret A Manger",
    "address": "Unit GO1A Waterloo Station, Main Concourse, Main Concourse, Unit GO1A, Waterloo Station",
    "city": "London",
    "postcode": "SE1 7NQ",
    "latitude": 51.5032988,
    "longitude": -0.1124044,
    "status": "open",
    "openingHours": "Mon-Fri: 05:00-24:00, Sat: 05:30-23:00, Sun: 05:30-22:30",
    "phone": "+44 20 7633 9233",
    "brand": "pret"
  },
  {
    "id": "10444",
    "name": "Pret A Manger",
    "address": "Paddington Subway Sta, Paddington Station, Unit 26, Platform 1",
    "city": "London",
    "postcode": "W2 1HB",
    "latitude": 51.5166744,
    "longitude": -0.1769328,
    "status": "open",
    "openingHours": "Mon-Fri: 04:30-22:30, Sat: 05:00-22:00, Sun: 06:00-22:00",
    "phone": "+44 20 7262 9784",
    "brand": "pret"
  },
  {
    "id": "10445",
    "name": "Pret A Manger",
    "address": "Whitecross Street, Unit 1, City Shopping Centre",
    "city": "London",
    "postcode": "EC1Y 8NX",
    "latitude": 51.5220227,
    "longitude": -0.0924261,
    "status": "open",
    "openingHours": "Mon-Fri: 07:00-16:00, Sat: 08:00-16:00, Sun: 08:30-16:00",
    "phone": "+44 20 7256 8280",
    "brand": "pret"
  },
  {
    "id": "10657",
    "name": "Pret A Manger",
    "address": "St Thomas St, Railway Approach, London Bridge Station",
    "city": "London",
    "postcode": "SE1 9SP",
    "latitude": 51.5046203181577,
    "longitude": -0.0859852813422683,
    "status": "open",
    "openingHours": "Mon-Fri: 05:00-23:30, Sat: 05:30-23:30, Sun: 06:00-23:30",
    "phone": "+44 20 7378 0366",
    "brand": "pret"
  },
  {
    "id": "10413",
    "name": "Pret A Manger",
    "address": "21 Station Street",
    "city": "London",
    "postcode": "E15 1DA",
    "latitude": 51.5416798,
    "longitude": -0.0026537,
    "status": "open",
    "openingHours": "Mon-Sat: 05:00-22:00, Sun: 06:00-21:30",
    "phone": "+44 20 8519 6859",
    "brand": "pret"
  },
  {
    "id": "10200",
    "name": "Pret A Manger",
    "address": "60 The Trafford Centre, Selfridges",
    "city": "Manchester",
    "postcode": "M17 8DA",
    "latitude": 53.4664691,
    "longitude": -2.3472996,
    "status": "open",
    "openingHours": "Mon-Fri: 09:00-21:30, Sat: 09:00-20:30, Sun: 11:30-17:30",
    "phone": "+44 161 755 0942",
    "brand": "pret"
  },
  {
    "id": "10140",
    "name": "Pret A Manger",
    "address": "4 Hardman Square, Spinningfields",
    "city": "Manchester",
    "postcode": "M3 3EB",
    "latitude": 53.47981987,
    "longitude": -2.25192072,
    "status": "open",
    "openingHours": "Mon-Fri: 06:30-18:00, Sat-Sun: Closed",
    "phone": "+44 161 832 1471",
    "brand": "pret"
  },
  {
    "id": "10530",
    "name": "Pret A Manger",
    "address": "Hartmann Road, London City Airport, Retail Unit , Gate 3",
    "city": "London",
    "postcode": "E16 2PX",
    "latitude": 51.50397136,
    "longitude": 0.04858966,
    "status": "open",
    "openingHours": "Mon-Fri: 05:00-22:00, Sat: 05:00-12:00, Sun: 11:00-22:00",
    "phone": "+44 20 7511 1736",
    "brand": "pret"
  },
  {
    "id": "10316",
    "name": "Pret A Manger",
    "address": "13 Hanover Square",
    "city": "London",
    "postcode": "W1S 1HN",
    "latitude": 51.5145178,
    "longitude": -0.1439031,
    "status": "open",
    "openingHours": "Mon-Fri: 05:30-21:30, Sat: 06:00-21:00, Sun: 07:00-21:00",
    "phone": "+44 20 7932 5464",
    "brand": "pret"
  },
  {
    "id": "10261",
    "name": "Pret A Manger",
    "address": "341 Kentish Town Road",
    "city": "London",
    "postcode": "NW5 2TJ",
    "latitude": 51.5505322,
    "longitude": -0.1409513,
    "status": "open",
    "openingHours": "Mon-Fri: 06:15-18:30, Sat: 06:30-18:00, Sun: 07:00-17:00",
    "phone": "+44 20 7932 5383",
    "brand": "pret"
  },
  {
    "id": "10659",
    "name": "Pret A Manger",
    "address": "Airport Approach Road, Airside Departure Lounge",
    "city": "Luton",
    "postcode": "LU2 9LY",
    "latitude": 51.88056977,
    "longitude": -0.37525119,
    "status": "open",
    "openingHours": "Mon-Sun: 05:00-20:00",
    "phone": "+44 1582 730224",
    "brand": "pret"
  },
  {
    "id": "102",
    "name": "Pret A Manger",
    "address": "Wilton Road, Unit 36B, Victoria Station",
    "city": "London",
    "postcode": "SW1V 1JU",
    "latitude": 51.49534556,
    "longitude": -0.14390863,
    "status": "open",
    "openingHours": "Mon: 05:30-21:30, Tue-Sat: 05:30-22:00, Sun: 05:30-21:30",
    "phone": "+44 20 7932 5318",
    "brand": "pret"
  },
  {
    "id": "10322",
    "name": "Pret A Manger",
    "address": "Westway, Clarks Village Street, Unit 37D",
    "city": "Somerset",
    "postcode": "BA16 0BB",
    "latitude": 51.129095,
    "longitude": -2.740114,
    "status": "open",
    "openingHours": "Mon-Wed: 08:30-19:00, Thu: 08:30-20:00, Fri-Sat: 08:30-19:00, Sun: 09:00-17:30",
    "phone": "+44 1458 445406",
    "brand": "pret"
  },
  {
    "id": "10519",
    "name": "Pret A Manger",
    "address": "Ramp Road South, Terminal 1, Unit C6",
    "city": "Manchester",
    "postcode": "M90 1QX",
    "latitude": 53.3619363,
    "longitude": -2.2729717,
    "status": "open",
    "openingHours": "Mon-Sun: 03:30-20:00",
    "phone": "+44 161 437 3453",
    "brand": "pret"
  },
  {
    "id": "10385",
    "name": "Pret A Manger",
    "address": "2-4 Circus Road",
    "city": "London",
    "postcode": "NW8 6PG",
    "latitude": 51.53421,
    "longitude": -0.1716,
    "status": "open",
    "openingHours": "Mon: 06:00-19:00, Tue: 05:30-19:30, Wed: 05:30-20:00, Thu: 06:00-19:30, Fri: 06:00-19:00, Sat: 06:00-18:30, Sun: 06:30-18:00",
    "phone": "+44 20 7483 4433",
    "brand": "pret"
  },
  {
    "id": "104",
    "name": "Pret A Manger",
    "address": "65 Notting Hill Gate",
    "city": "London",
    "postcode": "W11 3JS",
    "latitude": 51.50899,
    "longitude": -0.1967,
    "status": "open",
    "openingHours": "Mon-Fri: 05:30-21:00, Sat: 06:00-20:30, Sun: 06:30-19:30",
    "phone": "+44 20 7041 9040",
    "brand": "pret"
  },
  {
    "id": "10607",
    "name": "Pret A Manger",
    "address": "231 Camden High Street",
    "city": "London",
    "postcode": "NW1 7BU",
    "latitude": 51.5400930557987,
    "longitude": -0.143954340401493,
    "status": "open",
    "openingHours": "Mon-Fri: 06:00-20:00, Sat: 06:00-21:00, Sun: 07:00-20:00",
    "phone": "+44 20 7267 1845",
    "brand": "pret"
  },
  {
    "id": "10388",
    "name": "Pret A Manger",
    "address": "27-29 Eagle Walk, Intu Shopping Centre",
    "city": "Milton Keynes",
    "postcode": "MK9 3AJ",
    "latitude": 52.04448591,
    "longitude": -0.75343527,
    "status": "open",
    "openingHours": "Mon-Sat: 07:30-19:30, Sun: 08:30-17:30",
    "phone": "+44 1908 665811",
    "brand": "pret"
  },
  {
    "id": "10387",
    "name": "Pret A Manger",
    "address": "85-87 Clarence Street, Kingston",
    "city": "Kingston upon Thames",
    "postcode": "KT1 1RB",
    "latitude": 51.41095,
    "longitude": -0.30413,
    "status": "open",
    "openingHours": "Mon-Fri: 06:00-18:30, Sat: 06:30-19:00, Sun: 07:00-18:00",
    "phone": "+44 20 8541 5834",
    "brand": "pret"
  },
  {
    "id": "106",
    "name": "Pret A Manger",
    "address": "143 Fleet Street",
    "city": "London",
    "postcode": "EC4Y 1HY",
    "latitude": 51.514351,
    "longitude": -0.10709,
    "status": "open",
    "openingHours": "Mon-Thu: 06:00-19:00, Fri: 06:30-18:00, Sat-Sun: Closed",
    "phone": "+44 20 7932 5323",
    "brand": "pret"
  },
  {
    "id": "211",
    "name": "Pret A Manger",
    "address": "62-63 Fenchurch Street, Vitro Building",
    "city": "London",
    "postcode": "EC3M 4AQ",
    "latitude": 51.5121214,
    "longitude": -0.079606,
    "status": "open",
    "openingHours": "Mon-Thu: 05:30-19:00, Fri: 05:30-17:00, Sat-Sun: Closed",
    "phone": "+44 20 7932 5348",
    "brand": "pret"
  },
  {
    "id": "219",
    "name": "Pret A Manger",
    "address": "62-65 Trafalgar Square",
    "city": "London",
    "postcode": "WC2N 5DS",
    "latitude": 51.507312,
    "longitude": -0.128631,
    "status": "open",
    "openingHours": "Mon-Fri: 05:30-21:00, Sat: 05:30-20:30, Sun: 06:00-20:00",
    "phone": "+44 20 7932 5350",
    "brand": "pret"
  },
  {
    "id": "10435",
    "name": "Pret A Manger",
    "address": "55 Bishopsgate",
    "city": "London",
    "postcode": "EC2N 3AS",
    "latitude": 51.5153832,
    "longitude": -0.0826456,
    "status": "open",
    "openingHours": "Mon-Thu: 05:30-20:00, Fri: 05:30-18:00, Sat: 08:00-17:00, Sun: Closed",
    "phone": "+44 20 7374 6420",
    "brand": "pret"
  },
  {
    "id": "54",
    "name": "Pret A Manger",
    "address": "Pingle Drive, Unit 450",
    "city": "Bicester",
    "postcode": "OX26 6WD",
    "latitude": 51.89225558,
    "longitude": -1.15653069,
    "status": "open",
    "openingHours": "Mon-Sat: 09:00-21:30, Sun: 10:00-19:30",
    "phone": "+44 1869 241069",
    "brand": "pret"
  },
  {
    "id": "10175",
    "name": "Pret A Manger",
    "address": "Canada Place, Unit 7, Building DS4, Canary Wharf",
    "city": "London",
    "postcode": "E14 5NN",
    "latitude": 51.505043,
    "longitude": -0.01904,
    "status": "open",
    "openingHours": "Mon-Thu: 05:30-16:00, Fri: 05:30-15:00, Sat-Sun: Closed",
    "phone": "+44 20 7513 1963",
    "brand": "pret"
  },
  {
    "id": "223",
    "name": "Pret A Manger",
    "address": "31 Cavendish Square",
    "city": "London",
    "postcode": "W1G 0PW",
    "latitude": 51.5159343,
    "longitude": -0.144161545,
    "status": "open",
    "openingHours": "Mon-Thu: 06:00-19:30, Fri: 06:00-19:00, Sat: 07:30-18:00, Sun: 08:00-17:00",
    "phone": "+44 20 7629 7946",
    "brand": "pret"
  },
  {
    "id": "174",
    "name": "Pret A Manger",
    "address": "136 Great Portland Street",
    "city": "London",
    "postcode": "W1W 6PY",
    "latitude": 51.5202708,
    "longitude": -0.1426412,
    "status": "open",
    "openingHours": "Mon-Thu: 06:00-19:00, Fri: 06:00-18:30, Sat: 06:30-17:30, Sun: 07:00-16:30",
    "phone": "+44 20 7323 9440",
    "brand": "pret"
  },
  {
    "id": "265",
    "name": "Pret A Manger",
    "address": "173 Victoria Street",
    "city": "London",
    "postcode": "SW1E 5NA",
    "latitude": 51.4963349,
    "longitude": -0.1421851,
    "status": "open",
    "openingHours": "Mon-Thu: 05:30-21:00, Fri-Sat: 06:00-21:00, Sun: 06:30-21:00",
    "phone": "+44 20 7827 8882",
    "brand": "pret"
  },
  {
    "id": "10434",
    "name": "Pret A Manger",
    "address": "5 Pall Mall East",
    "city": "London",
    "postcode": "SW1Y 5BA",
    "latitude": 51.5082321,
    "longitude": -0.130062,
    "status": "open",
    "openingHours": "Mon-Fri: 06:00-20:00, Sat: 07:00-19:30, Sun: 08:00-18:30",
    "phone": "+44 20 7839 3995",
    "brand": "pret"
  },
  {
    "id": "10479",
    "name": "Pret A Manger",
    "address": "Pier Four Road North, Unit 20709, North Terminal, Pier 6",
    "city": "Gatwick",
    "postcode": "RH6 0NP",
    "latitude": 51.15965019,
    "longitude": -0.17801046,
    "status": "open",
    "openingHours": "Mon-Sun: 04:30-20:00",
    "phone": "+44 1293 579464",
    "brand": "pret"
  },
  {
    "id": "10401",
    "name": "Pret A Manger",
    "address": "34 Oxford Street",
    "city": "Manchester",
    "postcode": "M1 5EL",
    "latitude": 53.4762759909001,
    "longitude": -2.24299833969689,
    "status": "open",
    "openingHours": "Mon: 06:30-19:00, Tue-Thu: 06:30-19:30, Fri: 06:30-18:30, Sat: 07:30-18:30, Sun: 08:00-17:00",
    "phone": "+44 161 228 7965",
    "brand": "pret"
  },
  {
    "id": "156",
    "name": "Pret A Manger",
    "address": "132 Brompton Road",
    "city": "London",
    "postcode": "SW3 1HY",
    "latitude": 51.498756,
    "longitude": -0.1657017,
    "status": "open",
    "openingHours": "Mon-Fri: 07:00-19:00, Sat-Sun: 08:00-17:00",
    "phone": "+44 20 7932 5337",
    "brand": "pret"
  },
  {
    "id": "10437",
    "name": "Pret A Manger",
    "address": "93-95 Victoria Street",
    "city": "London",
    "postcode": "SW1H 0HW",
    "latitude": 51.4973714,
    "longitude": -0.1353875,
    "status": "open",
    "openingHours": "Mon-Fri: 05:30-19:30, Sat: 06:00-19:30, Sun: 06:30-19:30",
    "phone": "+44 20 7222 6293",
    "brand": "pret"
  },
  {
    "id": "92",
    "name": "Pret A Manger",
    "address": "Euston Road, Euston Tower Podium, Unit 1",
    "city": "London",
    "postcode": "NW1 3DP",
    "latitude": 51.52532627,
    "longitude": -0.1392553,
    "status": "open",
    "openingHours": "Mon: 06:00-18:00, Tue-Thu: 05:30-19:00, Fri: 06:00-17:00, Sat-Sun: Closed",
    "phone": "+44 20 3583 3860",
    "brand": "pret"
  },
  {
    "id": "10402",
    "name": "Pret A Manger",
    "address": "1 Commercial Street",
    "city": "London",
    "postcode": "E1 6BF",
    "latitude": 51.5155828325732,
    "longitude": -0.0728276799831688,
    "status": "open",
    "openingHours": "Mon-Fri: 05:30-19:30, Sat: 06:30-18:00, Sun: 07:00-17:00",
    "phone": "+44 20 7092 9114",
    "brand": "pret"
  },
  {
    "id": "10114",
    "name": "Pret A Manger",
    "address": "117 Euston Road, Euston Station",
    "city": "London",
    "postcode": "NW1 2SX",
    "latitude": 51.528334,
    "longitude": -0.1275658,
    "status": "open",
    "openingHours": "Mon-Fri: 06:00-20:30, Sat: 06:00-19:00, Sun: 07:00-18:30",
    "phone": "+44 20 7932 5256",
    "brand": "pret"
  },
  {
    "id": "86",
    "name": "Pret A Manger",
    "address": "244 Great Portland Street",
    "city": "London",
    "postcode": "W1W 5QX",
    "latitude": 51.5234251,
    "longitude": -0.1438496,
    "status": "open",
    "openingHours": "Mon-Fri: 05:30-20:30, Sat: 06:00-20:30, Sun: 06:00-20:00",
    "phone": "+44 20 7932 5301",
    "brand": "pret"
  },
  {
    "id": "10414",
    "name": "Pret A Manger",
    "address": "280 High Holborn",
    "city": "London",
    "postcode": "WC1V 7EE",
    "latitude": 51.5176869698502,
    "longitude": -0.117104594327442,
    "status": "open",
    "openingHours": "Mon-Thu: 06:00-18:30, Fri: 06:00-18:00, Sat: 08:00-17:00, Sun: Closed",
    "phone": "+44 20 7405 4290",
    "brand": "pret"
  },
  {
    "id": "10418",
    "name": "Pret A Manger",
    "address": "11-15 Borough High Street",
    "city": "London",
    "postcode": "SE1 9SE",
    "latitude": 51.505535500031876,
    "longitude": -0.08874475089940473,
    "status": "open",
    "openingHours": "Mon-Thu: 05:30-20:30, Fri: 05:30-20:00, Sat: 05:30-19:30, Sun: 06:30-19:00",
    "phone": "+44 20 7089 9067",
    "brand": "pret"
  },
  {
    "id": "10173",
    "name": "Pret A Manger",
    "address": "Canada Square, Canary Wharf, RT2, Unit 10, Canada Place Mall",
    "city": "London",
    "postcode": "E14 5NN",
    "latitude": 51.5066381,
    "longitude": -0.0278379,
    "status": "open",
    "openingHours": "Mon-Thu: 05:30-20:00, Fri: 05:30-19:30, Sat: 08:30-18:30, Sun: 09:00-18:00",
    "phone": "+44 20 7932 5435",
    "brand": "pret"
  },
  {
    "id": "10179",
    "name": "Pret A Manger",
    "address": "3 Derby Square",
    "city": "Liverpool",
    "postcode": "L2 9UJ",
    "latitude": 53.4054242,
    "longitude": -2.9896093,
    "status": "open",
    "openingHours": "Mon-Fri: 07:00-18:00, Sat: 08:00-17:30, Sun: 08:30-17:00",
    "phone": "+44 151 236 9964",
    "brand": "pret"
  },
  {
    "id": "10436",
    "name": "Pret A Manger",
    "address": "Cribbs Causeway, The Mall",
    "city": "Bristol",
    "postcode": "BS34 5DG",
    "latitude": 51.525576,
    "longitude": -2.595577,
    "status": "open",
    "openingHours": "Mon-Sat: 08:30-20:00, Sun: 09:00-17:00",
    "phone": "+44 117 959 0326",
    "brand": "pret"
  },
  {
    "id": "284",
    "name": "Pret A Manger",
    "address": "40 Bernard Street",
    "city": "London",
    "postcode": "WC1N 1LE",
    "latitude": 51.5233079,
    "longitude": -0.1248167,
    "status": "open",
    "openingHours": "Mon-Sun: 05:00-23:00",
    "phone": "+44 20 7932 5374",
    "brand": "pret"
  },
  {
    "id": "10556",
    "name": "Pret A Manger",
    "address": "40 Vauxhall Bridge Road",
    "city": "London",
    "postcode": "SW1V 2RX",
    "latitude": 51.49033402,
    "longitude": -0.13257288,
    "status": "open",
    "openingHours": "Mon-Fri: 06:00-18:30, Sat: 06:30-17:30, Sun: 07:00-16:00",
    "phone": "+44 20 7828 2102",
    "brand": "pret"
  },
  {
    "id": "10526",
    "name": "Pret A Manger",
    "address": "77-80 Gracechurch Street",
    "city": "London",
    "postcode": "EC3V 0AS",
    "latitude": 51.5122786596993,
    "longitude": -0.0846698130406552,
    "status": "open",
    "openingHours": "Mon: 06:00-18:00, Tue-Thu: 06:00-19:00, Fri: 06:00-17:30, Sat: 07:00-17:30, Sun: 08:00-16:00",
    "phone": "+44 20 7220 7519",
    "brand": "pret"
  },
  {
    "id": "10527",
    "name": "Pret A Manger",
    "address": "Elephant and Castle, 1 The Elephant, Elephant & Castle",
    "city": "London",
    "postcode": "SE1 6BH",
    "latitude": 51.4933641,
    "longitude": -0.098685,
    "status": "open",
    "openingHours": "Mon-Fri: 05:30-20:00, Sat: 06:30-18:30, Sun: 07:00-19:00",
    "phone": "+44 20 7582 8429",
    "brand": "pret"
  },
  {
    "id": "10394",
    "name": "Pret A Manger",
    "address": "95 Farringdon Road",
    "city": "London",
    "postcode": "EC1R 3BT",
    "latitude": 51.5224201,
    "longitude": -0.1075039,
    "status": "open",
    "openingHours": "Mon-Thu: 06:00-18:00, Fri: 06:00-17:30, Sat: 08:00-16:00, Sun: Closed",
    "phone": "+44 20 7713 8885",
    "brand": "pret"
  },
  {
    "id": "10521",
    "name": "Pret A Manger",
    "address": "8B Leather Lane",
    "city": "London",
    "postcode": "EC1N 7RA",
    "latitude": 51.51858703,
    "longitude": -0.10883632,
    "status": "open",
    "openingHours": "Mon-Thu: 06:00-18:00, Fri: 06:00-17:00, Sat-Sun: Closed",
    "phone": "+44 20 7242 5622",
    "brand": "pret"
  },
  {
    "id": "10553",
    "name": "Pret A Manger",
    "address": "32 Victoria Street",
    "city": "Bristol",
    "postcode": "BS1 6BX",
    "latitude": 51.45280417,
    "longitude": -2.58834124,
    "status": "open",
    "openingHours": "Mon: 06:00-16:30, Tue-Thu: 06:00-18:00, Fri: 06:00-16:30, Sat-Sun: Closed",
    "phone": "+44 117 316 9238",
    "brand": "pret"
  },
  {
    "id": "10523",
    "name": "Pret A Manger",
    "address": "Stocker Road",
    "city": "Exeter",
    "postcode": "EX4 4SZ",
    "latitude": 50.7351473065558,
    "longitude": -3.53440574159748,
    "status": "open",
    "openingHours": "Mon-Fri: 07:30-20:00, Sat: 08:30-19:00, Sun: 09:00-17:00",
    "phone": "+44 1392 271691",
    "brand": "pret"
  },
  {
    "id": "10568",
    "name": "Pret A Manger",
    "address": "Unit 3 Gower Building Burgess Road, Unit 3 Gower Building",
    "city": "Southampton",
    "postcode": "SO17 1TW",
    "latitude": 50.9377295,
    "longitude": -1.3974389,
    "status": "open",
    "openingHours": "Mon-Thu: 06:30-17:00, Fri: 06:30-17:30, Sat-Sun: 04:00-04:01",
    "phone": "+44 20 3937 7832",
    "brand": "pret"
  },
  {
    "id": "95",
    "name": "Pret A Manger",
    "address": "11-13 Holborn Viaduct, Fleetplate House",
    "city": "London",
    "postcode": "EC1A 2AT",
    "latitude": 51.51661319,
    "longitude": -0.1036033,
    "status": "open",
    "openingHours": "Mon-Thu: 05:30-19:00, Fri: 05:30-18:00, Sat-Sun: Closed",
    "phone": "+44 20 3201 0046",
    "brand": "pret"
  },
  {
    "id": "66",
    "name": "Pret A Manger",
    "address": "Saint Nicholas Avenue, McArthur Glen Designer Outlet, Unit F8",
    "city": "York",
    "postcode": "YO19 4TA",
    "latitude": 53.9222232,
    "longitude": -1.077677,
    "status": "open",
    "openingHours": "Mon-Sat: 09:00-20:00, Sun: 09:00-18:00",
    "phone": "+44 1904 639899",
    "brand": "pret"
  },
  {
    "id": "10538",
    "name": "Pret A Manger",
    "address": "Saint Lawrence Street, Unit S015",
    "city": "Bath",
    "postcode": "BA1 1AP",
    "latitude": 51.37855681,
    "longitude": -2.35838849,
    "status": "open",
    "openingHours": "Mon-Thu: 07:00-18:00, Fri: 07:00-18:30, Sat: 07:30-19:00, Sun: 08:30-17:00",
    "phone": "+44 1225 319092",
    "brand": "pret"
  },
  {
    "id": "10670",
    "name": "Pret A Manger",
    "address": "80-82 Saint John's Road",
    "city": "London",
    "postcode": "SW11 1PX",
    "latitude": 51.4613402,
    "longitude": -0.1674908,
    "status": "open",
    "openingHours": "Mon-Fri: 06:30-16:30, Sat: 07:30-17:00, Sun: 07:30-16:30",
    "phone": "+44 20 7228 5413",
    "brand": "pret"
  },
  {
    "id": "10539",
    "name": "Pret A Manger",
    "address": "23 Bignells Corner, M25 Junction, Potters Bar",
    "city": "Potters Bar",
    "postcode": "EN6 3QQ",
    "latitude": 51.6874815183803,
    "longitude": -0.221872018104517,
    "status": "open",
    "openingHours": "Mon-Sun: 07:00-17:00",
    "phone": "+44 1707 659443",
    "brand": "pret"
  },
  {
    "id": "293",
    "name": "Pret A Manger",
    "address": "30 Gresham Street, Unit 3",
    "city": "London",
    "postcode": "EC2V 7PG",
    "latitude": 51.51416,
    "longitude": -0.0931504,
    "status": "open",
    "openingHours": "Mon-Thu: 06:00-18:00, Fri: 06:00-16:00, Sat-Sun: Closed",
    "phone": "+44 20 7932 5209",
    "brand": "pret"
  },
  {
    "id": "10682",
    "name": "Pret A Manger",
    "address": "9 Argyll Street",
    "city": "London",
    "postcode": "W1F 7TG",
    "latitude": 51.5147514,
    "longitude": -0.1405998,
    "status": "open",
    "openingHours": "Mon-Sat: 06:00-22:00, Sun: 07:00-21:00",
    "phone": "+44 20 3937 7831",
    "brand": "pret"
  },
  {
    "id": "10536",
    "name": "Pret A Manger",
    "address": "High Road, Wood Green, Unit 23, The Mall",
    "city": "London",
    "postcode": "N22 6YA",
    "latitude": 51.5944812912075,
    "longitude": -0.108530129673587,
    "status": "open",
    "openingHours": "Mon-Sat: 06:30-19:30, Sun: 07:30-18:30",
    "phone": "+44 20 8889 1347",
    "brand": "pret"
  },
  {
    "id": "10643",
    "name": "Pret A Manger",
    "address": "Cray Avenue, Central Hub, Nugent Shopping Park",
    "city": "Orpington",
    "postcode": "BR5 3RP",
    "latitude": 51.39298068,
    "longitude": 0.11250255,
    "status": "open",
    "openingHours": "Mon-Fri: 06:30-17:00, Sat: 07:30-17:00, Sun: 08:00-16:30",
    "phone": "+44 1689 820172",
    "brand": "pret"
  },
  {
    "id": "10277",
    "name": "Pret A Manger",
    "address": "Cromer Road West, Unit Ru3059, Heathrow Terminal 3",
    "city": "Hounslow",
    "postcode": "TW6 1QG",
    "latitude": 51.47157037,
    "longitude": -0.45796032,
    "status": "open",
    "openingHours": "Mon-Sun: 04:30-22:00",
    "phone": "+44 20 8759 8971",
    "brand": "pret"
  },
  {
    "id": "10644",
    "name": "Pret A Manger",
    "address": "1 Church Street, 23 Market Place",
    "city": "Kingston upon Thames",
    "postcode": "KT1 1JP",
    "latitude": 51.41008166,
    "longitude": -0.3058201,
    "status": "open",
    "openingHours": "Mon-Fri: 07:00-17:00, Sat: 07:30-18:00, Sun: 08:00-17:00",
    "phone": "+44 20 8549 9125",
    "brand": "pret"
  },
  {
    "id": "10286",
    "name": "Pret A Manger",
    "address": "54-60 York Way",
    "city": "London",
    "postcode": "N1 9AB",
    "latitude": 51.5333608,
    "longitude": -0.12221597,
    "status": "open",
    "openingHours": "Mon-Thu: 05:30-18:00, Fri: 05:30-16:30, Sat-Sun: 06:30-16:30",
    "phone": "+44 20 7932 5452",
    "brand": "pret"
  },
  {
    "id": "10683",
    "name": "Pret A Manger",
    "address": "42 Selborne Road, Walthamstow, Unit 59-60 The Mall",
    "city": "London",
    "postcode": "E17 7JR",
    "latitude": 51.583618,
    "longitude": -0.0223932,
    "status": "open",
    "openingHours": "Mon-Fri: 07:00-18:00, Sat: 07:00-18:30, Sun: 07:30-18:00",
    "phone": "+44 20 8520 3630",
    "brand": "pret"
  },
  {
    "id": "10701",
    "name": "Pret A Manger",
    "address": "Blackfriars Bridge, Blackfriars Bridge",
    "city": "London",
    "postcode": "EC4V 4DD",
    "latitude": 51.51023921,
    "longitude": -0.10327176,
    "status": "open",
    "openingHours": "Mon-Thu: 06:00-23:30, Fri: 06:00-22:30, Sat: 07:30-17:30, Sun: 07:30-18:00",
    "phone": "+44 20 7236 4660",
    "brand": "pret"
  },
  {
    "id": "10639",
    "name": "Pret A Manger",
    "address": "417 Brixton Road",
    "city": "London",
    "postcode": "SW9 8HE",
    "latitude": 51.4630531,
    "longitude": -0.1145677,
    "status": "open",
    "openingHours": "Mon-Fri: 05:30-19:30, Sat: 06:00-19:30, Sun: 06:30-19:00",
    "phone": "+44 20 7737 3809",
    "brand": "pret"
  },
  {
    "id": "10466",
    "name": "Pret A Manger",
    "address": "125 Old Broad Street",
    "city": "London",
    "postcode": "EC2N 1DW",
    "latitude": 51.5148276,
    "longitude": -0.0861277,
    "status": "open",
    "openingHours": "Mon-Thu: 05:30-19:00, Fri: 05:30-17:00, Sat-Sun: Closed",
    "phone": "+44 20 7374 4550",
    "brand": "pret"
  },
  {
    "id": "285",
    "name": "Pret A Manger",
    "address": "Moor Street, Upper Mall East",
    "city": "Birmingham",
    "postcode": "B5 4BP",
    "latitude": 52.4780701,
    "longitude": -1.8928407,
    "status": "open",
    "openingHours": "Mon-Fri: 09:30-20:00, Sat: 09:00-21:00, Sun: 10:00-17:30",
    "phone": "+44 121 600 6957",
    "brand": "pret"
  },
  {
    "id": "10297",
    "name": "Pret A Manger",
    "address": "Swindon Road, Terminal 4, Heathrow Airport, International Departure Lounge",
    "city": "Heathrow",
    "postcode": "TW6 3XA",
    "latitude": 51.4597978,
    "longitude": -0.4462066,
    "status": "open",
    "openingHours": "Mon-Sun: 05:00-22:00",
    "phone": "+44 7876 881673",
    "brand": "pret"
  },
  {
    "id": "6",
    "name": "Pret A Manger",
    "address": "21 Crown Passage",
    "city": "London",
    "postcode": "SW1Y 6PP",
    "latitude": 51.5057851,
    "longitude": -0.13803,
    "status": "open",
    "openingHours": "Mon-Thu: 06:00-17:00, Fri: 06:00-16:30, Sat-Sun: Closed",
    "phone": "+44 20 7839 1883",
    "brand": "pret"
  },
  {
    "id": "89",
    "name": "Pret A Manger",
    "address": "15 Theobalds Road",
    "city": "London",
    "postcode": "WC1X 8SL",
    "latitude": 51.52039,
    "longitude": -0.1170943,
    "status": "open",
    "openingHours": "Mon: 06:30-16:30, Tue-Thu: 06:30-17:00, Fri: 06:30-16:00, Sat-Sun: Closed",
    "phone": "+44 20 7932 5304",
    "brand": "pret"
  },
  {
    "id": "10778",
    "name": "Pret A Manger",
    "address": "Kingsland High Street, Western Curve, Dalston",
    "city": "London",
    "postcode": "E8 2JS",
    "latitude": 51.5472836,
    "longitude": -0.07575948,
    "status": "open",
    "openingHours": "Mon-Fri: 06:30-19:00, Sat: 07:00-19:00, Sun: 07:00-18:30",
    "phone": "+44 20 7254 4701",
    "brand": "pret"
  },
  {
    "id": "10638",
    "name": "Pret A Manger",
    "address": "135 Princes Street",
    "city": "Edinburgh",
    "postcode": "EH2 4BL",
    "latitude": 55.95057925,
    "longitude": -3.20627863,
    "status": "open",
    "openingHours": "Mon-Fri: 06:30-17:30, Sat-Sun: 07:30-16:30",
    "phone": "+44 131 225 6761",
    "brand": "pret"
  },
  {
    "id": "10750",
    "name": "Pret A Manger",
    "address": "2A Southwark Bridge Road, Unit 3,Bankside",
    "city": "London",
    "postcode": "SE1 9HA",
    "latitude": 51.5080668,
    "longitude": -0.0950272,
    "status": "open",
    "openingHours": "Mon-Fri: 06:30-20:00, Sat-Sun: 08:00-20:00",
    "phone": "+44 20 3268 2185",
    "brand": "pret"
  },
  {
    "id": "85",
    "name": "Pret A Manger",
    "address": "Orchard Street, Unit 3, Portman Square House",
    "city": "London",
    "postcode": "W1H 6HJ",
    "latitude": 51.51505727,
    "longitude": -0.15461801,
    "status": "open",
    "openingHours": "Mon-Sun: Closed",
    "phone": "+44 20 7932 5300",
    "brand": "pret"
  },
  {
    "id": "10768",
    "name": "Pret A Manger",
    "address": "70 Chiswell Street",
    "city": "London",
    "postcode": "EC1Y 4AB",
    "latitude": 51.5205175,
    "longitude": -0.0894169,
    "status": "open",
    "openingHours": "Mon: 06:00-17:30, Tue-Thu: 06:00-19:00, Fri: 06:00-17:00, Sat-Sun: Closed",
    "phone": "+44 20 7256 9686",
    "brand": "pret"
  },
  {
    "id": "10461",
    "name": "Pret A Manger",
    "address": "1 Three Quays Walk, Lower Thames Street",
    "city": "London",
    "postcode": "EC3R 6AH",
    "latitude": 51.5081307,
    "longitude": -0.0792881,
    "status": "open",
    "openingHours": "Mon-Fri: 06:00-20:30, Sat-Sun: 06:30-20:30",
    "phone": "+44 20 7929 7408",
    "brand": "pret"
  },
  {
    "id": "74",
    "name": "Pret A Manger",
    "address": "25 Saint Mary Axe",
    "city": "London",
    "postcode": "EC3A 8AA",
    "latitude": 51.5147144,
    "longitude": -0.0810238,
    "status": "open",
    "openingHours": "Mon-Thu: 05:30-19:30, Fri: 05:30-18:00, Sat: 08:00-16:00, Sun: Closed",
    "phone": "+44 20 7929 4188",
    "brand": "pret"
  },
  {
    "id": "10580",
    "name": "Pret A Manger",
    "address": "Old Brompton Road, South Kensington Tube",
    "city": "London",
    "postcode": "SW7 2NB",
    "latitude": 51.49349409,
    "longitude": -0.17424993,
    "status": "open",
    "openingHours": "Mon-Fri: 06:00-19:30, Sat: 09:00-17:00, Sun: 09:00-16:00",
    "phone": "+44 20 7591 0437",
    "brand": "pret"
  },
  {
    "id": "10600",
    "name": "Pret A Manger",
    "address": "Princes Street, Unit 2b, Edinburgh Waverley Station",
    "city": "Edinburgh",
    "postcode": "EH1 1BB",
    "latitude": 55.951998,
    "longitude": -3.1899862,
    "status": "open",
    "openingHours": "Mon-Fri: 05:30-21:00, Sat: 07:00-18:00, Sun: 08:00-18:00",
    "phone": "+44 131 261 5818",
    "brand": "pret"
  },
  {
    "id": "10181",
    "name": "Pret A Manger",
    "address": "24 Wigmore Street",
    "city": "London",
    "postcode": "W1U 2RJ",
    "latitude": 51.5167416,
    "longitude": -0.147475,
    "status": "open",
    "openingHours": "Mon-Thu: 06:00-20:00, Fri: 06:00-19:00, Sat: 07:00-18:00, Sun: Closed",
    "phone": "+44 20 7932 5291",
    "brand": "pret"
  },
  {
    "id": "10333",
    "name": "Pret A Manger",
    "address": "81 Piccadilly",
    "city": "London",
    "postcode": "W1J 8HY",
    "latitude": 51.5066547,
    "longitude": -0.1435076,
    "status": "open",
    "openingHours": "Mon-Sat: 05:30-23:00, Sun: 05:30-22:30",
    "phone": "+44 20 7495 6264",
    "brand": "pret"
  },
  {
    "id": "10505",
    "name": "Pret A Manger",
    "address": "New Station Street",
    "city": "Leeds",
    "postcode": "LS1 5DL",
    "latitude": 53.795404,
    "longitude": -1.547506,
    "status": "open",
    "openingHours": "Mon-Fri: 05:00-21:00, Sat: 06:30-20:30, Sun: 07:30-19:30",
    "phone": "+44 113 244 2612",
    "brand": "pret"
  },
  {
    "id": "10342",
    "name": "Pret A Manger",
    "address": "144-146 Queen Street",
    "city": "Glasgow",
    "postcode": "G1 3BS",
    "latitude": 55.8607073,
    "longitude": -4.2513791,
    "status": "open",
    "openingHours": "Mon: 06:30-16:00, Tue-Thu: 06:30-16:30, Fri: 06:30-16:00, Sat-Sun: Closed",
    "phone": "+44 141 221 7602",
    "brand": "pret"
  },
  {
    "id": "10189",
    "name": "Pret A Manger",
    "address": "A4044, Cabot Circus, Unit Su50G",
    "city": "Bristol",
    "postcode": "BS1 3BD",
    "latitude": 51.458887,
    "longitude": -2.584915,
    "status": "open",
    "openingHours": "Mon-Fri: 07:00-18:30, Sat: 07:30-18:30, Sun: 08:30-18:00",
    "phone": "+44 117 929 9201",
    "brand": "pret"
  },
  {
    "id": "10166",
    "name": "Pret A Manger",
    "address": "47 Great Peter Street",
    "city": "London",
    "postcode": "SW1P 3LT",
    "latitude": 51.4968357,
    "longitude": -0.1291979,
    "status": "open",
    "openingHours": "Mon-Fri: 06:00-19:00, Sat: 07:30-17:00, Sun: 07:30-16:00",
    "phone": "+44 20 7932 5401",
    "brand": "pret"
  },
  {
    "id": "50",
    "name": "Pret A Manger",
    "address": "1 Great Tower Street",
    "city": "London",
    "postcode": "EC3R 5AA",
    "latitude": 51.510212,
    "longitude": -0.0825844,
    "status": "open",
    "openingHours": "Mon-Thu: 06:00-18:30, Fri: 06:00-17:30, Sat-Sun: Closed",
    "phone": "+44 20 7932 5265",
    "brand": "pret"
  },
  {
    "id": "10222",
    "name": "Pret A Manger",
    "address": "Retail Unit 2 Regent Street, Retail Unit 2",
    "city": "London",
    "postcode": "SW1Y 4PE",
    "latitude": 51.5082595,
    "longitude": -0.132851,
    "status": "open",
    "openingHours": "Mon-Fri: 05:30-20:00, Sat: 06:00-19:30, Sun: 06:30-18:00",
    "phone": "+44 20 7932 5309",
    "brand": "pret"
  },
  {
    "id": "10180",
    "name": "Pret A Manger",
    "address": "4 Paradise Street, Unit 56a",
    "city": "Liverpool",
    "postcode": "L1 8BQ",
    "latitude": 53.4035574,
    "longitude": -2.986558,
    "status": "open",
    "openingHours": "Mon-Fri: 08:00-20:00, Sat: 08:00-19:30, Sun: 08:30-18:00",
    "phone": "+44 151 709 7850",
    "brand": "pret"
  },
  {
    "id": "10665",
    "name": "Pret A Manger",
    "address": "Euston Road, St Pancras International Station, Unit 61",
    "city": "London",
    "postcode": "N1C 4QL",
    "latitude": 51.531427,
    "longitude": -0.126133,
    "status": "open",
    "openingHours": "Mon-Sat: 05:30-23:00, Sun: 07:30-22:30",
    "phone": "+44 20 7278 6134",
    "brand": "pret"
  },
  {
    "id": "10469",
    "name": "Pret A Manger",
    "address": "Woburn Walk, Unit 2, Lynton House",
    "city": "London",
    "postcode": "WC1H 9LT",
    "latitude": 51.525418,
    "longitude": -0.128429,
    "status": "open",
    "openingHours": "Mon-Fri: 06:30-18:00, Sat-Sun: 08:00-16:30",
    "phone": "+44 20 7387 2186",
    "brand": "pret"
  },
  {
    "id": "10186",
    "name": "Pret A Manger",
    "address": "51 Borough High Street",
    "city": "London",
    "postcode": "SE1 1NB",
    "latitude": 51.5047554,
    "longitude": -0.0897945,
    "status": "open",
    "openingHours": "Mon-Fri: 06:30-19:00, Sat: 07:30-17:30, Sun: Closed",
    "phone": "+44 20 7932 5392",
    "brand": "pret"
  },
  {
    "id": "57",
    "name": "Pret A Manger",
    "address": "192 Bishopsgate",
    "city": "London",
    "postcode": "EC2M 4NR",
    "latitude": 51.5179108,
    "longitude": -0.0797849,
    "status": "open",
    "openingHours": "Mon-Fri: 05:00-22:30, Sat-Sun: 05:30-20:30",
    "phone": "+44 20 7932 5272",
    "brand": "pret"
  },
  {
    "id": "10570",
    "name": "Pret A Manger",
    "address": "1 Old Hall Street",
    "city": "Liverpool",
    "postcode": "L3 9SX",
    "latitude": 53.4081801,
    "longitude": -2.9930611,
    "status": "open",
    "openingHours": "Mon-Fri: 07:00-15:30, Sat-Sun: Closed",
    "phone": "+44 151 236 9933",
    "brand": "pret"
  },
  {
    "id": "10540",
    "name": "Pret A Manger",
    "address": "10 Bressenden Place",
    "city": "London",
    "postcode": "SW1E 5DU",
    "latitude": 51.49808713,
    "longitude": -0.14270927,
    "status": "open",
    "openingHours": "Mon-Thu: 06:00-19:00, Fri: 06:00-18:30, Sat-Sun: 08:00-17:00",
    "phone": "+44 7867 349080",
    "brand": "pret"
  },
  {
    "id": "10187",
    "name": "Pret A Manger",
    "address": "129A Wilton Road",
    "city": "London",
    "postcode": "SW1V 1JZ",
    "latitude": 51.4943291,
    "longitude": -0.1424848,
    "status": "open",
    "openingHours": "Mon: 05:30-20:00, Tue-Fri: 05:30-20:30, Sat: 06:00-20:30, Sun: 06:00-20:00",
    "phone": "+44 20 7630 0146",
    "brand": "pret"
  },
  {
    "id": "10185",
    "name": "Pret A Manger",
    "address": "57 Great Eastern Street",
    "city": "London",
    "postcode": "EC2A 3QD",
    "latitude": 51.524587,
    "longitude": -0.08116903,
    "status": "open",
    "openingHours": "Mon: 07:00-17:00, Tue-Thu: 07:00-18:30, Fri: 07:00-17:00, Sat: 08:00-16:30, Sun: 08:30-16:00",
    "phone": "+44 20 7932 5393",
    "brand": "pret"
  },
  {
    "id": "10668",
    "name": "Pret A Manger",
    "address": "1 Newhall Street",
    "city": "Birmingham",
    "postcode": "B3 3NH",
    "latitude": 52.4811861695447,
    "longitude": -1.90112024058191,
    "status": "open",
    "openingHours": "Mon: 06:30-16:00, Tue-Thu: 06:30-16:30, Fri: 06:30-16:00, Sat-Sun: Closed",
    "phone": "+44 121 233 0976",
    "brand": "pret"
  },
  {
    "id": "58",
    "name": "Pret A Manger",
    "address": "85 Aldgate High Street",
    "city": "London",
    "postcode": "EC3N 1LH",
    "latitude": 51.51363,
    "longitude": -0.07623,
    "status": "open",
    "openingHours": "Mon-Thu: 05:30-21:00, Fri: 05:30-20:30, Sat: 05:30-18:30, Sun: 06:00-18:00",
    "phone": "+44 20 7932 5273",
    "brand": "pret"
  },
  {
    "id": "10743",
    "name": "Pret A Manger",
    "address": "78 Hatton Garden",
    "city": "London",
    "postcode": "EC1N 8JS",
    "latitude": 51.5200923,
    "longitude": -0.1088443,
    "status": "open",
    "openingHours": "Mon-Fri: 06:00-17:30, Sat-Sun: Closed",
    "phone": "+44 20 7242 3062",
    "brand": "pret"
  },
  {
    "id": "10753",
    "name": "Pret A Manger",
    "address": "350 Euston Road, Regent's Place",
    "city": "London",
    "postcode": "NW1 3AX",
    "latitude": 51.52431229,
    "longitude": -0.1423136,
    "status": "open",
    "openingHours": "Mon: 07:00-15:00, Tue-Thu: 07:00-16:00, Fri: 07:00-15:00, Sat-Sun: Closed",
    "phone": "+44 20 7387 1284",
    "brand": "pret"
  },
  {
    "id": "63",
    "name": "Pret A Manger",
    "address": "27 Cross Street",
    "city": "Manchester",
    "postcode": "M2 1WL",
    "latitude": 53.48188255,
    "longitude": -2.24428964,
    "status": "open",
    "openingHours": "Mon: 06:30-18:30, Tue-Thu: 06:30-19:00, Fri: 06:30-18:30, Sat: 08:00-19:00, Sun: 09:00-17:00",
    "phone": "+44 161 839 5602",
    "brand": "pret"
  },
  {
    "id": "10235",
    "name": "Pret A Manger",
    "address": "61-65 Conduit Street",
    "city": "London",
    "postcode": "W1S 2GB",
    "latitude": 51.5127923,
    "longitude": -0.1409564,
    "status": "open",
    "openingHours": "Mon-Fri: 06:30-19:30, Sat: 08:00-18:00, Sun: 08:30-18:00",
    "phone": "+44 20 7434 4324",
    "brand": "pret"
  },
  {
    "id": "10451",
    "name": "Pret A Manger",
    "address": "30 North Bridge",
    "city": "Edinburgh",
    "postcode": "EH1 1QG",
    "latitude": 55.9508669,
    "longitude": -3.1881406,
    "status": "open",
    "openingHours": "Mon-Fri: 07:00-16:30, Sat: 08:30-16:00, Sun: 09:30-16:00",
    "phone": "+44 131 226 2861",
    "brand": "pret"
  },
  {
    "id": "10238",
    "name": "Pret A Manger",
    "address": "4 Wimbledon Hill Road, Wimbledon",
    "city": "London",
    "postcode": "SW19 7NS",
    "latitude": 51.4209551,
    "longitude": -0.2073728,
    "status": "open",
    "openingHours": "Mon-Fri: 05:30-20:00, Sat: 06:30-19:30, Sun: 07:00-19:00",
    "phone": "+44 20 8946 7918",
    "brand": "pret"
  },
  {
    "id": "3",
    "name": "Pret A Manger",
    "address": "319 High Holborn",
    "city": "London",
    "postcode": "WC1V 7PU",
    "latitude": 51.5181837,
    "longitude": -0.1127135,
    "status": "open",
    "openingHours": "Mon-Thu: 06:00-18:00, Fri: 06:00-17:30, Sat-Sun: Closed",
    "phone": "+44 20 7932 5202",
    "brand": "pret"
  },
  {
    "id": "10606",
    "name": "Pret A Manger",
    "address": "119 Hammersmith Road, Unit 5, Kennedy House",
    "city": "London",
    "postcode": "W14 0QH",
    "latitude": 51.49446758,
    "longitude": -0.21250883,
    "status": "open",
    "openingHours": "Mon-Fri: 06:30-18:00, Sat-Sun: Closed",
    "phone": "+44 20 7602 8772",
    "brand": "pret"
  },
  {
    "id": "10273",
    "name": "Pret A Manger",
    "address": "211-213 Baker Street",
    "city": "London",
    "postcode": "NW1 6UY",
    "latitude": 51.5228759,
    "longitude": -0.1580332,
    "status": "open",
    "openingHours": "Mon-Fri: 06:00-20:30, Sat-Sun: 06:30-20:00",
    "phone": "+44 20 7487 2712",
    "brand": "pret"
  },
  {
    "id": "10511",
    "name": "Pret A Manger",
    "address": "2 Garratt Lane, Southside Shopping Centre Unit 86, Wandsworth",
    "city": "London",
    "postcode": "SW18 4TF",
    "latitude": 51.4565325,
    "longitude": -0.1931406,
    "status": "open",
    "openingHours": "Mon-Fri: 06:00-17:30, Sat: 07:00-18:30, Sun: 07:30-18:30",
    "phone": "+44 20 8874 8039",
    "brand": "pret"
  },
  {
    "id": "10741",
    "name": "Pret A Manger",
    "address": "143-171 Moorgate",
    "city": "London",
    "postcode": "EC2M 6XB",
    "latitude": 51.5187839,
    "longitude": -0.0882404,
    "status": "open",
    "openingHours": "Mon-Fri: 05:30-21:00, Sat: 06:00-19:00, Sun: 06:00-18:00",
    "phone": "+44 20 7256 7868",
    "brand": "pret"
  },
  {
    "id": "65",
    "name": "Pret A Manger",
    "address": "381 Oxford Street, Unit G15, West One Shopping Centre",
    "city": "London",
    "postcode": "W1C 2JS",
    "latitude": 51.5137898,
    "longitude": -0.1495888,
    "status": "open",
    "openingHours": "Mon-Fri: 06:30-22:00, Sat: 08:00-22:00, Sun: 10:00-21:00",
    "phone": "+44 20 7932 5280",
    "brand": "pret"
  },
  {
    "id": "10237",
    "name": "Pret A Manger",
    "address": "201 Bishopsgate, Units 1 and 2",
    "city": "London",
    "postcode": "EC2M 3AB",
    "latitude": 51.52075169,
    "longitude": -0.07928689,
    "status": "open",
    "openingHours": "Mon-Thu: 05:30-18:30, Fri: 05:30-17:00, Sat-Sun: Closed",
    "phone": "+44 20 7932 5427",
    "brand": "pret"
  },
  {
    "id": "10696",
    "name": "Pret A Manger",
    "address": "257-258 Upper Street",
    "city": "London",
    "postcode": "N1 1RU",
    "latitude": 51.54586384,
    "longitude": -0.10345024,
    "status": "open",
    "openingHours": "Mon-Fri: 05:30-20:00, Sat-Sun: 06:00-20:00",
    "phone": "+44 20 7288 2766",
    "brand": "pret"
  },
  {
    "id": "10623",
    "name": "Pret A Manger",
    "address": "Endeavour Square, Stratford International Quarter",
    "city": "London",
    "postcode": "E20 1GL",
    "latitude": 51.5413728,
    "longitude": -0.0093168,
    "status": "open",
    "openingHours": "Mon-Fri: 06:00-18:30, Sat-Sun: 07:00-18:30",
    "phone": "+44 20 8534 6310",
    "brand": "pret"
  },
  {
    "id": "10274",
    "name": "Pret A Manger",
    "address": "133 Houndsditch",
    "city": "London",
    "postcode": "EC3A 7BX",
    "latitude": 51.5152008,
    "longitude": -0.078125,
    "status": "open",
    "openingHours": "Mon-Fri: 06:00-17:30, Sat-Sun: Closed",
    "phone": "+44 20 7283 8494",
    "brand": "pret"
  },
  {
    "id": "10108",
    "name": "Pret A Manger",
    "address": "A219, Unit 30, Broadway Shopping Centre",
    "city": "London",
    "postcode": "W6 9YE",
    "latitude": 51.49239676,
    "longitude": -0.22337689,
    "status": "open",
    "openingHours": "Mon-Thu: 06:00-20:30, Fri: 06:00-20:00, Sat: 06:00-20:30, Sun: 06:30-20:30",
    "phone": "+44 20 8741 0864",
    "brand": "pret"
  },
  {
    "id": "78",
    "name": "Pret A Manger",
    "address": "29-30 Queens Road",
    "city": "Bristol",
    "postcode": "BS8 1QE",
    "latitude": 51.4558703,
    "longitude": -2.605728,
    "status": "open",
    "openingHours": "Mon-Fri: 07:00-17:00, Sat: 08:00-17:00, Sun: 09:00-16:00",
    "phone": "+44 117 929 3885",
    "brand": "pret"
  },
  {
    "id": "70",
    "name": "Pret A Manger",
    "address": "Eastern Mall, Unit L0006",
    "city": "Greenhithe",
    "postcode": "DA9 9SH",
    "latitude": 51.439677,
    "longitude": 0.272056,
    "status": "open",
    "openingHours": "Mon-Sat: 08:00-21:00, Sun: 08:30-17:30",
    "phone": "+44 1322 624988",
    "brand": "pret"
  },
  {
    "id": "10426",
    "name": "Pret A Manger",
    "address": "90 Queen Street",
    "city": "London",
    "postcode": "EC4N 1SA",
    "latitude": 51.5134092007999,
    "longitude": -0.091684502137973,
    "status": "open",
    "openingHours": "Mon: 06:00-17:30, Tue-Thu: 06:00-18:30, Fri: 06:00-17:30, Sat-Sun: Closed",
    "phone": "+44 20 7332 0238",
    "brand": "pret"
  },
  {
    "id": "10296",
    "name": "Pret A Manger",
    "address": "110 Fetter Lane",
    "city": "London",
    "postcode": "EC4A 1ES",
    "latitude": 51.515906,
    "longitude": -0.109562,
    "status": "open",
    "openingHours": "Mon-Thu: 06:00-19:30, Fri: 06:00-18:30, Sat-Sun: Closed",
    "phone": "+44 20 7932 5453",
    "brand": "pret"
  },
  {
    "id": "10757",
    "name": "Pret A Manger",
    "address": "Brindley Place, Unit 5",
    "city": "Birmingham",
    "postcode": "B1 2JB",
    "latitude": 52.47827292,
    "longitude": -1.91330591,
    "status": "open",
    "openingHours": "Mon: 07:00-16:00, Tue-Thu: 06:30-16:30, Fri: 07:00-16:00, Sat-Sun: Closed",
    "phone": "+44 121 643 1904",
    "brand": "pret"
  },
  {
    "id": "80",
    "name": "Pret A Manger",
    "address": "58-60 Stamford Street",
    "city": "London",
    "postcode": "SE1 9LX",
    "latitude": 51.5071699,
    "longitude": -0.1078545,
    "status": "open",
    "openingHours": "Mon-Thu: 06:00-17:30, Fri: 06:00-16:30, Sat-Sun: Closed",
    "phone": "+44 20 7932 5295",
    "brand": "pret"
  },
  {
    "id": "10660",
    "name": "Pret A Manger",
    "address": "140 Ladbroke Grove",
    "city": "London",
    "postcode": "W10 5NE",
    "latitude": 51.51784776,
    "longitude": -0.21003508,
    "status": "open",
    "openingHours": "Mon-Fri: 06:00-18:00, Sat: 07:00-18:00, Sun: 08:00-17:30",
    "phone": "+44 20 8960 4281",
    "brand": "pret"
  },
  {
    "id": "10752",
    "name": "Pret A Manger",
    "address": "106-108 Brompton Road",
    "city": "London",
    "postcode": "SW3 1JJ",
    "latitude": 51.49934742,
    "longitude": -0.16468526,
    "status": "open",
    "openingHours": "Mon-Fri: 05:30-20:00, Sat: 06:30-19:00, Sun: 07:00-19:00",
    "phone": "+44 20 7589 5306",
    "brand": "pret"
  },
  {
    "id": "81",
    "name": "Pret A Manger",
    "address": "27-28 Great Marlborough Street",
    "city": "London",
    "postcode": "W1F 7HY",
    "latitude": 51.5137561,
    "longitude": -0.1396972,
    "status": "open",
    "openingHours": "Mon-Fri: 06:00-22:00, Sat: 06:30-22:00, Sun: 06:30-20:30",
    "phone": "+44 20 7932 5296",
    "brand": "pret"
  },
  {
    "id": "10295",
    "name": "Pret A Manger",
    "address": "4 Sheldon Square, Unit 8 Terrace Level",
    "city": "London",
    "postcode": "W2 6EZ",
    "latitude": 51.5192202,
    "longitude": -0.18009402,
    "status": "open",
    "openingHours": "Mon: 06:30-16:30, Tue-Thu: 06:30-17:30, Fri: 06:30-16:30, Sat-Sun: Closed",
    "phone": "+44 20 7932 5451",
    "brand": "pret"
  },
  {
    "id": "10711",
    "name": "Pret A Manger",
    "address": "Paddington Station, Platform 12",
    "city": "London",
    "postcode": "W2 1DA",
    "latitude": 51.5166744,
    "longitude": -0.1769328,
    "status": "open",
    "openingHours": "Mon-Fri: 05:00-22:30, Sat: 05:00-21:30, Sun: 05:30-21:30",
    "phone": "+44 20 7402 2132",
    "brand": "pret"
  },
  {
    "id": "10712",
    "name": "Pret A Manger",
    "address": "Melcombe Place, Unit 5, Marylebone Railway Station",
    "city": "London",
    "postcode": "NW1 6JJ",
    "latitude": 51.52253148,
    "longitude": -0.16336733,
    "status": "open",
    "openingHours": "Mon-Fri: 05:30-21:00, Sat: 06:30-20:00, Sun: 07:00-19:30",
    "phone": "+44 20 7724 7226",
    "brand": "pret"
  },
  {
    "id": "10284",
    "name": "Pret A Manger",
    "address": "Gee's Court, Unit 3 and 4",
    "city": "London",
    "postcode": "W1U 1JF",
    "latitude": 51.5150324,
    "longitude": -0.1500155,
    "status": "open",
    "openingHours": "Mon-Fri: 06:30-19:00, Sat-Sun: 07:00-19:00",
    "phone": "+44 20 7932 5441",
    "brand": "pret"
  },
  {
    "id": "10581",
    "name": "Pret A Manger",
    "address": "Marsh Wall, Retail Unit, SQP3, South Quay",
    "city": "London",
    "postcode": "E14 9SH",
    "latitude": 51.5011677,
    "longitude": -0.0172657,
    "status": "open",
    "openingHours": "Mon: 06:00-16:00, Tue-Thu: 06:00-16:30, Fri: 06:00-16:00, Sat-Sun: Closed",
    "phone": "+44 20 7531 1648",
    "brand": "pret"
  },
  {
    "id": "10212",
    "name": "Pret A Manger",
    "address": "125 High Holborn",
    "city": "London",
    "postcode": "WC1V 6AN",
    "latitude": 51.5176865,
    "longitude": -0.121175,
    "status": "open",
    "openingHours": "Mon-Fri: 06:00-19:00, Sat: 07:30-18:00, Sun: 08:00-16:30",
    "phone": "+44 20 3674 8960",
    "brand": "pret"
  },
  {
    "id": "177",
    "name": "Pret A Manger",
    "address": "3 America Square",
    "city": "London",
    "postcode": "EC3N 2LR",
    "latitude": 51.51148784,
    "longitude": -0.07564366,
    "status": "open",
    "openingHours": "Mon-Thu: 06:00-17:00, Fri: 06:00-16:30, Sat: 07:00-16:00, Sun: Closed",
    "phone": "+44 20 7932 5342",
    "brand": "pret"
  },
  {
    "id": "10604",
    "name": "Pret A Manger",
    "address": "164 Buckingham Palace Road, Victoria Coach Station",
    "city": "London",
    "postcode": "SW1W 9TP",
    "latitude": 51.49246256,
    "longitude": -0.14848442,
    "status": "open",
    "openingHours": "Mon-Sun: 05:30-23:30",
    "phone": "+44 20 7730 8267",
    "brand": "pret"
  },
  {
    "id": "10666",
    "name": "Pret A Manger",
    "address": null,
    "city": "London",
    "postcode": "E15 1AZ",
    "latitude": 51.5412813,
    "longitude": -0.0034123,
    "status": "open",
    "openingHours": "Mon-Sat: 06:00-23:00, Sun: 06:00-22:00",
    "phone": "+44 20 8519 4030",
    "brand": "pret"
  },
  {
    "id": "10292",
    "name": "Pret A Manger",
    "address": "19-23 Horseferry Road, Unit 12, Great Minster",
    "city": "London",
    "postcode": "SW1P 2AA",
    "latitude": 51.4947145,
    "longitude": -0.1295317,
    "status": "open",
    "openingHours": "Mon-Fri: 05:30-20:00, Sat-Sun: 06:00-20:00",
    "phone": "+44 20 7932 5459",
    "brand": "pret"
  },
  {
    "id": "10759",
    "name": "Pret A Manger",
    "address": "19-20 Liverpool Street",
    "city": "London",
    "postcode": "EC2M 7PD",
    "latitude": 51.51735514,
    "longitude": -0.08250872,
    "status": "open",
    "openingHours": "Mon-Fri: 05:00-21:30, Sat-Sun: 05:30-19:00",
    "phone": "+44 20 7929 7253",
    "brand": "pret"
  },
  {
    "id": "272",
    "name": "Pret A Manger",
    "address": "2 Stall Street",
    "city": "Bath",
    "postcode": "BA1 1QL",
    "latitude": 51.3814418,
    "longitude": -2.3602462,
    "status": "open",
    "openingHours": "Mon-Fri: 07:30-16:00, Sat: 08:00-17:30, Sun: 09:00-16:30",
    "phone": "+44 1225 338225",
    "brand": "pret"
  },
  {
    "id": "10287",
    "name": "Pret A Manger",
    "address": "24 Farringdon Street, Nexus Place",
    "city": "London",
    "postcode": "EC4A 4AB",
    "latitude": 51.5157599,
    "longitude": -0.1042396,
    "status": "open",
    "openingHours": "Mon-Thu: 06:00-18:30, Fri: 06:00-17:00, Sat-Sun: Closed",
    "phone": "+44 20 7932 5450",
    "brand": "pret"
  },
  {
    "id": "10220",
    "name": "Pret A Manger",
    "address": "Hartmann Road, Royal Docks London City Airport",
    "city": "London",
    "postcode": "E16 2PB",
    "latitude": 51.5036156,
    "longitude": 0.0497659,
    "status": "open",
    "openingHours": "Mon-Fri: 05:00-23:00, Sat: 05:00-12:00, Sun: 11:00-23:00",
    "phone": "+44 20 7932 5389",
    "brand": "pret"
  },
  {
    "id": "10304",
    "name": "Pret A Manger",
    "address": "A6, Piccadilly Station, Unit 3 Concourse",
    "city": "Manchester",
    "postcode": "M1 2BN",
    "latitude": 53.47744847,
    "longitude": -2.23110349,
    "status": "open",
    "openingHours": "Mon: 07:00-22:00, Tue-Fri: 05:00-22:00, Sat: 06:30-22:00, Sun: 07:00-22:00",
    "phone": "+44 161 228 6511",
    "brand": "pret"
  },
  {
    "id": "10289",
    "name": "Pret A Manger",
    "address": "87-88 Strand",
    "city": "London",
    "postcode": "WC2R 0DW",
    "latitude": 51.5103242,
    "longitude": -0.1214387,
    "status": "open",
    "openingHours": "Mon-Fri: 06:00-20:30, Sat: 06:00-20:00, Sun: 06:30-19:00",
    "phone": "+44 20 7932 5455",
    "brand": "pret"
  },
  {
    "id": "10669",
    "name": "Pret A Manger",
    "address": "Airport Way, Luton Airport",
    "city": "Luton",
    "postcode": "LU2 9LY",
    "latitude": 51.88035022,
    "longitude": -0.37548001,
    "status": "open",
    "openingHours": "Mon-Sun: 05:00-19:00",
    "phone": "+44 1582 730919",
    "brand": "pret"
  },
  {
    "id": "179",
    "name": "Pret A Manger",
    "address": "City Road, Unit 1, Oliver's Yard",
    "city": "London",
    "postcode": "EC1Y 1HQ",
    "latitude": 51.52440832,
    "longitude": -0.08726891,
    "status": "open",
    "openingHours": "Mon-Thu: 06:00-18:00, Fri: 06:00-17:00, Sat: 07:00-16:00, Sun: 07:30-15:30",
    "phone": "+44 20 7932 5343",
    "brand": "pret"
  },
  {
    "id": "10576",
    "name": "Pret A Manger",
    "address": "T1 Outwood Lane, Manchester Airport landside, T1",
    "city": "Manchester",
    "postcode": "M90 3FE",
    "latitude": 53.36269668,
    "longitude": -2.27373096,
    "status": "open",
    "openingHours": "Mon-Fri: 06:00-19:00, Sat-Sun: 07:00-17:00",
    "phone": "+44 161 437 6967",
    "brand": "pret"
  },
  {
    "id": "10738",
    "name": "Pret A Manger",
    "address": "3 Mitcham Road",
    "city": "London",
    "postcode": "SW17 9PA",
    "latitude": 51.42804,
    "longitude": -0.16755,
    "status": "open",
    "openingHours": "Mon-Fri: 06:00-18:00, Sat: 06:30-18:00, Sun: 06:30-17:00",
    "phone": "+44 20 8672 6215",
    "brand": "pret"
  },
  {
    "id": "10662",
    "name": "Pret A Manger",
    "address": "Euston Road, Unit 29, Eurostar Departure Lounge",
    "city": "London",
    "postcode": "NW1 2QP",
    "latitude": 51.5315184,
    "longitude": -0.1261342,
    "status": "open",
    "openingHours": "Mon-Fri: 04:30-19:45, Sat: 05:00-19:45, Sun: 06:00-20:00",
    "phone": "+44 20 7833 4095",
    "brand": "pret"
  },
  {
    "id": "275",
    "name": "Pret A Manger",
    "address": "Fulham Road, Fulham Broadway Retail Centre, Unit 5",
    "city": "London",
    "postcode": "SW6 1BW",
    "latitude": 51.48034865,
    "longitude": -0.19451943,
    "status": "open",
    "openingHours": "Mon-Fri: 06:00-20:30, Sat-Sun: 07:00-20:00",
    "phone": "+44 20 7932 5373",
    "brand": "pret"
  },
  {
    "id": "10396",
    "name": "Pret A Manger",
    "address": "26 The Martletts",
    "city": "Crawley",
    "postcode": "RH10 1ES",
    "latitude": 51.1142803,
    "longitude": -0.1867556,
    "status": "open",
    "openingHours": "Mon-Sun: Closed",
    "phone": "+44 1293 228929",
    "brand": "pret"
  },
  {
    "id": "10583",
    "name": "Pret A Manger",
    "address": "2-4 Camden High Street",
    "city": "London",
    "postcode": "NW1 0JH",
    "latitude": 51.5348448,
    "longitude": -0.1384267,
    "status": "open",
    "openingHours": "Mon-Fri: 06:30-19:00, Sat: 08:00-18:00, Sun: 08:00-17:00",
    "phone": "+44 20 7387 8730",
    "brand": "pret"
  },
  {
    "id": "10399",
    "name": "Pret A Manger",
    "address": "5 Vere Street",
    "city": "London",
    "postcode": "W1G 0DJ",
    "latitude": 51.51518008,
    "longitude": -0.14697921,
    "status": "open",
    "openingHours": "Mon-Thu: 06:30-19:00, Fri: 06:30-18:00, Sat: 08:00-17:30, Sun: 08:30-17:00",
    "phone": "+44 20 7495 0840",
    "brand": "pret"
  },
  {
    "id": "10211",
    "name": "Pret A Manger",
    "address": "40 Stoney Street",
    "city": "London",
    "postcode": "SE1 9LB",
    "latitude": 51.5068357,
    "longitude": -0.0912484,
    "status": "open",
    "openingHours": "Mon-Fri: 07:00-17:30, Sat-Sun: 08:30-17:30",
    "phone": "+44 20 7932 5226",
    "brand": "pret"
  },
  {
    "id": "292",
    "name": "Pret A Manger",
    "address": "125-135 Fenchurch Street, Unit C, Fountain House",
    "city": "London",
    "postcode": "EC3M 5DJ",
    "latitude": 51.51187442,
    "longitude": -0.08166179,
    "status": "open",
    "openingHours": "Mon-Thu: 06:30-18:00, Fri: 06:30-17:00, Sat-Sun: Closed",
    "phone": "+44 20 7932 5277",
    "brand": "pret"
  },
  {
    "id": "10705",
    "name": "Pret A Manger",
    "address": "84-86 Holland Park Avenue",
    "city": "London",
    "postcode": "W11 3RB",
    "latitude": 51.507197,
    "longitude": -0.206148,
    "status": "open",
    "openingHours": "Mon-Fri: 06:00-19:00, Sat: 06:30-19:00, Sun: 07:00-17:30",
    "phone": "+44 20 7792 7813",
    "brand": "pret"
  },
  {
    "id": "10167",
    "name": "Pret A Manger",
    "address": "Perimeter Road East, Unit Acu06, South Terminal International Departure Lounge",
    "city": "Crawley",
    "postcode": "RH6 0NP",
    "latitude": 51.1555886,
    "longitude": -0.1625586,
    "status": "open",
    "openingHours": "Mon-Sun: 00:00-23:59",
    "phone": "+44 1293 223495",
    "brand": "pret"
  },
  {
    "id": "10215",
    "name": "Pret A Manger",
    "address": "200 Aldersgate Street, Unit 1",
    "city": "London",
    "postcode": "EC1A 4HD",
    "latitude": 51.51756481,
    "longitude": -0.09758021,
    "status": "open",
    "openingHours": "Mon-Thu: 06:00-19:00, Fri: 06:00-17:30, Sat-Sun: Closed",
    "phone": "+44 20 7932 5437",
    "brand": "pret"
  },
  {
    "id": "10410",
    "name": "Pret A Manger",
    "address": "157-168 Blackfriars Road",
    "city": "London",
    "postcode": "SE1 8EZ",
    "latitude": 51.5017164988996,
    "longitude": -0.104305257565902,
    "status": "open",
    "openingHours": "Mon-Thu: 06:30-18:00, Fri: 06:30-17:30, Sat-Sun: Closed",
    "phone": "+44 20 7620 0689",
    "brand": "pret"
  },
  {
    "id": "10221",
    "name": "Pret A Manger",
    "address": "7 More London Riverside, London Riverside",
    "city": "London",
    "postcode": "SE1 2RT",
    "latitude": 51.5045414,
    "longitude": -0.08148789,
    "status": "open",
    "openingHours": "Mon-Tue: 06:00-19:30, Wed-Thu: 06:00-19:00, Fri: 06:00-19:30, Sat: 09:00-17:30, Sun: Closed",
    "phone": "+44 20 7932 5391",
    "brand": "pret"
  },
  {
    "id": "10244",
    "name": "Pret A Manger",
    "address": "Buckingham Palace Road, Victoria Place Shopping Centre, Unit 2",
    "city": "London",
    "postcode": "SW1W 9SJ",
    "latitude": 51.4946954,
    "longitude": -0.1458012,
    "status": "open",
    "openingHours": "Mon-Wed: 06:00-21:00, Thu-Sat: 06:00-21:30, Sun: 06:00-21:00",
    "phone": "+44 20 7592 0046",
    "brand": "pret"
  },
  {
    "id": "10702",
    "name": "Pret A Manger",
    "address": "Oxford Road, Unit 8, Manchester Business School Unit 8 University Green",
    "city": "Manchester",
    "postcode": "M13 9GP",
    "latitude": 53.46786833,
    "longitude": -2.23541131,
    "status": "open",
    "openingHours": "Mon: 07:00-17:30, Tue-Thu: 07:00-18:00, Fri: 07:00-17:30, Sat: 08:30-17:30, Sun: Closed",
    "phone": "+44 161 273 1815",
    "brand": "pret"
  },
  {
    "id": "10424",
    "name": "Pret A Manger",
    "address": "165-166 London Wall",
    "city": "London",
    "postcode": "EC2M 5QD",
    "latitude": 51.51738659,
    "longitude": -0.08795169,
    "status": "open",
    "openingHours": "Mon-Thu: 06:00-18:30, Fri: 06:00-17:00, Sat-Sun: Closed",
    "phone": "+44 20 7628 0368",
    "brand": "pret"
  },
  {
    "id": "10423",
    "name": "Pret A Manger",
    "address": "22-24 Colmore Row",
    "city": "Birmingham",
    "postcode": "B3 2QD",
    "latitude": 52.48199879,
    "longitude": -1.89790503,
    "status": "open",
    "openingHours": "Mon: 06:00-17:00, Tue-Thu: 06:00-17:30, Fri: 06:00-17:00, Sat: 07:30-16:30, Sun: 08:00-16:00",
    "phone": "+44 121 236 9394",
    "brand": "pret"
  },
  {
    "id": "10708",
    "name": "Pret A Manger",
    "address": "128 Shoreditch High Street",
    "city": "London",
    "postcode": "E1 6JE",
    "latitude": 51.5267733,
    "longitude": -0.0783155,
    "status": "open",
    "openingHours": "Mon-Thu: 07:00-16:30, Fri: 07:00-15:30, Sat-Sun: Closed",
    "phone": "+44 20 7729 2713",
    "brand": "pret"
  },
  {
    "id": "10251",
    "name": "Pret A Manger",
    "address": "64-68 New Oxford Street",
    "city": "London",
    "postcode": "WC1A 1AZ",
    "latitude": 51.5170143,
    "longitude": -0.1272275,
    "status": "open",
    "openingHours": "Mon: 06:00-19:30, Tue-Wed: 05:30-20:00, Thu: 05:30-20:30, Fri: 05:30-19:30, Sat: 06:00-19:30, Sun: 07:00-19:00",
    "phone": "+44 20 7932 5308",
    "brand": "pret"
  },
  {
    "id": "10223",
    "name": "Pret A Manger",
    "address": "128 Queen Victoria Street, Old Change House",
    "city": "London",
    "postcode": "EC4V 4BY",
    "latitude": 51.5121032,
    "longitude": -0.0978839,
    "status": "open",
    "openingHours": "Mon-Thu: 06:00-19:00, Fri: 06:00-18:00, Sat: 08:00-17:30, Sun: 08:00-16:00",
    "phone": "+44 20 7932 5386",
    "brand": "pret"
  },
  {
    "id": "10194",
    "name": "Pret A Manger",
    "address": "67 Coleman Street",
    "city": "London",
    "postcode": "EC2R 5BT",
    "latitude": 51.5164199,
    "longitude": -0.0895298,
    "status": "open",
    "openingHours": "Mon-Thu: 05:30-19:00, Fri: 05:30-17:00, Sat-Sun: Closed",
    "phone": "+44 20 7932 5410",
    "brand": "pret"
  },
  {
    "id": "10456",
    "name": "Pret A Manger",
    "address": "5-11 Mortimer Street, Network House",
    "city": "London",
    "postcode": "W1T 3JB",
    "latitude": 51.5186638,
    "longitude": -0.1372491,
    "status": "open",
    "openingHours": "Mon-Fri: 06:30-18:00, Sat-Sun: Closed",
    "phone": "+44 7502 612535",
    "brand": "pret"
  },
  {
    "id": "10262",
    "name": "Pret A Manger",
    "address": "Retail Unit 1 Thomas More Square, Retail Unit 1",
    "city": "London",
    "postcode": "E1W 1YN",
    "latitude": 51.50812864,
    "longitude": -0.06816988,
    "status": "open",
    "openingHours": "Mon-Thu: 06:00-17:00, Fri: 06:00-16:30, Sat-Sun: Closed",
    "phone": "+44 20 7932 5279",
    "brand": "pret"
  },
  {
    "id": "12",
    "name": "Pret A Manger",
    "address": "77-78 Saint Martin's Lane",
    "city": "London",
    "postcode": "WC2N 4AA",
    "latitude": 51.5116009,
    "longitude": -0.1274809,
    "status": "open",
    "openingHours": "Mon-Fri: 05:00-23:30, Sat: 05:30-23:30, Sun: 06:00-23:00",
    "phone": "+44 7469 650251",
    "brand": "pret"
  },
  {
    "id": "10303",
    "name": "Pret A Manger",
    "address": "3-5 Praed Street",
    "city": "London",
    "postcode": "W2 1NJ",
    "latitude": 51.518928,
    "longitude": -0.1692863,
    "status": "open",
    "openingHours": "Mon: 06:00-18:00, Tue-Thu: 06:00-18:30, Fri: 06:00-18:00, Sat: 06:30-18:00, Sun: 06:30-17:30",
    "phone": "+44 20 7932 5445",
    "brand": "pret"
  },
  {
    "id": "10541",
    "name": "Pret A Manger",
    "address": "25 High Street",
    "city": "Winchester",
    "postcode": "SO23 9BL",
    "latitude": 51.4773363,
    "longitude": 0.323117,
    "status": "open",
    "openingHours": "Mon-Fri: 07:00-18:00, Sat: 07:30-17:30, Sun: 07:30-17:00",
    "phone": "+44 1962 860284",
    "brand": "pret"
  },
  {
    "id": "10365",
    "name": "Pret A Manger",
    "address": "367B Fulham Road",
    "city": "London",
    "postcode": "SW10 9TN",
    "latitude": 51.485408,
    "longitude": -0.1816043,
    "status": "open",
    "openingHours": "Mon-Fri: 06:00-20:00, Sat: 06:30-18:00, Sun: 07:00-18:00",
    "phone": "+44 20 7351 0649",
    "brand": "pret"
  },
  {
    "id": "10457",
    "name": "Pret A Manger",
    "address": "79-81 Deansgate",
    "city": "Manchester",
    "postcode": "M3 2BW",
    "latitude": 53.48213911,
    "longitude": -2.24691611,
    "status": "open",
    "openingHours": "Mon-Fri: 06:45-18:00, Sat: 07:30-18:00, Sun: 08:30-17:30",
    "phone": "+44 161 832 8292",
    "brand": "pret"
  },
  {
    "id": "10605",
    "name": "Pret A Manger",
    "address": "7-9 Queensway",
    "city": "London",
    "postcode": "W2 4QJ",
    "latitude": 51.5106746,
    "longitude": -0.1872789,
    "status": "open",
    "openingHours": "Mon-Fri: 07:00-21:00, Sat: 07:00-21:45, Sun: 08:00-21:30",
    "phone": "+44 20 7221 0656",
    "brand": "pret"
  },
  {
    "id": "19",
    "name": "Pret A Manger",
    "address": "163 Piccadilly",
    "city": "London",
    "postcode": "W1J 9ED",
    "latitude": 51.5078158,
    "longitude": -0.1400834,
    "status": "open",
    "openingHours": "Mon-Fri: 06:00-21:00, Sat-Sun: 06:00-20:30",
    "phone": "+44 20 7932 5229",
    "brand": "pret"
  },
  {
    "id": "10232",
    "name": "Pret A Manger",
    "address": "Comet Road, Birmingham Airport,Coventry Road",
    "city": "Birmingham",
    "postcode": "B26 3QJ",
    "latitude": 52.453158,
    "longitude": -1.734342,
    "status": "open",
    "openingHours": "Mon-Sun: 03:00-22:15",
    "phone": "+44 121 767 8231",
    "brand": "pret"
  },
  {
    "id": "10544",
    "name": "Pret A Manger",
    "address": "152 Waterloo Road",
    "city": "London",
    "postcode": "SE1 7AA",
    "latitude": 51.5023003,
    "longitude": -0.112773,
    "status": "open",
    "openingHours": "Mon-Tue: 06:00-20:30, Wed-Thu: 05:30-20:30, Fri: 06:00-20:30, Sat: 06:30-19:30, Sun: 07:30-18:00",
    "phone": "+44 20 3937 7828",
    "brand": "pret"
  },
  {
    "id": "121",
    "name": "Pret A Manger",
    "address": "141 Cheapside",
    "city": "London",
    "postcode": "EC2V 6BJ",
    "latitude": 51.5145692,
    "longitude": -0.0960176,
    "status": "open",
    "openingHours": "Mon-Thu: 06:00-19:00, Fri: 06:00-18:00, Sat: 07:00-18:00, Sun: 07:00-17:00",
    "phone": "+44 20 7600 1649",
    "brand": "pret"
  },
  {
    "id": "10602",
    "name": "Pret A Manger",
    "address": "111 Westminster Bridge Road",
    "city": "London",
    "postcode": "SE1 7HR",
    "latitude": 51.49919101,
    "longitude": -0.11325905,
    "status": "open",
    "openingHours": "Mon: 06:00-18:30, Tue-Thu: 06:00-19:00, Fri: 06:00-18:30, Sat: 06:30-17:00, Sun: 06:30-16:00",
    "phone": "+44 20 3674 0012",
    "brand": "pret"
  },
  {
    "id": "1",
    "name": "Pret A Manger",
    "address": "83 Chancery Lane, Unit 6",
    "city": "London",
    "postcode": "WC2A 1DD",
    "latitude": 51.5158202,
    "longitude": -0.1120312,
    "status": "open",
    "openingHours": "Mon: 06:00-18:00, Tue-Thu: 06:00-19:00, Fri: 06:00-18:00, Sat-Sun: Closed",
    "phone": "+44 20 7242 5627",
    "brand": "pret"
  },
  {
    "id": "10367",
    "name": "Pret A Manger",
    "address": "Pancras Rd, Norther Ticket Hall, Kings Cross Station",
    "city": "London",
    "postcode": "N1C 4AP",
    "latitude": 51.53226002,
    "longitude": -0.126561,
    "status": "open",
    "openingHours": "Mon-Fri: 06:00-20:00, Sat-Sun: 07:00-20:00",
    "phone": "+44 20 7713 9512",
    "brand": "pret"
  },
  {
    "id": "243",
    "name": "Pret A Manger",
    "address": "3-5 Saint John Street, Clerkenwell",
    "city": "London",
    "postcode": "EC1M 4AA",
    "latitude": 51.52003944,
    "longitude": -0.10191644,
    "status": "open",
    "openingHours": "Mon-Thu: 05:30-18:00, Fri: 06:30-18:00, Sat-Sun: Closed",
    "phone": "+44 20 7490 1830",
    "brand": "pret"
  },
  {
    "id": "10587",
    "name": "Pret A Manger",
    "address": "Arch 16 Station Place",
    "city": "London",
    "postcode": "N4 2DQ",
    "latitude": 51.5650509,
    "longitude": -0.1058653,
    "status": "open",
    "openingHours": "Mon-Fri: 06:00-19:00, Sat: 06:30-19:30, Sun: 06:30-18:00",
    "phone": "+44 20 7263 7598",
    "brand": "pret"
  },
  {
    "id": "39",
    "name": "Pret A Manger",
    "address": "Cabot Square, Canary Wharf, Unit 320, RT1 Cabot Place",
    "city": "London",
    "postcode": "E14 4QS",
    "latitude": 51.50517151,
    "longitude": -0.02019024,
    "status": "open",
    "openingHours": "Mon-Fri: 05:30-22:00, Sat-Sun: 06:30-21:00",
    "phone": "+44 20 7932 5249",
    "brand": "pret"
  },
  {
    "id": "10621",
    "name": "Pret A Manger",
    "address": "Ariel Way, Southern Interchange, Unit SUC303 Westfield London",
    "city": "London",
    "postcode": "W12 7GA",
    "latitude": 51.507666,
    "longitude": -0.2214629,
    "status": "open",
    "openingHours": "Mon: 08:00-19:00, Tue-Fri: 06:30-20:00, Sat: 07:30-20:00, Sun: 08:00-20:00",
    "phone": "+44 20 8749 2215",
    "brand": "pret"
  },
  {
    "id": "10667",
    "name": "Pret A Manger",
    "address": "Ariel Way, Unit Su2203a, Westfield Shopping Centre",
    "city": "London",
    "postcode": "W12 7HT",
    "latitude": 51.5070917,
    "longitude": -0.22049998,
    "status": "open",
    "openingHours": "Mon-Thu: 08:30-21:00, Fri-Sat: 08:30-22:00, Sun: 09:30-18:30",
    "phone": "+44 20 8749 5499",
    "brand": "pret"
  },
  {
    "id": "10498",
    "name": "Pret A Manger",
    "address": "Station Street, Unit 32A, Birmingham New Street Station",
    "city": "Birmingham",
    "postcode": "B2 4PX",
    "latitude": 52.4776198,
    "longitude": -1.8993359,
    "status": "open",
    "openingHours": "Mon-Sat: 05:30-22:30, Sun: 08:00-22:30",
    "phone": "+44 121 643 6943",
    "brand": "pret"
  },
  {
    "id": "10376",
    "name": "Pret A Manger",
    "address": "4 Regent Place",
    "city": "London",
    "postcode": "W1B 5EA",
    "latitude": 51.5111586,
    "longitude": -0.1383445,
    "status": "open",
    "openingHours": "Mon-Fri: 06:00-20:00, Sat: 07:30-20:00, Sun: 08:00-19:00",
    "phone": "+44 20 7494 4760",
    "brand": "pret"
  },
  {
    "id": "10631",
    "name": "Pret A Manger",
    "address": "21 Spafield Street, Exmouth Market",
    "city": "London",
    "postcode": "EC1R 4QD",
    "latitude": 51.52566006,
    "longitude": -0.10993477,
    "status": "open",
    "openingHours": "Mon-Thu: 07:00-17:30, Fri: 07:00-17:00, Sat-Sun: Closed",
    "phone": "+44 20 8001 0259",
    "brand": "pret"
  },
  {
    "id": "10697",
    "name": "Pret A Manger",
    "address": "42 Baldwin Street",
    "city": "Bristol",
    "postcode": "BS1 1PN",
    "latitude": 51.45331169,
    "longitude": -2.59393311,
    "status": "open",
    "openingHours": "Mon: 07:30-16:00, Tue-Thu: 07:30-16:30, Fri: 07:30-16:00, Sat-Sun: Closed",
    "phone": "+44 117 929 3439",
    "brand": "pret"
  },
  {
    "id": "10720",
    "name": "Pret A Manger",
    "address": "202-206 Union Street",
    "city": "London",
    "postcode": "SE1 0LX",
    "latitude": 51.5038806,
    "longitude": -0.1026117,
    "status": "open",
    "openingHours": "Mon: 06:30-16:30, Tue-Thu: 06:00-17:00, Fri: 06:30-16:00, Sat-Sun: Closed",
    "phone": "+44 20 7620 2085",
    "brand": "pret"
  },
  {
    "id": "253",
    "name": "Pret A Manger",
    "address": "92 Buckingham Palace Road",
    "city": "London",
    "postcode": "SW1W 0SS",
    "latitude": 51.49442624,
    "longitude": -0.14697332,
    "status": "open",
    "openingHours": "Mon-Fri: 06:00-16:30, Sat: 07:00-15:30, Sun: Closed",
    "phone": "+44 20 7932 5367",
    "brand": "pret"
  },
  {
    "id": "10715",
    "name": "Pret A Manger",
    "address": "219 Finchley Road",
    "city": "London",
    "postcode": "NW3 6LP",
    "latitude": 51.54829,
    "longitude": -0.18094,
    "status": "open",
    "openingHours": "Mon-Sat: 06:00-19:30, Sun: 07:00-19:30",
    "phone": "+44 20 7372 3010",
    "brand": "pret"
  },
  {
    "id": "10486",
    "name": "Pret A Manger",
    "address": "168-188 Fulham Palace Road",
    "city": "London",
    "postcode": "W6 9PA",
    "latitude": 51.4854353,
    "longitude": -0.2204083,
    "status": "open",
    "openingHours": "Mon-Fri: 05:30-17:00, Sat: 06:00-17:00, Sun: 07:00-16:00",
    "phone": "+44 20 7381 0906",
    "brand": "pret"
  },
  {
    "id": "10254",
    "name": "Pret A Manger",
    "address": "Unit 29a High Street, Unit 29a",
    "city": "Solihull",
    "postcode": "B91 3TA",
    "latitude": 52.4137533,
    "longitude": -1.7787857,
    "status": "open",
    "openingHours": "Mon-Fri: 08:00-17:00, Sat: 08:00-17:30, Sun: 09:00-16:00",
    "phone": "+44 121 709 0751",
    "brand": "pret"
  },
  {
    "id": "10698",
    "name": "Pret A Manger",
    "address": "120-125 Strand",
    "city": "London",
    "postcode": "WC2R 0AP",
    "latitude": 51.5109324640443,
    "longitude": -0.119285482424048,
    "status": "open",
    "openingHours": "Mon-Fri: 05:30-21:00, Sat: 06:00-21:00, Sun: 06:30-19:00",
    "phone": "+44 20 7240 2689",
    "brand": "pret"
  },
  {
    "id": "10693",
    "name": "Pret A Manger",
    "address": "7-8 Saint Martin's Place",
    "city": "London",
    "postcode": "WC2N 4HA",
    "latitude": 51.5093776,
    "longitude": -0.1267583,
    "status": "open",
    "openingHours": "Mon-Fri: 06:00-21:00, Sat: 07:00-20:00, Sun: 07:00-19:00",
    "phone": "+44 20 7930 6222",
    "brand": "pret"
  },
  {
    "id": "10739",
    "name": "Pret A Manger",
    "address": "6 Lord Bhattacharyya Way, Coventry, Rootes Building, Warwickshire",
    "city": "Birmingham",
    "postcode": "CV4 7EZ",
    "latitude": 52.3783382,
    "longitude": -1.5612244,
    "status": "open",
    "openingHours": "Mon-Sun: 07:30-19:00",
    "phone": "+44 24 7641 4067",
    "brand": "pret"
  },
  {
    "id": "254",
    "name": "Pret A Manger",
    "address": "15 Old Brompton Road",
    "city": "London",
    "postcode": "SW7 3HZ",
    "latitude": 51.4935407,
    "longitude": -0.17427353,
    "status": "open",
    "openingHours": "Mon-Wed: 05:00-22:30, Thu-Fri: 05:00-22:00, Sat: 06:00-21:30, Sun: 06:30-20:30",
    "phone": "+44 20 7932 5368",
    "brand": "pret"
  },
  {
    "id": "10476",
    "name": "Pret A Manger",
    "address": "161 City Road, Eagle House",
    "city": "London",
    "postcode": "EC1V 1NR",
    "latitude": 51.52798726,
    "longitude": -0.08944553,
    "status": "open",
    "openingHours": "Mon-Fri: 05:30-20:00, Sat: 06:00-19:00, Sun: 06:30-18:00",
    "phone": "+44 20 7253 7266",
    "brand": "pret"
  },
  {
    "id": "10723",
    "name": "Pret A Manger",
    "address": "Kimberley Way, Ashford Designer Outlet Village, Unit 1, Unit 154",
    "city": "Ashford",
    "postcode": "TN24 0SD",
    "latitude": 51.13703502,
    "longitude": 0.87860748,
    "status": "open",
    "openingHours": "Mon-Sat: 08:30-19:00, Sun: 10:00-18:00",
    "phone": "+44 1233 621562",
    "brand": "pret"
  },
  {
    "id": "10756",
    "name": "Pret A Manger",
    "address": "Belvedere Road, Unit 4 Royal Festival Hall",
    "city": "London",
    "postcode": "SE1 8XX",
    "latitude": 51.50597386,
    "longitude": -0.11707268,
    "status": "open",
    "openingHours": "Mon-Sat: 07:30-21:30, Sun: 07:30-20:00",
    "phone": "+44 20 7021 0191",
    "brand": "pret"
  },
  {
    "id": "10770",
    "name": "Pret A Manger",
    "address": "Corporation Street, Unit R1, Arndale Centre",
    "city": "Manchester",
    "postcode": "M4 3AQ",
    "latitude": 53.4838904,
    "longitude": -2.24199,
    "status": "open",
    "openingHours": "Mon-Fri: 07:45-20:00, Sat: 07:45-20:30, Sun: 09:30-17:30",
    "phone": "+44 161 832 2014",
    "brand": "pret"
  },
  {
    "id": "10755",
    "name": "Pret A Manger",
    "address": "1 George Street, Ariel Way",
    "city": "London",
    "postcode": "W1U 3QF",
    "latitude": 51.51787666,
    "longitude": -0.15173055,
    "status": "open",
    "openingHours": "Mon-Fri: 06:30-19:30, Sat: 07:30-19:00, Sun: 07:30-18:30",
    "phone": "+44 20 7224 4730",
    "brand": "pret"
  },
  {
    "id": "10786",
    "name": "Pret A Manger",
    "address": "190 Strand",
    "city": "London",
    "postcode": "WC2R 1DP",
    "latitude": 51.51272916,
    "longitude": -0.1141443,
    "status": "open",
    "openingHours": "Mon-Thu: 06:30-20:00, Fri: 06:30-17:00, Sat-Sun: 07:00-16:00",
    "phone": "+44 20 7240 9925",
    "brand": "pret"
  },
  {
    "id": "10330",
    "name": "Pret A Manger",
    "address": "Widgeon Road, Heathrow Airport, Terminal 5, Airside Lounge",
    "city": "Hounslow",
    "postcode": "TW6 2GA",
    "latitude": 51.47283306,
    "longitude": -0.48723192,
    "status": "open",
    "openingHours": "Mon-Sun: 05:30-20:30",
    "phone": "+44 20 8283 8120",
    "brand": "pret"
  },
  {
    "id": "10378",
    "name": "Pret A Manger",
    "address": "192 Shoreditch High Street",
    "city": "London",
    "postcode": "E1 6HU",
    "latitude": 51.52403,
    "longitude": -0.07747,
    "status": "open",
    "openingHours": "Mon-Fri: 05:30-20:00, Sat-Sun: 06:30-20:00",
    "phone": "+44 20 7033 0209",
    "brand": "pret"
  },
  {
    "id": "103",
    "name": "Pret A Manger",
    "address": "25 Castle Street, Unit 7",
    "city": "Edinburgh",
    "postcode": "EH2 3DN",
    "latitude": 55.95208501,
    "longitude": -3.20296392,
    "status": "open",
    "openingHours": "Mon: 07:30-16:30, Tue-Thu: 07:00-16:30, Fri: 07:30-16:30, Sat: 08:30-16:30, Sun: Closed",
    "phone": "+44 131 260 9728",
    "brand": "pret"
  },
  {
    "id": "10749",
    "name": "Pret A Manger",
    "address": "3 Duke of York Street",
    "city": "London",
    "postcode": "SW1Y 6JP",
    "latitude": 51.508293,
    "longitude": -0.136507,
    "status": "open",
    "openingHours": "Mon-Thu: 06:00-17:00, Fri: 06:00-16:00, Sat-Sun: Closed",
    "phone": "+44 20 7839 6390",
    "brand": "pret"
  },
  {
    "id": "10520",
    "name": "Pret A Manger",
    "address": "49-52 Bow Lane",
    "city": "London",
    "postcode": "EC4M 9DJ",
    "latitude": 51.5134517,
    "longitude": -0.0932354,
    "status": "open",
    "openingHours": "Mon-Thu: 06:00-18:00, Fri: 06:30-16:30, Sat-Sun: Closed",
    "phone": "+44 20 7248 2190",
    "brand": "pret"
  },
  {
    "id": "33",
    "name": "Pret A Manger",
    "address": "52 New Street",
    "city": "Birmingham",
    "postcode": "B2 4EG",
    "latitude": 52.4794338,
    "longitude": -1.8998463,
    "status": "open",
    "openingHours": "Mon-Tue: 07:00-16:30, Wed: 07:00-17:00, Thu: 07:00-16:30, Fri: 06:30-17:00, Sat: 08:00-17:00, Sun: 09:00-16:00",
    "phone": "+44 121 643 2359",
    "brand": "pret"
  },
  {
    "id": "10508",
    "name": "Pret A Manger",
    "address": "Orange, Media City, Unit C, Orange Building",
    "city": "Salford",
    "postcode": "M50 2HE",
    "latitude": 53.47291912,
    "longitude": -2.29678307,
    "status": "open",
    "openingHours": "Mon: 06:30-18:30, Tue-Thu: 06:30-19:00, Fri: 06:30-18:00, Sat-Sun: 07:30-18:00",
    "phone": "+44 161 713 3829",
    "brand": "pret"
  },
  {
    "id": "10474",
    "name": "Pret A Manger",
    "address": "Terminal Rd N, International Departure Lounge, Unit Acs9",
    "city": "Stansted",
    "postcode": "CM24 1RW",
    "latitude": 51.8899565,
    "longitude": 0.2607307,
    "status": "open",
    "openingHours": "Mon-Sun: 00:00-23:50",
    "phone": "+44 1279 661149",
    "brand": "pret"
  },
  {
    "id": "114",
    "name": "Pret A Manger",
    "address": "18 Hanover Street",
    "city": "London",
    "postcode": "W1S 1YN",
    "latitude": 51.5138039,
    "longitude": -0.1419489,
    "status": "open",
    "openingHours": "Mon-Fri: 06:30-20:00, Sat: 07:00-20:00, Sun: 08:00-19:00",
    "phone": "+44 20 7629 4350",
    "brand": "pret"
  },
  {
    "id": "10629",
    "name": "Pret A Manger",
    "address": "Hepdon Mews, St George's University of London, Jenner Wing, Ground Floor",
    "city": "London",
    "postcode": "SW17 0RE",
    "latitude": 51.42669,
    "longitude": -0.17558,
    "status": "open",
    "openingHours": "Mon-Fri: 06:00-19:00, Sat: 07:00-18:00, Sun: 07:00-17:30",
    "phone": "+44 20 8672 8734",
    "brand": "pret"
  },
  {
    "id": "107",
    "name": "Pret A Manger",
    "address": "65 Long Acre",
    "city": "London",
    "postcode": "WC2E 9JD",
    "latitude": 51.513926,
    "longitude": -0.122915,
    "status": "open",
    "openingHours": "Mon-Fri: 06:30-19:00, Sat: 08:00-19:00, Sun: 08:30-18:00",
    "phone": "+44 20 7932 5324",
    "brand": "pret"
  },
  {
    "id": "21",
    "name": "Pret A Manger",
    "address": "240-241 High Holborn",
    "city": "London",
    "postcode": "WC1V 7DN",
    "latitude": 51.5176072,
    "longitude": -0.1189221,
    "status": "open",
    "openingHours": "Mon: 06:00-19:00, Tue-Thu: 06:00-19:30, Fri: 06:00-16:30, Sat-Sun: Closed",
    "phone": "+44 20 7932 5231",
    "brand": "pret"
  },
  {
    "id": "116",
    "name": "Pret A Manger",
    "address": "157 Camden High Street",
    "city": "London",
    "postcode": "NW1 7JY",
    "latitude": 51.53812,
    "longitude": -0.142214,
    "status": "open",
    "openingHours": "Mon-Fri: 06:30-17:30, Sat-Sun: 07:30-17:30",
    "phone": "+44 20 7932 5407",
    "brand": "pret"
  },
  {
    "id": "10676",
    "name": "Pret A Manger",
    "address": "86 High Street",
    "city": "Bromley",
    "postcode": "BR1 1EY",
    "latitude": 51.4028644,
    "longitude": 0.0150561,
    "status": "open",
    "openingHours": "Mon-Thu: 07:00-17:00, Fri: 07:00-16:00, Sat: 07:00-17:00, Sun: 08:00-16:30",
    "phone": "+44 20 8290 5376",
    "brand": "pret"
  },
  {
    "id": "10745",
    "name": "Pret A Manger",
    "address": "2 White Kennett Street, The St Botolphs Building",
    "city": "London",
    "postcode": "E1 7BS",
    "latitude": 51.5150581,
    "longitude": -0.0769397,
    "status": "open",
    "openingHours": "Mon-Thu: 06:30-17:00, Fri: 06:30-16:00, Sat-Sun: Closed",
    "phone": "+44 20 7283 1118",
    "brand": "pret"
  },
  {
    "id": "10591",
    "name": "Pret A Manger",
    "address": "Bassingbourn Road, Unit A Sb18, Departure Lounge Stansted",
    "city": "Stansted",
    "postcode": "CM24 8QW",
    "latitude": 51.8860181,
    "longitude": 0.2388661,
    "status": "open",
    "openingHours": "Mon-Sun: 02:30-22:00",
    "phone": "+44 1279 681950",
    "brand": "pret"
  },
  {
    "id": "10404",
    "name": "Pret A Manger",
    "address": "93 Northbrook Street",
    "city": "Newbury",
    "postcode": "RG14 1AA",
    "latitude": 51.4019656099405,
    "longitude": -1.32459797432626,
    "status": "open",
    "openingHours": "Mon-Fri: 07:30-16:30, Sat: 07:30-17:30, Sun: 08:30-16:30",
    "phone": "+44 1635 581630",
    "brand": "pret"
  },
  {
    "id": "10110",
    "name": "Pret A Manger",
    "address": "2 Canvey Street",
    "city": "London",
    "postcode": "SE1 9AN",
    "latitude": 51.5057588,
    "longitude": -0.0992494,
    "status": "open",
    "openingHours": "Mon-Thu: 06:00-18:30, Fri: 06:00-17:00, Sat: 06:30-17:00, Sun: Closed",
    "phone": "+44 20 7932 5257",
    "brand": "pret"
  },
  {
    "id": "319",
    "name": "Pret A Manger",
    "address": "99 Gloucester Road",
    "city": "London",
    "postcode": "SW7 4SS",
    "latitude": 51.49400308,
    "longitude": -0.18201869,
    "status": "open",
    "openingHours": "Mon: 06:00-20:00, Tue-Thu: 05:30-20:00, Fri: 06:00-20:00, Sat: 05:30-20:00, Sun: 06:00-19:30",
    "phone": "+44 20 7932 5214",
    "brand": "pret"
  },
  {
    "id": "113",
    "name": "Pret A Manger",
    "address": "27 Islington High Street",
    "city": "London",
    "postcode": "N1 9LH",
    "latitude": 51.53288847,
    "longitude": -0.10638551,
    "status": "open",
    "openingHours": "Mon-Fri: 05:30-20:00, Sat-Sun: 06:00-19:00",
    "phone": "+44 20 7932 5403",
    "brand": "pret"
  },
  {
    "id": "38",
    "name": "Pret A Manger",
    "address": "25 Villiers Street",
    "city": "London",
    "postcode": "WC2N 6ND",
    "latitude": 51.5082401,
    "longitude": -0.1238025,
    "status": "open",
    "openingHours": "Mon-Fri: 06:00-19:30, Sat: 07:00-19:30, Sun: 08:30-17:00",
    "phone": "+44 20 7932 5248",
    "brand": "pret"
  },
  {
    "id": "310",
    "name": "Pret A Manger",
    "address": "Kinsey Road, Unit 100 Cheshire Oaks Designer Outlet",
    "city": "Chester",
    "postcode": "CH65 9JJ",
    "latitude": 53.26577438,
    "longitude": -2.87915934,
    "status": "open",
    "openingHours": "Mon-Fri: 09:00-20:00, Sat: 08:30-21:00, Sun: 09:00-18:00",
    "phone": "+44 151 355 9162",
    "brand": "pret"
  },
  {
    "id": "10002",
    "name": "Pret A Manger",
    "address": "43 King William Street",
    "city": "London",
    "postcode": "EC4R 9AN",
    "latitude": 51.5098409,
    "longitude": -0.0866542,
    "status": "open",
    "openingHours": "Mon-Thu: 06:00-20:00, Fri: 06:30-18:30, Sat-Sun: 08:30-18:30",
    "phone": "+44 20 7932 5217",
    "brand": "pret"
  },
  {
    "id": "47",
    "name": "Pret A Manger",
    "address": "29-33 Kingsway",
    "city": "London",
    "postcode": "WC2B 6UF",
    "latitude": 51.5141584,
    "longitude": -0.118532,
    "status": "open",
    "openingHours": "Mon-Thu: 06:30-19:30, Fri: 06:30-18:00, Sat: 08:30-17:00, Sun: Closed",
    "phone": "+44 20 7932 5262",
    "brand": "pret"
  },
  {
    "id": "10779",
    "name": "Pret A Manger",
    "address": "21-24 Grosvenor Place",
    "city": "London",
    "postcode": "SW1X 7HN",
    "latitude": 51.49986593,
    "longitude": -0.14943966,
    "status": "open",
    "openingHours": "Mon-Fri: 06:00-20:00, Sat: 07:00-19:30, Sun: 07:30-18:30",
    "phone": "+44 20 7235 1927",
    "brand": "pret"
  },
  {
    "id": "10645",
    "name": "Pret A Manger",
    "address": "Tottenham Court Road, Unit 1, Ticket Hall, Tube Station",
    "city": "London",
    "postcode": "W1D 1AN",
    "latitude": 51.5165573907211,
    "longitude": -0.130815098804287,
    "status": "open",
    "openingHours": "Mon: 06:00-19:30, Tue-Wed: 05:45-20:30, Thu: 06:00-20:00, Fri: 05:45-20:00, Sat: 06:00-18:30, Sun: 07:30-16:30",
    "phone": "+44 20 7287 1472",
    "brand": "pret"
  },
  {
    "id": "35",
    "name": "Pret A Manger",
    "address": "101 Turnmill Street",
    "city": "London",
    "postcode": "EC1M 5QP",
    "latitude": 51.5203373,
    "longitude": -0.1043052,
    "status": "open",
    "openingHours": "Mon-Fri: 05:00-19:00, Sat-Sun: 06:00-19:30",
    "phone": "+44 20 3937 7825",
    "brand": "pret"
  },
  {
    "id": "10777",
    "name": "Pret A Manger",
    "address": "17 City Road",
    "city": "London",
    "postcode": "EC1Y 1AG",
    "latitude": 51.52249124,
    "longitude": -0.08686051,
    "status": "open",
    "openingHours": "Mon-Thu: 07:00-16:00, Fri: 07:00-15:30, Sat-Sun: Closed",
    "phone": "+44 20 7374 6634",
    "brand": "pret"
  },
  {
    "id": "10149",
    "name": "Pret A Manger",
    "address": "14-16 Lombard Street, Unit 1",
    "city": "London",
    "postcode": "EC3V 9AU",
    "latitude": 51.51275452,
    "longitude": -0.08765949,
    "status": "open",
    "openingHours": "Mon: 06:00-18:00, Tue-Thu: 06:00-19:00, Fri: 06:00-18:00, Sat-Sun: Closed",
    "phone": "+44 20 7932 5405",
    "brand": "pret"
  },
  {
    "id": "30",
    "name": "Pret A Manger",
    "address": "556 Oxford Street",
    "city": "London",
    "postcode": "W1C 1LZ",
    "latitude": 51.51364754,
    "longitude": -0.15860488,
    "status": "open",
    "openingHours": "Mon-Fri: 06:15-22:00, Sat: 07:00-22:00, Sun: 07:00-21:00",
    "phone": "+44 20 7932 5240",
    "brand": "pret"
  },
  {
    "id": "43",
    "name": "Pret A Manger",
    "address": "Kensington High Street, Arcade, Unit 14",
    "city": "London",
    "postcode": "W8 5SF",
    "latitude": 51.50079688,
    "longitude": -0.19265253,
    "status": "open",
    "openingHours": "Mon-Fri: 06:00-21:00, Sat-Sun: 07:00-21:00",
    "phone": "+44 20 7932 5254",
    "brand": "pret"
  },
  {
    "id": "10240",
    "name": "Pret A Manger",
    "address": "Ariel Way, Westfield, Mall South, Unit 2033, Level 50",
    "city": "London",
    "postcode": "W12 7GR",
    "latitude": 51.50749237,
    "longitude": -0.2212054,
    "status": "open",
    "openingHours": "Mon-Thu: 08:00-21:00, Fri: 08:00-21:30, Sat: 08:00-22:00, Sun: 09:30-19:00",
    "phone": "+44 20 8749 1681",
    "brand": "pret"
  },
  {
    "id": "10248",
    "name": "Pret A Manger",
    "address": "49 Eastcastle Street",
    "city": "London",
    "postcode": "W1W 8DZ",
    "latitude": 51.5163649,
    "longitude": -0.138999,
    "status": "open",
    "openingHours": "Mon-Fri: 06:00-19:00, Sat: 08:30-17:00, Sun: Closed",
    "phone": "+44 20 7932 5412",
    "brand": "pret"
  },
  {
    "id": "10253",
    "name": "Pret A Manger",
    "address": "32 Avery Row",
    "city": "London",
    "postcode": "W1K 4BE",
    "latitude": 51.51229638,
    "longitude": -0.145394,
    "status": "open",
    "openingHours": "Mon-Thu: 06:30-18:00, Fri: 06:30-17:30, Sat-Sun: Closed",
    "phone": "+44 20 7932 5447",
    "brand": "pret"
  },
  {
    "id": "10246",
    "name": "Pret A Manger",
    "address": "21-23 Northgate Street",
    "city": "Chester",
    "postcode": "CH1 2HA",
    "latitude": 53.1910938,
    "longitude": -2.8913903,
    "status": "open",
    "openingHours": "Mon: 07:00-17:00, Tue-Wed: 07:00-17:30, Thu-Fri: 07:00-17:00, Sat: 07:00-17:30, Sun: 08:00-17:00",
    "phone": "+44 7920 020150",
    "brand": "pret"
  },
  {
    "id": "10354",
    "name": "Pret A Manger",
    "address": "14-24 Caxton Street",
    "city": "London",
    "postcode": "SW1H 0QU",
    "latitude": 51.49868944,
    "longitude": -0.13596343,
    "status": "open",
    "openingHours": "Mon: 06:30-18:00, Tue-Fri: 06:30-17:00, Sat-Sun: Closed",
    "phone": "+44 20 7799 6002",
    "brand": "pret"
  },
  {
    "id": "10197",
    "name": "Pret A Manger",
    "address": "Euston Station, P1",
    "city": "London",
    "postcode": "NW1 2SX",
    "latitude": 51.528334,
    "longitude": -0.1275658,
    "status": "open",
    "openingHours": "Mon-Sat: 05:00-23:00, Sun: 06:00-22:00",
    "phone": "+44 20 7932 5432",
    "brand": "pret"
  },
  {
    "id": "10369",
    "name": "Pret A Manger",
    "address": "19 Eastcheap",
    "city": "London",
    "postcode": "EC3M 1BU",
    "latitude": 51.5108879,
    "longitude": -0.0844184,
    "status": "open",
    "openingHours": "Mon-Wed: 06:00-19:30, Thu: 06:00-20:00, Fri: 06:00-19:00, Sat: 08:00-17:00, Sun: 08:00-17:30",
    "phone": "+44 20 7283 7261",
    "brand": "pret"
  },
  {
    "id": "239",
    "name": "Pret A Manger",
    "address": "Airside Departure Lounge, London-Luton Airport, Airport Way",
    "city": "Luton",
    "postcode": "LU2 9LY",
    "latitude": 51.88035783,
    "longitude": -0.37539066,
    "status": "open",
    "openingHours": "Mon-Sun: 03:00-22:00",
    "phone": "+44 1582 453398",
    "brand": "pret"
  },
  {
    "id": "14",
    "name": "Pret A Manger",
    "address": "298 Regent Street",
    "city": "London",
    "postcode": "W1B 3AP",
    "latitude": 51.516306,
    "longitude": -0.1420877,
    "status": "open",
    "openingHours": "Mon-Fri: 06:00-21:30, Sat: 06:30-20:30, Sun: 07:00-20:30",
    "phone": "+44 20 7580 3876",
    "brand": "pret"
  },
  {
    "id": "10374",
    "name": "Pret A Manger",
    "address": "167 Borough High Street",
    "city": "London",
    "postcode": "SE1 1HR",
    "latitude": 51.502713,
    "longitude": -0.09191,
    "status": "open",
    "openingHours": "Mon: 06:30-17:00, Tue-Thu: 06:00-17:00, Fri: 06:30-17:00, Sat-Sun: Closed",
    "phone": "+44 20 8001 7457",
    "brand": "pret"
  },
  {
    "id": "10366",
    "name": "Pret A Manger",
    "address": "37 Lower George Street",
    "city": "Richmond",
    "postcode": "TW9 1HY",
    "latitude": 51.4608931,
    "longitude": -0.3035163,
    "status": "open",
    "openingHours": "Mon-Fri: 06:00-18:30, Sat-Sun: 06:30-18:30",
    "phone": "+44 20 8332 1012",
    "brand": "pret"
  },
  {
    "id": "10375",
    "name": "Pret A Manger",
    "address": "20 Baker Street",
    "city": "London",
    "postcode": "W1U 3BY",
    "latitude": 51.5176734,
    "longitude": -0.1551687,
    "status": "open",
    "openingHours": "Mon: 06:30-18:30, Tue-Fri: 06:00-18:30, Sat: 07:00-18:30, Sun: 08:00-17:00",
    "phone": "+44 20 7486 1713",
    "brand": "pret"
  },
  {
    "id": "41",
    "name": "Pret A Manger",
    "address": "8-10 King Street, Hammersmith",
    "city": "London",
    "postcode": "W6 0QA",
    "latitude": 51.49307,
    "longitude": -0.22559,
    "status": "open",
    "openingHours": "Mon-Wed: 05:30-20:00, Thu-Fri: 06:00-20:00, Sat: 06:30-20:00, Sun: 07:00-19:00",
    "phone": "+44 20 7932 5252",
    "brand": "pret"
  },
  {
    "id": "10488",
    "name": "Pret A Manger",
    "address": "247-249 High Street",
    "city": "Exeter",
    "postcode": "EX4 3PZ",
    "latitude": 50.7250723,
    "longitude": -3.5285448,
    "status": "open",
    "openingHours": "Mon-Fri: 07:00-18:00, Sat: 07:00-18:30, Sun: 08:30-17:30",
    "phone": "+44 1392 459661",
    "brand": "pret"
  },
  {
    "id": "120",
    "name": "Pret A Manger",
    "address": "49 Tothill Street",
    "city": "London",
    "postcode": "SW1H 9LQ",
    "latitude": 51.4996039,
    "longitude": -0.1325016,
    "status": "open",
    "openingHours": "Mon-Thu: 05:30-22:00, Fri-Sun: 06:00-22:00",
    "phone": "+44 20 7932 5328",
    "brand": "pret"
  },
  {
    "id": "10475",
    "name": "Pret A Manger",
    "address": "121 Bethnal Green Road",
    "city": "London",
    "postcode": "E2 7DG",
    "latitude": 51.5249789,
    "longitude": -0.0718784,
    "status": "open",
    "openingHours": "Mon-Sun: 07:00-17:00",
    "phone": "+44 20 7739 0086",
    "brand": "pret"
  },
  {
    "id": "124",
    "name": "Pret A Manger",
    "address": "121 Putney High Street",
    "city": "London",
    "postcode": "SW15 1SU",
    "latitude": 51.46239,
    "longitude": -0.21622,
    "status": "open",
    "openingHours": "Mon-Fri: 06:00-18:30, Sat: 06:30-18:30, Sun: 07:30-17:30",
    "phone": "+44 20 8780 3150",
    "brand": "pret"
  },
  {
    "id": "10497",
    "name": "Pret A Manger",
    "address": "1 Portland Street",
    "city": "Manchester",
    "postcode": "M1 1RG",
    "latitude": 53.48053,
    "longitude": -2.23594,
    "status": "open",
    "openingHours": "Mon: 06:30-18:30, Tue-Thu: 06:30-19:00, Fri: 06:30-18:00, Sat: 08:00-18:00, Sun: Closed",
    "phone": "+44 161 228 6797",
    "brand": "pret"
  },
  {
    "id": "235",
    "name": "Pret A Manger",
    "address": "11 Haymarket",
    "city": "Norwich",
    "postcode": "NR2 1QD",
    "latitude": 52.6271497,
    "longitude": 1.293512,
    "status": "open",
    "openingHours": "Mon: 07:00-17:30, Tue-Fri: 06:30-17:30, Sat: 07:00-18:00, Sun: 07:30-17:30",
    "phone": "+44 117 370 5847",
    "brand": "pret"
  },
  {
    "id": "10236",
    "name": "Pret A Manger",
    "address": "21 Saint George Wharf, Vauxhall",
    "city": "London",
    "postcode": "SW8 2JW",
    "latitude": 51.48625,
    "longitude": -0.12483,
    "status": "open",
    "openingHours": "Mon-Fri: 05:30-20:00, Sat-Sun: 06:00-20:00",
    "phone": "+44 20 7932 5415",
    "brand": "pret"
  },
  {
    "id": "10470",
    "name": "Pret A Manger",
    "address": "240 Blackfriars Road",
    "city": "London",
    "postcode": "SE1 8NW",
    "latitude": 51.506604,
    "longitude": -0.1040824,
    "status": "open",
    "openingHours": "Mon-Thu: 06:00-18:00, Fri: 06:00-17:00, Sat-Sun: Closed",
    "phone": "+44 20 7620 4580",
    "brand": "pret"
  },
  {
    "id": "166",
    "name": "Pret A Manger",
    "address": "51 Hanover Street",
    "city": "Edinburgh",
    "postcode": "EH2 2PJ",
    "latitude": 55.95318276,
    "longitude": -3.19679578,
    "status": "open",
    "openingHours": "Mon-Sat: 07:00-18:00, Sun: 07:30-18:00",
    "phone": "+44 131 260 9727",
    "brand": "pret"
  },
  {
    "id": "282",
    "name": "Pret A Manger",
    "address": "39 Coventry Street",
    "city": "London",
    "postcode": "W1D 6BZ",
    "latitude": 51.5102973,
    "longitude": -0.1316134,
    "status": "open",
    "openingHours": "Mon-Fri: 06:00-22:30, Sat: 07:00-22:30, Sun: 07:00-20:00",
    "phone": "+44 20 3272 0090",
    "brand": "pret"
  },
  {
    "id": "250",
    "name": "Pret A Manger",
    "address": "47-49 Tooley Street",
    "city": "London",
    "postcode": "SE1 2QN",
    "latitude": 51.5055593,
    "longitude": -0.08499506,
    "status": "open",
    "openingHours": "Mon-Fri: 05:30-19:30, Sat-Sun: 07:00-19:30",
    "phone": "+44 20 7932 5366",
    "brand": "pret"
  },