[
  {
    "id": "sainsburys-0009",
    "name": "Pimlico",
    "address": "99 Wilton Road",
    "city": "London",
    "postcode": "SW1V 1DT",
    "latitude": 51.49302,
    "longitude": -0.14121,
    "status": "open",
    "openingHours": "Mon-Thu: 07:00-23:00, Fri: 07:00-22:00, Sat: 11:00-17:00, Sun: 07:00-23:00",
    "phone": "020 7931 8988",
    "brand": "sainsburys"
  },
  {
    "id": "sainsburys-0054",
    "name": "Dulwich",
    "address": "80 Dog Kennel Hill",
    "city": "London",
    "postcode": "SE22 8BB",
    "latitude": 51.46202,
    "longitude": -0.08496,
    "status": "open",
    "openingHours": "Mon-Fri: 07:00-23:00, Sat: 11:00-17:00, Sun: 07:00-23:00",
    "phone": "020 7738 4900",
    "brand": "sainsburys"
  },
  {
    "id": "sainsburys-0229",
    "name": "Cromwell Rd",
    "address": "158a Cromwell Road",
    "city": "London",
    "postcode": "SW7 4EJ",
    "latitude": 51.49527,
    "longitude": -0.18851,
    "status": "open",
    "openingHours": "Mon-Thu: 07:00-23:00, Fri: 07:00-22:00, Sat: 11:00-17:00, Sun: 07:00-23:00",
    "phone": "0207 373 8313",
    "brand": "sainsburys"
  },
  {
    "id": "sainsburys-0302",
    "name": "Kilburn",
    "address": "88-92 Kilburn High Road",
    "city": "London",
    "postcode": "NW6 4HS",
    "latitude": 51.53865,
    "longitude": -0.19403,
    "status": "open",
    "openingHours": "Mon-Fri: 07:00-22:00, Sat: 11:00-17:00, Sun: 07:00-22:00",
    "phone": "020 7328 3536",
    "brand": "sainsburys"
  },
  {
    "id": "sainsburys-0460",
    "name": "Whitechapel",
    "address": "1 Cambridge Heath Road",
    "city": "London",
    "postcode": "E1 5SD",
    "latitude": 51.5211,
    "longitude": -0.05864,
    "status": "open",
    "openingHours": "Mon-Fri: 07:00-23:00, Sat: 11:00-17:00, Sun: 07:00-23:00",
    "phone": "020 7247 2604",
    "brand": "sainsburys"
  },
  {
    "id": "sainsburys-0500",
    "name": "Islington",
    "address": "31-41 Liverpool Road",
    "city": "London",
    "postcode": "N1 0RW",
    "latitude": 51.5342,
    "longitude": -0.10773,
    "status": "open",
    "openingHours": "Mon-Thu: 07:00-23:00, Fri: 07:00-22:00, Sat: 11:00-17:00, Sun: 07:00-23:00",
    "phone": "020 7278 1789",
    "brand": "sainsburys"
  },
  {
    "id": "sainsburys-0526",
    "name": "Clapham Common",
    "address": "133 Clapham High Street",
    "city": "London",
    "postcode": "SW4 7SL",
    "latitude": 51.46207,
    "longitude": -0.13598,
    "status": "open",
    "openingHours": "Mon-Fri: 07:00-23:00, Sat: 11:00-17:00, Sun: 07:00-23:00",
    "phone": "020 7498 9396",
    "brand": "sainsburys"
  },
  {
    "id": "sainsburys-0539",
    "name": "Dalston",
    "address": "Dalston Cross Shopping Centre",
    "city": "London",
    "postcode": "E8 2LX",
    "latitude": 51.54743,
    "longitude": -0.07338,
    "status": "open",
    "openingHours": "Mon-Fri: 08:00-22:00, Sat: 11:00-17:00, Sun: 08:00-22:00",
    "phone": "020 7241 6942",
    "brand": "sainsburys"
  },
  {
    "id": "sainsburys-0612",
    "name": "Finchley Rd",
    "address": "02 Centre, 255 Finchley Road",
    "city": "London",
    "postcode": "NW3 6LU",
    "latitude": 51.54802,
    "longitude": -0.182,
    "status": "open",
    "openingHours": "Mon-Thu: 07:00-23:00, Fri: 07:00-22:00, Sat: 11:00-17:00, Sun: 07:00-23:00",
    "phone": "020 7433 1493",
    "brand": "sainsburys"
  },
  {
    "id": "sainsburys-0649",
    "name": "Camden",
    "address": "17-21 Camden Road",
    "city": "London",
    "postcode": "NW1 9LJ",
    "latitude": 51.54047,
    "longitude": -0.14085,
    "status": "open",
    "openingHours": "Mon-Thu: 07:00-23:00, Fri: 07:00-22:00, Sat: 11:00-17:00, Sun: 07:00-23:00",
    "phone": "020 7482 3828",
    "brand": "sainsburys"
  },
  {
    "id": "sainsburys-1525",
    "name": "Balham Ntgle Lne PFS",
    "address": "39 Nightingale Lane",
    "city": "London",
    "postcode": "SW12 8SY",
    "latitude": 51.45193,
    "longitude": -0.15295,
    "status": "open",
    "openingHours": "Mon-Thu: 07:00-23:00, Fri-Sat: 08:00-22:00, Sun: 07:00-23:00",
    "phone": "03300137835",
    "brand": "sainsburys"
  },
  {
    "id": "sainsburys-2019",
    "name": "Holborn LL",
    "address": "129-133 Kingsway",
    "city": "LONDON",
    "postcode": "WC2B 6NH",
    "latitude": 51.51742,
    "longitude": -0.12065,
    "status": "open",
    "openingHours": "Mon-Fri: 06:00-23:59, Sat: 12:00-18:00, Sun: 06:00-23:59",
    "phone": "03300137000",
    "brand": "sainsburys"
  },
  {
    "id": "sainsburys-2020",
    "name": "Tottenham Crt Rd LL",
    "address": "15-17 Tottenham Court Road",
    "city": "London",
    "postcode": "W1T 1BJ",
    "latitude": 51.51743,
    "longitude": -0.13143,
    "status": "open",
    "openingHours": "Mon-Fri: 06:00-23:59, Sat: 12:00-18:00, Sun: 06:00-23:59",
    "phone": "03300137001",
    "brand": "sainsburys"
  },
  {
    "id": "sainsburys-2055",
    "name": "Fulham Broadway",
    "address": "Fulham Broadway Retail Centre, Fulham Broadway",
    "city": "London",
    "postcode": "SW6 1BW",
    "latitude": 51.48102,
    "longitude": -0.19443,
    "status": "open",
    "openingHours": "Mon-Fri: 07:00-22:00, Sat: 12:00-18:00, Sun: 07:00-22:00",
    "phone": "020 7385 4712",
    "brand": "sainsburys"
  },
  {
    "id": "sainsburys-2316",
    "name": "Brixton",
    "address": "2 Tulse Hill, Brixton",
    "city": "London",
    "postcode": "SW2 2TP",
    "latitude": 51.45483,
    "longitude": -0.11399,
    "status": "open",
    "openingHours": "Mon-Fri: 07:00-23:00, Sat: 11:00-17:00, Sun: 07:00-23:00",
    "phone": "0203 1267399",
    "brand": "sainsburys"
  },
  {
    "id": "sainsburys-2499",
    "name": "Elephant and Castle",
    "address": "40 New Kent Road",
    "city": "London",
    "postcode": "SE1 6TJ",
    "latitude": 51.4947,
    "longitude": -0.09768,
    "status": "open",
    "openingHours": "Mon-Fri: 07:00-23:00, Sat: 11:00-17:00, Sun: 07:00-23:00",
    "phone": "0203 1266825",
    "brand": "sainsburys"
  },
  {
    "id": "sainsburys-2658",
    "name": "Fulham Wharf",
    "address": "27 Townmead Road, Fulham",
    "city": "London",
    "postcode": "SW6 2GD",
    "latitude": 51.46715,
    "longitude": -0.18708,
    "status": "open",
    "openingHours": "Mon-Fri: 07:00-22:00, Sat: 11:00-17:00, Sun: 07:00-22:00",
    "phone": "0203 1266840",
    "brand": "sainsburys"
  },
  {
    "id": "sainsburys-2665",
    "name": "Nine Elms",
    "address": "62 Wandsworth Road",
    "city": "London",
    "postcode": "SW8 2LF",
    "latitude": 51.48139,
    "longitude": -0.12808,
    "status": "open",
    "openingHours": "Mon-Fri: 07:00-23:00, Sat: 11:00-17:00, Sun: 07:00-23:00",
    "phone": "0203 1266826",
    "brand": "sainsburys"
  },
  {
    "id": "sainsburys-4003",
    "name": "Paddington Stn Loc Local",
    "address": "Station Concourse, Paddington Station",
    "city": "London",
    "postcode": "W2 1HB",
    "latitude": 51.51572,
    "longitude": -0.17678,
    "status": "open",
    "openingHours": "Mon-Sun: 06:00-00:00",
    "phone": "03300137006",
    "brand": "sainsburys"
  },
  {
    "id": "sainsburys-4005",
    "name": "Mornington Cres Loc Local",
    "address": "10-12 Camden High Street",
    "city": "London",
    "postcode": "NW1 0JH",
    "latitude": 51.53506,
    "longitude": -0.13865,
    "status": "open",
    "openingHours": "Mon-Sun: 07:00-23:59",
    "phone": "03300137007",
    "brand": "sainsburys"
  },
  {
    "id": "sainsburys-4006",
    "name": "Earls Court Loc Local",
    "address": "162-164 Earls Court Road",
    "city": "London",
    "postcode": "SW5 9QQ",
    "latitude": 51.49379,
    "longitude": -0.19514,
    "status": "open",
    "openingHours": "Mon-Sun: 07:00-23:00",
    "phone": "03300137008",
    "brand": "sainsburys"
  },
  {
    "id": "sainsburys-4007",
    "name": "Westbourne Grove Loc Local",
    "address": "86-94 Westbourne Grove",
    "city": "London",
    "postcode": "W2 5RT",
    "latitude": 51.51535,
    "longitude": -0.19362,
    "status": "open",
    "openingHours": "Mon-Sun: 07:00-00:00",
    "phone": "03300137009",
    "brand": "sainsburys"
  },
  {
    "id": "sainsburys-4011",
    "name": "Brxtn Station Loc Local",
    "address": "425 Brixton Road",
    "city": "London",
    "postcode": "SW9 8HE",
    "latitude": 51.46278,
    "longitude": -0.11468,
    "status": "open",
    "openingHours": "Mon-Thu: 06:00-23:59, Fri-Sat: 07:00-23:59, Sun: 06:00-23:59",
    "phone": "03300137011",
    "brand": "sainsburys"
  },
  {
    "id": "sainsburys-4013",
    "name": "Balham Hill Loc Local",
    "address": "21 Balham Hill",
    "city": "London",
    "postcode": "SW12 9DY",
    "latitude": 51.45241,
    "longitude": -0.1473,
    "status": "open",
    "openingHours": "Mon-Sun: 07:00-23:00",
    "phone": "03300137012",
    "brand": "sainsburys"
  },
  {
    "id": "sainsburys-4017",
    "name": "Wandsworth Rd Loc Local",
    "address": "646-650 Wandsworth Road",
    "city": "London",
    "postcode": "SW8 3SB",
    "latitude": 51.46648,
    "longitude": -0.15029,
    "status": "open",
    "openingHours": "Mon-Sun: 07:00-23:00",
    "phone": "03300137014",
    "brand": "sainsburys"
  },
  {
    "id": "sainsburys-4020",
    "name": "Beaufort St Loc Local",
    "address": "295-297 Fulham Road",
    "city": "London",
    "postcode": "SW10 9PZ",
    "latitude": 51.48708,
    "longitude": -0.17884,
    "status": "open",
    "openingHours": "Mon-Sun: 07:00-00:00",
    "phone": "03300137016",
    "brand": "sainsburys"
  },
  {
    "id": "sainsburys-4021",
    "name": "Battersea Park Loc Local",
    "address": "326 Battersea Park Road",
    "city": "London",
    "postcode": "SW11 3BX",
    "latitude": 51.47082,
    "longitude": -0.17031,
    "status": "open",
    "openingHours": "Mon-Sun: 07:00-23:00",
    "phone": "03300137017",
    "brand": "sainsburys"
  },
  {
    "id": "sainsburys-4022",
    "name": "Essex Rd Loc Local",
    "address": "325 Essex Road",
    "city": "London",
    "postcode": "N1 2YG",
    "latitude": 51.544,
    "longitude": -0.09018,
    "status": "open",
    "openingHours": "Mon-Sun: 07:00-23:00",
    "phone": "03300137018",
    "brand": "sainsburys"
  },
  {
    "id": "sainsburys-4026",
    "name": "Clapham Junction Loc Local",
    "address": "The Junction Shopping Centre, 20 St. John's Hill",
    "city": "London",
    "postcode": "SW11 1SA",
    "latitude": 51.4635,
    "longitude": -0.16905,
    "status": "open",
    "openingHours": "Mon-Sun: 06:00-23:00",
    "phone": "03300137021",
    "brand": "sainsburys"
  },
  {
    "id": "sainsburys-4028",
    "name": "Archway Loc Local",
    "address": "643-645 Holloway Road",
    "city": "London",
    "postcode": "N19 5SS",
    "latitude": 51.56436,
    "longitude": -0.13192,
    "status": "open",
    "openingHours": "Mon-Sun: 07:00-23:00",
    "phone": "03300137022",
    "brand": "sainsburys"
  },
  {
    "id": "sainsburys-4029",
    "name": "Sloane Ave Loc Local",
    "address": "75 Sloane Avenue",
    "city": "London",
    "postcode": "SW3 3DH",
    "latitude": 51.49221,
    "longitude": -0.16624,
    "status": "open",
    "openingHours": "Mon-Sun: 07:00-00:00",
    "phone": "03300137023",
    "brand": "sainsburys"
  },
  {
    "id": "sainsburys-4030",
    "name": "Chalk Farm Rd Loc Local",
    "address": "76-77 Chalk Farm Road",
    "city": "London",
    "postcode": "NW1 8AN",
    "latitude": 51.54353,
    "longitude": -0.15118,
    "status": "open",
    "openingHours": "Mon-Sun: 07:00-23:00",
    "phone": "03300137024",
    "brand": "sainsburys"
  },
  {
    "id": "sainsburys-4036",
    "name": "Fetter Lane Loc Local",
    "address": "60 Fetter Lane",
    "city": "London",
    "postcode": "EC4A 1AA",
    "latitude": 51.51757,
    "longitude": -0.10883,
    "status": "open",
    "openingHours": "Mon-Thu: 06:00-23:00, Fri: 07:00-23:00, Sat: 09:00-23:00, Sun: 06:00-23:00",
    "phone": "03300137025",
    "brand": "sainsburys"
  },
  {
    "id": "sainsburys-4042",
    "name": "Brompton Rd Loc Local",
    "address": "Moreau House, 112-120 Brompton Road",
    "city": "London",
    "postcode": "SW3 1JJ",
    "latitude": 51.49926,
    "longitude": -0.1648,
    "status": "open",
    "openingHours": "Mon-Fri: 07:00-00:00, Sat: 07:00-23:00, Sun: 07:00-00:00",
    "phone": "03300137029",
    "brand": "sainsburys"
  },
  {
    "id": "sainsburys-4044",
    "name": "Upper St Loc Local",
    "address": "317-318 Upper Street",
    "city": "London",
    "postcode": "N1 2XQ",
    "latitude": 51.53739,
    "longitude": -0.1027,
    "status": "open",
    "openingHours": "Mon-Sun: 07:00-23:00",
    "phone": "03300137030",
    "brand": "sainsburys"
  },
  {
    "id": "sainsburys-4055",
    "name": "Borough High St Loc Local",
    "address": "116-126 Borough High Street",
    "city": "London",
    "postcode": "SE1 1LB",
    "latitude": 51.50282,
    "longitude": -0.09226,
    "status": "open",
    "openingHours": "Mon-Fri: 07:00-00:00, Sat: 12:00-18:00, Sun: 07:00-00:00",
    "phone": "03300137035",
    "brand": "sainsburys"
  },
  {
    "id": "sainsburys-4061",
    "name": "Herne Hill Loc Local",
    "address": "132a Herne Hill",
    "city": "London",
    "postcode": "SE24 9QH",
    "latitude": 51.45336,
    "longitude": -0.10134,
    "status": "open",
    "openingHours": "Mon-Sun: 07:00-23:00",
    "phone": "03300137037",
    "brand": "sainsburys"
  },
  {
    "id": "sainsburys-4065",
    "name": "Victoria Place Loc Local",
    "address": "115 Buckingham Palace Road",
    "city": "London",
    "postcode": "SW1W 9SJ",
    "latitude": 51.49407,
    "longitude": -0.14596,
    "status": "open",
    "openingHours": "Mon-Sun: 06:00-23:00",
    "phone": "03300137038",
    "brand": "sainsburys"
  },
  {
    "id": "sainsburys-4073",
    "name": "Waterloo LL Local",
    "address": "101 Waterloo Road",
    "city": "London",
    "postcode": "SE1 8UL",
    "latitude": 51.50325,
    "longitude": -0.11077,
    "status": "open",
    "openingHours": "Mon-Fri: 00:00-23:59, Sat: 03:00-23:59, Sun: 00:00-23:59",
    "phone": "03300137039",
    "brand": "sainsburys"
  },
  {
    "id": "sainsburys-4083",
    "name": "Fortess Rd Loc Local",
    "address": "126-132 Fortess Road",
    "city": "London",
    "postcode": "NW5 2HP",
    "latitude": 51.55594,
    "longitude": -0.1389,
    "status": "open",
    "openingHours": "Mon-Sun: 07:00-23:00",
    "phone": "03300137043",
    "brand": "sainsburys"
  },
  {
    "id": "sainsburys-4088",
    "name": "Clapham High St Loc Local",
    "address": "33 Clapham High Street",
    "city": "London",
    "postcode": "SW4 7TP",
    "latitude": 51.46407,
    "longitude": -0.13131,
    "status": "open",
    "openingHours": "Mon-Sun: 07:00-23:00",
    "phone": "03300137045",
    "brand": "sainsburys"
  },
  {
    "id": "sainsburys-4104",
    "name": "Farringdon Loc Local",
    "address": "17-23 Farringdon Road",
    "city": "London",
    "postcode": "EC1M 3HA",
    "latitude": 51.51934,
    "longitude": -0.10583,
    "status": "open",
    "openingHours": "Mon-Fri: 07:00-23:00, Sat: 08:00-22:00, Sun: 07:00-23:00",
    "phone": "03300137053",
    "brand": "sainsburys"
  },
  {
    "id": "sainsburys-4124",
    "name": "Chls Rdclffe Gds Loc Local",
    "address": "268 Fulham Road",
    "city": "London",
    "postcode": "SW10 9EW",
    "latitude": 51.48412,
    "longitude": -0.18458,
    "status": "open",
    "openingHours": "Mon-Sun: 07:00-23:00",
    "phone": "03300137068",
    "brand": "sainsburys"
  },
  {
    "id": "sainsburys-4148",
    "name": "Wstmr Bkr St Est Loc Local",
    "address": "116 Baker Street",
    "city": "London",
    "postcode": "W1U 6TS",
    "latitude": 51.5212,
    "longitude": -0.15685,
    "status": "open",
    "openingHours": "Mon-Sun: 07:00-23:00",
    "phone": "03300137079",
    "brand": "sainsburys"
  },
  {
    "id": "sainsburys-4164",
    "name": "Sheldon Square Loc Local",
    "address": "12a Sheldon Square",
    "city": "London",
    "postcode": "W2 6EZ",
    "latitude": 51.51953,
    "longitude": -0.18035,
    "status": "open",
    "openingHours": "Mon-Thu: 07:00-22:00, Fri-Sat: 07:00-21:00, Sun: 07:00-22:00",
    "phone": "03300137085",
    "brand": "sainsburys"
  },
  {
    "id": "sainsburys-4165",
    "name": "Lombard St Loc Local",
    "address": "10-15 Lombard Street",
    "city": "London",
    "postcode": "EC3V 9AN",
    "latitude": 51.51265,
    "longitude": -0.08745,
    "status": "open",
    "openingHours": "Mon-Thu: 06:00-21:00, Fri-Sat: 08:00-18:00, Sun: 06:00-21:00",
    "phone": "03300137086",
    "brand": "sainsburys"
  },
  {
    "id": "sainsburys-4194",
    "name": "Kngtn Church St Loc Local",
    "address": "61-65 Kensington Church Street",
    "city": "London",
    "postcode": "W8 4BA",
    "latitude": 51.50421,
    "longitude": -0.1935,
    "status": "open",
    "openingHours": "Mon-Sun: 07:00-23:00",
    "phone": "03300137104",
    "brand": "sainsburys"
  },
  {
    "id": "sainsburys-4199",
    "name": "Lmbth Brixton Rd Loc Local",
    "address": "379 Brixton Road",
    "city": "London",
    "postcode": "SW9 7DE",
    "latitude": 51.46436,
    "longitude": -0.11406,
    "status": "open",
    "openingHours": "Mon-Sun: 07:00-23:00",
    "phone": "03300137107",
    "brand": "sainsburys"
  },
  {
    "id": "sainsburys-4204",
    "name": "The Cty Mnsn Hse Loc Local",
    "address": "Ormond House, 63 Queen Victoria Street",
    "city": "London",
    "postcode": "EC4N 4UA",
    "latitude": 51.51213,
    "longitude": -0.09422,
    "status": "open",
    "openingHours": "Mon-Thu: 06:00-21:30, Fri: 08:00-19:30, Sat: 09:00-19:00, Sun: 06:00-21:30",
    "phone": "03300137109",
    "brand": "sainsburys"
  },
  {
    "id": "sainsburys-4205",
    "name": "Caledonian Rd St Loc Local",
    "address": "465B Caledonian Road",
    "city": "London",
    "postcode": "N7 9BA",
    "latitude": 51.54824,
    "longitude": -0.11819,
    "status": "open",
    "openingHours": "Mon-Sun: 07:00-23:00",
    "phone": "03300137110",
    "brand": "sainsburys"
  },
  {
    "id": "sainsburys-0002",
    "name": "Stratford",
    "address": "38-40 The Mall, The Stratford Centre",
    "city": "London",
    "postcode": "E15 1XE",
    "latitude": 51.54189,
    "longitude": -0.00106,
    "status": "open",
    "openingHours": "Mon-Thu: 06:00-22:00, Fri: 07:00-22:00, Sat: 11:00-17:00, Sun: 06:00-22:00",
    "phone": "020 8534 7597",
    "brand": "sainsburys"
  },
  {
    "id": "sainsburys-0031",
    "name": "New Cross Gate",
    "address": "263d New Cross Road",
    "city": "London",
    "postcode": "SE14 5UQ",
    "latitude": 51.47716,
    "longitude": -0.04234,
    "status": "open",
    "openingHours": "Mon-Fri: 08:00-22:00, Sat: 11:00-17:00, Sun: 08:00-22:00",
    "phone": "020 7732 6433",
    "brand": "sainsburys"
  },
  {
    "id": "sainsburys-0692",
    "name": "New Cross Gate PFS",
    "address": "263d New Cross Road",
    "city": "London",
    "postcode": "SE14 5UQ",
    "latitude": 51.47521,
    "longitude": -0.04112,
    "status": "open",
    "openingHours": "Mon-Fri: 06:00-22:00, Sat: 08:00-20:00, Sun: 06:00-22:00",
    "phone": "03300138021",
    "brand": "sainsburys"
  },
  {
    "id": "sainsburys-1625",
    "name": "Charlton Riversd PFS",
    "address": "Peartree Way",
    "city": "London",
    "postcode": "SE10 0QJ",
    "latitude": 51.48796,
    "longitude": 0.01657,
    "status": "open",
    "openingHours": "Mon-Sun: 00:00-23:59",
    "phone": "03300137883",
    "brand": "sainsburys"
  },
  {
    "id": "sainsburys-4210",
    "name": "Twrhmts Mnsll St Loc Local",
    "address": "33 Mansell Street",
    "city": "London",
    "postcode": "E1 8AA",
    "latitude": 51.5133,
    "longitude": -0.07314,
    "status": "open",
    "openingHours": "Mon-Thu: 07:00-23:00, Fri-Sat: 08:00-23:00, Sun: 07:00-23:00",
    "phone": "03300137113",
    "brand": "sainsburys"
  },
  {
    "id": "sainsburys-4214",
    "name": "Wtmnr Gatliff Rd Loc Local",
    "address": "1 Gatliff Road",
    "city": "London",
    "postcode": "SW1W 8DT",
    "latitude": 51.48823,
    "longitude": -0.15058,
    "status": "open",
    "openingHours": "Mon-Fri: 07:00-22:00, Sat: 08:00-21:00, Sun: 07:00-22:00",
    "phone": "03300137117",
    "brand": "sainsburys"
  },
  {
    "id": "sainsburys-4221",
    "name": "Blmsby Soton Rov Loc Local",
    "address": "Victoria House, Southampton Row",
    "city": "London",
    "postcode": "WC1B 4DA",
    "latitude": 51.5192,
    "longitude": -0.12185,
    "status": "open",
    "openingHours": "Mon-Fri: 07:00-23:00, Sat: 07:00-22:30, Sun: 07:00-23:00",
    "phone": "03300137123",
    "brand": "sainsburys"
  },
  {
    "id": "sainsburys-4222",
    "name": "Lmbt Vauxhall Sn Loc Local",
    "address": "7-11 South Lambeth Place",
    "city": "London",
    "postcode": "SW8 1SP",
    "latitude": 51.48576,
    "longitude": -0.12335,
    "status": "open",
    "openingHours": "Mon-Thu: 06:00-23:00, Fri-Sat: 08:00-23:00, Sun: 06:00-23:00",
    "phone": "03300137124",
    "brand": "sainsburys"
  },
  {
    "id": "sainsburys-4223",
    "name": "Hckny Lwr Clptn LL Local",
    "address": "13 Lower Clapton Road",
    "city": "London",
    "postcode": "E5 0NS",
    "latitude": 51.55002,
    "longitude": -0.05426,
    "status": "open",
    "openingHours": "Mon-Fri: 07:00-23:00, Sat: 11:00-17:00, Sun: 07:00-23:00",
    "phone": "03300137125",
    "brand": "sainsburys"
  },
  {
    "id": "sainsburys-4248",
    "name": "Hckny Mare St Loc Local",
    "address": "27-31 Mare Street",
    "city": "London",
    "postcode": "E8 4RP",
    "latitude": 51.53559,
    "longitude": -0.05736,
    "status": "open",
    "openingHours": "Mon-Sun: 07:00-23:00",
    "phone": "03300137148",
    "brand": "sainsburys"
  },
  {
    "id": "sainsburys-4250",
    "name": "Lmbth The Cut Loc Local",
    "address": "55A The Cut",
    "city": "London",
    "postcode": "SE1 8LL",
    "latitude": 51.50289,
    "longitude": -0.10742,
    "status": "open",
    "openingHours": "Mon-Sun: 07:00-23:00",
    "phone": "03300137150",
    "brand": "sainsburys"
  },
  {
    "id": "sainsburys-4272",
    "name": "Ldn Gt Sufflk St Loc Local",
    "address": "Great Suffolk St",
    "city": "London",
    "postcode": "SE1 0UG",
    "latitude": 51.50528,
    "longitude": -0.10141,
    "status": "open",
    "openingHours": "Mon-Sun: 07:00-23:00",
    "phone": "03300137169",
    "brand": "sainsburys"
  },
  {
    "id": "sainsburys-4276",
    "name": "Grnwch Creek Rd Loc Local",
    "address": "73-75 Creek Road",
    "city": "London",
    "postcode": "SE8 3BU",
    "latitude": 51.48106,
    "longitude": -0.02178,
    "status": "open",
    "openingHours": "Mon-Sun: 07:00-23:00",
    "phone": "03300137173",
    "brand": "sainsburys"
  },
  {
    "id": "sainsburys-4279",
    "name": "Hkny Town Hall Loc Local",
    "address": "279 Mare Street",
    "city": "London",
    "postcode": "E8 1GR",
    "latitude": 51.54424,
    "longitude": -0.05562,
    "status": "open",
    "openingHours": "Mon-Sun: 07:00-23:00",
    "phone": "03300137176",
    "brand": "sainsburys"
  },
  {
    "id": "sainsburys-4280",
    "name": "Islgn St Jhns St Loc Local",
    "address": "301 St. John Street",
    "city": "London",
    "postcode": "EC1R 4AE",
    "latitude": 51.52795,
    "longitude": -0.10512,
    "status": "open",
    "openingHours": "Mon-Sun: 07:00-23:00",
    "phone": "03300137177",
    "brand": "sainsburys"
  },
  {
    "id": "sainsburys-4286",
    "name": "Wsmtr The Strand Loc Local",
    "address": "36-37 Strand",
    "city": "London",
    "postcode": "WC2N 5HY",
    "latitude": 51.50888,
    "longitude": -0.12438,
    "status": "open",
    "openingHours": "Mon-Sun: 07:00-23:00",
    "phone": "03300137182",
    "brand": "sainsburys"
  },
  {
    "id": "sainsburys-4293",
    "name": "Twrhmts Mile End Loc Local",
    "address": "420 Mile End Road",
    "city": "London",
    "postcode": "E1 4PE",
    "latitude": 51.52282,
    "longitude": -0.03944,
    "status": "open",
    "openingHours": "Mon-Sun: 07:00-23:59",
    "phone": "03300137189",
    "brand": "sainsburys"
  },
  {
    "id": "sainsburys-4303",
    "name": "Blmbry Brnswk Ct Loc Local",
    "address": "Unit 5, Brunswick Centre",
    "city": "London",
    "postcode": "WC1N 1BS",
    "latitude": 51.52378,
    "longitude": -0.12317,
    "status": "open",
    "openingHours": "Mon-Sun: 07:00-23:00",
    "phone": "03300137196",
    "brand": "sainsburys"
  },
  {
    "id": "sainsburys-4313",
    "name": "Isltn Pntnvle Rd Loc Local",
    "address": "266 Pentonville Road",
    "city": "London",
    "postcode": "N1 9JY",
    "latitude": 51.53105,
    "longitude": -0.12054,
    "status": "open",
    "openingHours": "Mon-Sun: 07:00-23:00",
    "phone": "03300137204",
    "brand": "sainsburys"
  },
  {
    "id": "sainsburys-4318",
    "name": "Cmbrwl Peckhm Rd Loc Local",
    "address": "37 - 41 Peckham Road, Camberwell",
    "city": "London",
    "postcode": "SE5 8UH",
    "latitude": 51.47396,
    "longitude": -0.08113,
    "status": "open",
    "openingHours": "Mon-Sun: 07:00-23:00",
    "phone": "03300137208",
    "brand": "sainsburys"
  },
  {
    "id": "sainsburys-4324",
    "name": "Twrhmts Allgd St Loc Local",
    "address": "242 Hackney Road",
    "city": "London",
    "postcode": "E2 7SJ",
    "latitude": 51.53081,
    "longitude": -0.07015,
    "status": "open",
    "openingHours": "Mon-Sun: 07:00-23:00",
    "phone": "03300137212",
    "brand": "sainsburys"
  },
  {
    "id": "sainsburys-4337",
    "name": "Wtrlo Blkfrs Rd loc Local",
    "address": "157 - 168 Blackfriars Road",
    "city": "London",
    "postcode": "SE1 8EZ",
    "latitude": 51.50162,
    "longitude": -0.10431,
    "status": "open",
    "openingHours": "Mon-Sun: 07:00-23:00",
    "phone": "03300137222",
    "brand": "sainsburys"
  },
  {
    "id": "sainsburys-4338",
    "name": "Shoreditch Statn Loc Local",
    "address": "31-42 Bethnal Green Road, Hackney",
    "city": "London",
    "postcode": "E1 6JW",
    "latitude": 51.52403,
    "longitude": -0.07332,
    "status": "open",
    "openingHours": "Mon-Sun: 07:00-23:00",
    "phone": "03300137223",
    "brand": "sainsburys"
  },
  {
    "id": "sainsburys-4342",
    "name": "Twrhmts Leman St Loc Local",
    "address": "Goodmans Fields",
    "city": "London",
    "postcode": "E1 8EJ",
    "latitude": 51.51328,
    "longitude": -0.06985,
    "status": "open",
    "openingHours": "Mon-Thu: 07:00-23:00, Fri-Sat: 08:00-23:00, Sun: 07:00-23:00",
    "phone": "03300137226",
    "brand": "sainsburys"
  },
  {
    "id": "sainsburys-0011",
    "name": "Lee Grn",
    "address": "14 Burnt Ash Road",
    "city": "London",
    "postcode": "SE12 8PZ",
    "latitude": 51.45582,
    "longitude": 0.01042,
    "status": "open",
    "openingHours": "Mon-Fri: 07:00-22:00, Sat: 11:00-17:00, Sun: 07:00-22:00",
    "phone": "020 8318 5313",
    "brand": "sainsburys"
  },
  {
    "id": "sainsburys-0014",
    "name": "East Ham",
    "address": "2-10 Myrtle Road",
    "city": "London",
    "postcode": "E6 1HU",
    "latitude": 51.53406,
    "longitude": 0.05238,
    "status": "open",
    "openingHours": "Mon-Fri: 08:00-20:00, Sat: 11:00-17:00, Sun: 08:00-20:00",
    "phone": "020 8503 4997",
    "brand": "sainsburys"
  },
  {
    "id": "sainsburys-0037",
    "name": "Lewisham",
    "address": "Unit 33, Lewisham Centre",
    "city": "London",
    "postcode": "SE13 7EP",
    "latitude": 51.46174,
    "longitude": -0.01272,
    "status": "open",
    "openingHours": "Mon-Fri: 07:00-20:00, Sat: 11:00-17:00, Sun: 07:00-20:00",
    "phone": "020 8318 3042",
    "brand": "sainsburys"
  },
  {
    "id": "sainsburys-0336",
    "name": "Woolwich",
    "address": "25 Calderwood Street",
    "city": "London",
    "postcode": "SE18 6QW",
    "latitude": 51.49099,
    "longitude": 0.06372,
    "status": "open",
    "openingHours": "Mon-Fri: 07:00-21:00, Sat: 11:00-17:00, Sun: 07:00-21:00",
    "phone": "020 8317 8025",
    "brand": "sainsburys"
  },
  {
    "id": "sainsburys-0563",
    "name": "Beckton PFS",
    "address": "1 Claps Gate Lane",
    "city": "London",
    "postcode": "E6 6JF",
    "latitude": 51.52161,
    "longitude": 0.0692,
    "status": "open",
    "openingHours": "Mon-Sun: 06:00-23:00",
    "phone": "03300137845",
    "brand": "sainsburys"
  },
  {
    "id": "sainsburys-0569",
    "name": "Beckton",
    "address": "1 Claps Gate Lane",
    "city": "London",
    "postcode": "E6 6JF",
    "latitude": 51.52137,
    "longitude": 0.06601,
    "status": "open",
    "openingHours": "Mon-Fri: 08:00-23:00, Sat: 11:00-17:00, Sun: 08:00-23:00",
    "phone": "0203 1267390",
    "brand": "sainsburys"
  },
  {
    "id": "sainsburys-2625",
    "name": "Charlton Riverside",
    "address": "Charlton Riverside Place, 7-11 Gallions Road",
    "city": "London",
    "postcode": "SE7 7FA",
    "latitude": 51.48861,
    "longitude": 0.02618,
    "status": "open",
    "openingHours": "Mon-Fri: 07:00-23:00, Sat: 11:00-17:00, Sun: 07:00-23:00",
    "phone": "0203 1267410",
    "brand": "sainsburys"
  },
  {
    "id": "sainsburys-4245",
    "name": "Leyton High Rd Loc Local",
    "address": "297 High Road Leyton",
    "city": "London",
    "postcode": "E10 5QN",
    "latitude": 51.55959,
    "longitude": -0.00898,
    "status": "open",
    "openingHours": "Mon-Sun: 07:00-23:00",
    "phone": "03300137146",
    "brand": "sainsburys"
  },
  {
    "id": "sainsburys-4361",
    "name": "Brckly Mntle Crt Loc Local",
    "address": "209-211 Mantle Road",
    "city": "London",
    "postcode": "SE4 2EW",
    "latitude": 51.46384,
    "longitude": -0.03909,
    "status": "open",
    "openingHours": "Mon-Sun: 07:00-23:00",
    "phone": "03300137242",
    "brand": "sainsburys"
  },
  {
    "id": "sainsburys-4375",
    "name": "Thts Brmly Bw Sn Loc Local",
    "address": "Block D, The Plaza, Devas Street, Bromley by Bow",
    "city": "London",
    "postcode": "E3 3QE",
    "latitude": 51.52441,
    "longitude": -0.0118,
    "status": "open",
    "openingHours": "Mon-Sun: 07:00-23:00",
    "phone": "03300137253",
    "brand": "sainsburys"
  },
  {
    "id": "sainsburys-4378",
    "name": "Stepny Green Stn Loc Local",
    "address": "3 - 5 Globe Road",
    "city": "London",
    "postcode": "E1 4DT",
    "latitude": 51.52213,
    "longitude": -0.04679,
    "status": "open",
    "openingHours": "Mon-Sun: 07:00-23:00",
    "phone": "03300137256",
    "brand": "sainsburys"
  },
  {
    "id": "sainsburys-4428",
    "name": "Charlton Station Loc Local",
    "address": "33 - 37 Charlton Church Lane",
    "city": "Charlton",
    "postcode": "SE7 7AG",
    "latitude": 51.48662,
    "longitude": 0.03239,
    "status": "open",
    "openingHours": "Mon-Sun: 07:00-23:00",
    "phone": "03300137298",
    "brand": "sainsburys"
  },
  {
    "id": "sainsburys-4451",
    "name": "Hkny Hoxton Stn Loc Local",
    "address": "112/118 Kingland Road",
    "city": "London",
    "postcode": "E2 8DP",
    "latitude": 51.53027,
    "longitude": -0.077,
    "status": "open",
    "openingHours": "Mon-Sun: 07:00-23:00",
    "phone": "03300137318",
    "brand": "sainsburys"
  },
  {
    "id": "sainsburys-4461",
    "name": "Ldn Bell Lane Loc Local",
    "address": "31 Bell Lane",
    "city": "London",
    "postcode": "E1 7LA",
    "latitude": 51.51776,
    "longitude": -0.07632,
    "status": "open",
    "openingHours": "Mon-Sun: 07:00-23:00",
    "phone": "03300137327",
    "brand": "sainsburys"
  },
  {
    "id": "sainsburys-4463",
    "name": "Nw Crs Lwsham Wy Loc Local",
    "address": "33-35 Lewisham Way",
    "city": "London",
    "postcode": "SE14 6PP",
    "latitude": 51.47509,
    "longitude": -0.03481,
    "status": "open",
    "openingHours": "Mon-Sun: 07:00-23:00",
    "phone": "03300137329",
    "brand": "sainsburys"
  },
  {
    "id": "sainsburys-4467",
    "name": "Lmhse Comrcl Rd Loc Local",
    "address": "516 Commercial Road",
    "city": "London",
    "postcode": "E1 0HY",
    "latitude": 51.5129,
    "longitude": -0.04281,
    "status": "open",
    "openingHours": "Mon-Sun: 07:00-23:00",
    "phone": "03300137332",
    "brand": "sainsburys"
  },
  {
    "id": "sainsburys-4538",
    "name": "Cannon St Stn Loc Local",
    "address": "89 Cannon Street",
    "city": "London",
    "postcode": "EC4N 6HA",
    "latitude": 51.5112,
    "longitude": -0.08885,
    "status": "open",
    "openingHours": "Mon-Thu: 07:00-23:00, Fri: 08:00-19:00, Sat: 10:00-16:00, Sun: 07:00-23:00",
    "phone": "03300137368",
    "brand": "sainsburys"
  },
  {
    "id": "sainsburys-4539",
    "name": "Canada Water Stn Loc Local",
    "address": "30 - 32 Surrey Quays Road",
    "city": "London",
    "postcode": "SE16 7ED",
    "latitude": 51.49855,
    "longitude": -0.04959,
    "status": "open",
    "openingHours": "Mon-Fri: 06:00-23:59, Sat: 12:00-18:00, Sun: 06:00-23:59",
    "phone": "03300137369",
    "brand": "sainsburys"
  },
  {
    "id": "sainsburys-4543",
    "name": "Stkw Brmdsy Spa loc Local",
    "address": "19 Spa Road",
    "city": "London",
    "postcode": "SE16 3SA",
    "latitude": 51.4957,
    "longitude": -0.07412,
    "status": "open",
    "openingHours": "Mon-Sun: 07:00-23:00",
    "phone": "03300137371",
    "brand": "sainsburys"
  },
  {
    "id": "sainsburys-4544",
    "name": "Bermondsey Statn Loc Local",
    "address": "192 - 196 Jamaica Road, Bermondsey",
    "city": "London",
    "postcode": "SE16 4RT",
    "latitude": 51.4982,
    "longitude": -0.0614,
    "status": "open",
    "openingHours": "Mon-Sun: 07:00-23:00",
    "phone": "03300137372",
    "brand": "sainsburys"
  },
  {
    "id": "sainsburys-4545",
    "name": "Swk Tw Brdge Rd Loc Local",
    "address": "1A Queen Elizabeth Street, Southwark",
    "city": "London",
    "postcode": "SE1 2RY",
    "latitude": 51.50304,
    "longitude": -0.07737,
    "status": "open",
    "openingHours": "Mon-Fri: 07:00-23:00, Sat: 08:00-22:30, Sun: 07:00-23:00",
    "phone": "03300137373",
    "brand": "sainsburys"
  },
  {
    "id": "sainsburys-4553",
    "name": "Stwk Grt Dovr St Loc Local",
    "address": "58 Great Dover Street",
    "city": "London",
    "postcode": "SE1 4YF",
    "latitude": 51.49746,
    "longitude": -0.08993,
    "status": "open",
    "openingHours": "Mon-Sun: 07:00-23:00",
    "phone": "03300137381",
    "brand": "sainsburys"
  },
  {
    "id": "sainsburys-0124",
    "name": "New Barnet",
    "address": "66 East Barnet Road",
    "city": "Barnet",
    "postcode": "EN4 8RQ",
    "latitude": 51.64941,
    "longitude": -0.17163,
    "status": "open",
    "openingHours": "Mon-Fri: 07:00-22:00, Sat: 10:00-16:00, Sun: 07:00-22:00",
    "phone": "020 8449 9929",
    "brand": "sainsburys"
  },
  {
    "id": "sainsburys-0163",
    "name": "Muswell Hill",
    "address": "12 Fortis Green Road",
    "city": "London",
    "postcode": "N10 3HN",
    "latitude": 51.59002,
    "longitude": -0.14537,
    "status": "open",
    "openingHours": "Mon-Fri: 07:00-22:00, Sat: 11:00-17:00, Sun: 07:00-22:00",
    "phone": "020 8444 8839",
    "brand": "sainsburys"
  },
  {
    "id": "sainsburys-0406",
    "name": "Harringay",
    "address": "Williamson Road",
    "city": "London",
    "postcode": "N4 1UJ",
    "latitude": 51.57721,
    "longitude": -0.09568,
    "status": "open",
    "openingHours": "Mon-Thu: 07:00-23:00, Fri: 07:00-22:00, Sat: 11:00-17:00, Sun: 07:00-23:00",
    "phone": "02088096065",
    "brand": "sainsburys"
  },
  {
    "id": "sainsburys-0420",
    "name": "Winchmore Hill",
    "address": "681 Green Lanes",
    "city": "London",
    "postcode": "N21 3RS",
    "latitude": 51.62942,
    "longitude": -0.09845,
    "status": "open",
    "openingHours": "Mon-Thu: 07:30-22:00, Fri: 07:00-22:00, Sat: 10:00-16:00, Sun: 07:30-22:00",
    "phone": "020 8364 1211",
    "brand": "sainsburys"
  },
  {
    "id": "sainsburys-0483",
    "name": "Harringay PFS",
    "address": "Williamson Road",
    "city": "London",
    "postcode": "N4 1UJ",
    "latitude": 51.5772,
    "longitude": -0.09674,
    "status": "open",
    "openingHours": "Mon-Sun: 06:00-23:00",
    "phone": "03300137952",
    "brand": "sainsburys"
  },
  {
    "id": "sainsburys-0513",
    "name": "North Finchley",
    "address": "836 High Road",
    "city": "London",
    "postcode": "N12 9RE",
    "latitude": 51.61788,
    "longitude": -0.17619,
    "status": "open",
    "openingHours": "Mon-Wed: 08:30-20:00, Thu: 08:30-21:00, Fri: 08:30-20:00, Sat: 11:00-17:00, Sun: 08:30-20:00",
    "phone": "020 8446 2655",
    "brand": "sainsburys"
  },
  {
    "id": "sainsburys-2045",
    "name": "Highlands Village",
    "address": "1 Florey Square",
    "city": "London",
    "postcode": "N21 1UJ",
    "latitude": 51.6457,
    "longitude": -0.11107,
    "status": "open",
    "openingHours": "Mon-Fri: 07:00-21:00, Sat: 11:00-17:00, Sun: 07:00-21:00",
    "phone": "020 8360 2568",
    "brand": "sainsburys"
  },
  {
    "id": "sainsburys-2118",
    "name": "Wood Grn",
    "address": "54-58 High Road",
    "city": "London",
    "postcode": "N22 6BX",
    "latitude": 51.59248,
    "longitude": -0.10529,
    "status": "open",
    "openingHours": "Mon-Fri: 07:00-23:00, Sat: 11:00-17:00, Sun: 07:00-23:00",
    "phone": "020 8365 8271",
    "brand": "sainsburys"
  },
  {
    "id": "sainsburys-2306",
    "name": "Tottenham",
    "address": "28-48 Northumberland Park, Tottenham",
    "city": "London",
    "postcode": "N17 0TX",
    "latitude": 51.6061,
    "longitude": -0.06706,
    "status": "open",
    "openingHours": "Mon-Fri: 08:00-22:00, Sat: 11:00-17:00, Sun: 08:00-22:00",
    "phone": "0207 866 2994",
    "brand": "sainsburys"
  },
  {
    "id": "sainsburys-2332",
    "name": "Hornsey",
    "address": "Smithfield Square, High Street Hornsey",
    "city": "London",
    "postcode": "N8 7SA",
    "latitude": 51.58853,
    "longitude": -0.11743,
    "status": "open",
    "openingHours": "Mon-Fri: 08:00-22:00, Sat: 11:00-17:00, Sun: 08:00-22:00",
    "phone": "0203 1266819",
    "brand": "sainsburys"
  },
  {
    "id": "sainsburys-4212",
    "name": "Higte Archway Rd Loc Local",
    "address": "260-268 Archway Road",
    "city": "London",
    "postcode": "N6 5AX",
    "latitude": 51.57503,
    "longitude": -0.14233,
    "status": "open",
    "openingHours": "Mon-Sun: 07:00-23:00",
    "phone": "03300137115",
    "brand": "sainsburys"
  },
  {
    "id": "sainsburys-4277",
    "name": "Totnhm High Rd Loc Local",
    "address": "669-673 High Road",
    "city": "London",
    "postcode": "N17 8AD",
    "latitude": 51.60027,
    "longitude": -0.06815,
    "status": "open",
    "openingHours": "Mon-Sun: 07:00-23:00",
    "phone": "03300137174",
    "brand": "sainsburys"
  },
  {
    "id": "sainsburys-4289",
    "name": "Ckfsts Hddn Ct Loc Local",
    "address": "2-4 Heddon Court Parade, Cockfosters Road",
    "city": "Barnet",
    "postcode": "EN4 0DB",
    "latitude": 51.64819,
    "longitude": -0.14787,
    "status": "open",
    "openingHours": "Mon-Sun: 07:00-22:00",
    "phone": "03300137185",
    "brand": "sainsburys"
  },
  {
    "id": "sainsburys-4290",
    "name": "Hrngy Wst Grn Rd Loc Local",
    "address": "333-337 West Green Road",
    "city": "London",
    "postcode": "N15 3PB",
    "latitude": 51.58599,
    "longitude": -0.09226,
    "status": "open",
    "openingHours": "Mon-Sun: 07:00-23:00",
    "phone": "03300137186",
    "brand": "sainsburys"
  },
  {
    "id": "sainsburys-4292",
    "name": "Tnhm Lordship Ln Loc Local",
    "address": "421 Lordship Lane",
    "city": "London",
    "postcode": "N17 6AG",
    "latitude": 51.59783,
    "longitude": -0.09172,
    "status": "open",
    "openingHours": "Mon-Sun: 07:00-23:00",
    "phone": "03300137188",
    "brand": "sainsburys"
  },
  {
    "id": "sainsburys-4299",
    "name": "Tnhm Svn Sts Stn Loc Local",
    "address": "3-7 West Green Road",
    "city": "London",
    "postcode": "N15 5BX",
    "latitude": 51.58383,
    "longitude": -0.07318,
    "status": "open",
    "openingHours": "Mon-Sun: 07:00-23:00",
    "phone": "03300137193",
    "brand": "sainsburys"
  },
  {
    "id": "sainsburys-4310",
    "name": "Hckny Wdbery Dwn Loc Local",
    "address": "147 Woodberry Grove",
    "city": "London",
    "postcode": "N4 2SB",
    "latitude": 51.57163,
    "longitude": -0.08967,
    "status": "open",
    "openingHours": "Mon-Sun: 07:00-23:00",
    "phone": "03300137201",
    "brand": "sainsburys"
  },
  {
    "id": "sainsburys-4412",
    "name": "Enfield Ldn Rd Loc Local",
    "address": "1-2 Clock Parade, London Road",
    "city": "Enfield",
    "postcode": "EN2 6JG",
    "latitude": 51.6458,
    "longitude": -0.08051,
    "status": "open",
    "openingHours": "Mon-Fri: 07:00-23:00, Sat: 08:00-20:00, Sun: 07:00-23:00",
    "phone": "03300137286",
    "brand": "sainsburys"
  },
  {
    "id": "sainsburys-4435",
    "name": "Fncly Rgnts Pk R Loc Local",
    "address": "Winston House, 2 Dollis Park Road, Finchley",
    "city": "London",
    "postcode": "N3 1HF",
    "latitude": 51.60055,
    "longitude": -0.19503,
    "status": "open",
    "openingHours": "Mon-Sun: 07:00-23:00",
    "phone": "0330 013 7305",
    "brand": "sainsburys"
  },
  {
    "id": "sainsburys-4477",
    "name": "Fbury Pk Strd Gn Loc Local",
    "address": "Unit A, Vista House, 17 Stroud Green Road",
    "city": "London",
    "postcode": "N4 3FB",
    "latitude": 51.56647,
    "longitude": -0.10762,
    "status": "open",
    "openingHours": "Mon-Sun: 07:00-23:00",
    "phone": "03300137339",
    "brand": "sainsburys"
  },
  {
    "id": "sainsburys-4876",
    "name": "Plmrs Grn Grn Ls Loc Local",
    "address": "342-344 Green Lanes",
    "city": "London",
    "postcode": "N13 5TW",
    "latitude": 51.61987,
    "longitude": -0.10647,
    "status": "open",
    "openingHours": "Mon-Sun: 07:00-23:00",
    "phone": "03300137561",
    "brand": "sainsburys"
  },
  {
    "id": "sainsburys-4878",
    "name": "L'don Wood Green Loc Local",
    "address": "Unit 4, Hollywood Green, 180 High Road",
    "city": "London",
    "postcode": "N22 6EJ",
    "latitude": 51.59677,
    "longitude": -0.10887,
    "status": "open",
    "openingHours": "Mon-Sun: 07:00-23:00",
    "phone": "03300137563",
    "brand": "sainsburys"
  },
  {
    "id": "sainsburys-4952",
    "name": "Ldn Arnos Grove Loc Local",
    "address": "376-378 Bowes Road",
    "city": "London",
    "postcode": "N11 1AH",
    "latitude": 51.6164,
    "longitude": -0.13568,
    "status": "open",
    "openingHours": "Mon-Sun: 07:00-23:00",
    "phone": "03300137621",
    "brand": "sainsburys"
  },
  {
    "id": "sainsburys-4977",
    "name": "Ldn Crouch Hill Loc Local",
    "address": "175-179 Stroud Green Road",
    "city": "London",
    "postcode": "N4 3PZ",
    "latitude": 51.57041,
    "longitude": -0.11492,
    "status": "open",
    "openingHours": "Mon-Sun: 07:00-23:59",
    "phone": "03300137641",
    "brand": "sainsburys"
  },
  {
    "id": "sainsburys-4978",
    "name": "Enfield Bush Prk Loc Local",
    "address": "131 St. Marks Road",
    "city": "Enfield",
    "postcode": "EN1 1BA",
    "latitude": 51.64179,
    "longitude": -0.06917,
    "status": "open",
    "openingHours": "Mon-Fri: 07:00-23:00, Sat: 08:00-22:00, Sun: 07:00-23:00",
    "phone": "03300137642",
    "brand": "sainsburys"
  },
  {
    "id": "sainsburys-5136",
    "name": "Archway Station Local",
    "address": "14 Junction Road, Islington",
    "city": "London",
    "postcode": "N19 5RQ",
    "latitude": 51.56488,
    "longitude": -0.13528,
    "status": "open",
    "openingHours": "Mon-Sun: 07:00-23:00",
    "phone": "0345 600 4262",
    "brand": "sainsburys"
  },
  {
    "id": "sainsburys-5163",
    "name": "CROUCH END BRDWY LOC Local",
    "address": "21-23 The Broadway, Crouch End, Haringey",
    "city": "London",
    "postcode": "N8 8DU",
    "latitude": 51.57907,
    "longitude": -0.12404,
    "status": "open",
    "openingHours": "Mon-Fri: 07:00-23:00, Sat: 11:00-17:00, Sun: 07:00-23:00",
    "phone": "0345 013 0541",
    "brand": "sainsburys"
  },
  {
    "id": "sainsburys-6114",
    "name": "E Fnchly High Rd Loc Local",
    "address": "132 High Road, East Finchley",
    "city": "London",
    "postcode": "N2 9ED",
    "latitude": 51.59085,
    "longitude": -0.16438,
    "status": "open",
    "openingHours": "Mon-Sun: 07:00-23:00",
    "phone": "0330 013 7722",
    "brand": "sainsburys"
  },
  {
    "id": "sainsburys-6498",
    "name": "Enfld Lancstr Rd Loc Local",
    "address": "70/72 Lancaster Road, Enfield",
    "city": "London",
    "postcode": "EN2 0BX",
    "latitude": 51.66356,
    "longitude": -0.07963,
    "status": "open",
    "openingHours": "Mon-Sun: 07:00-23:00",
    "phone": "03300137800",
    "brand": "sainsburys"
  },
  {
    "id": "sainsburys-10110420",
    "name": "Winchmore Hill",
    "address": "681 Green Lanes",
    "city": "LONDON",
    "postcode": "N21 3RS",
    "latitude": 51.62942,
    "longitude": -0.09845,
    "status": "open",
    "openingHours": "Mon-Wed: 10:00-18:00, Thu: 09:00-18:00, Fri: 09:00-17:00, Sat: 10:00-16:00, Sun: 10:00-18:00",
    "phone": "0345 0130612",
    "brand": "sainsburys"
  },
  {
    "id": "sainsburys-10210124",
    "name": "New Barnet",
    "address": "66 East Barnet Road",
    "city": "Barnet",
    "postcode": "EN4 8RQ",
    "latitude": 51.64941,
    "longitude": -0.17163,
    "status": "open",
    "openingHours": "Mon-Fri: 08:00-20:00, Sat: 10:00-16:00, Sun: 08:00-20:00",
    "phone": "03458508820",
    "brand": "sainsburys"
  },
  {
    "id": "sainsburys-10210406",
    "name": "Harringay",
    "address": "Williamson Road",
    "city": "London",
    "postcode": "N4 1UJ",
    "latitude": 51.57721,
    "longitude": -0.09568,
    "status": "open",
    "openingHours": "Mon-Fri: 08:00-20:00, Sat: 11:00-17:00, Sun: 08:00-20:00",
    "phone": "020 8809 6065",
    "brand": "sainsburys"
  },
  {
    "id": "sainsburys-10210420",
    "name": "Winchmore Hill",
    "address": "681 Green Lanes",
    "city": "London",
    "postcode": "N21 3RS",
    "latitude": 51.62942,
    "longitude": -0.09845,
    "status": "open",
    "openingHours": "Mon-Fri: 08:00-20:00, Sat: 10:00-16:00, Sun: 08:00-20:00",
    "phone": "020 8364 1211",
    "brand": "sainsburys"
  },
  {
    "id": "sainsburys-10210513",
    "name": "North Finchley",
    "address": "836 High Road",
    "city": "London",
    "postcode": "N12 9RE",
    "latitude": 51.61788,
    "longitude": -0.17619,
    "status": "open",
    "openingHours": "Mon-Fri: 08:30-20:00, Sat: 11:00-17:00, Sun: 08:30-20:00",
    "phone": "020 8446 2655",
    "brand": "sainsburys"
  },
  {
    "id": "sainsburys-10212306",
    "name": "Tottenham",
    "address": "28-48 Northumberland Park, Tottenham",
    "city": "London",
    "postcode": "N17 0TX",
    "latitude": 51.6061,
    "longitude": -0.06706,
    "status": "open",
    "openingHours": "Mon-Thu: 08:00-21:00, Fri: 08:00-20:00, Sat: 11:00-17:00, Sun: 08:00-21:00",
    "phone": "0208 8856798",
    "brand": "sainsburys"
  },
  {
    "id": "sainsburys-10212332",
    "name": "Hornsey",
    "address": "Smithfield Square, High Street Hornsey",
    "city": "London",
    "postcode": "N8 7SA",
    "latitude": 51.58853,
    "longitude": -0.11743,
    "status": "open",
    "openingHours": "Mon-Fri: 08:00-20:00, Sat: 11:00-17:00, Sun: 08:00-20:00",
    "phone": "0203 1266819",
    "brand": "sainsburys"
  },
  {
    "id": "sainsburys-0033",
    "name": "Chingford",
    "address": "13 Hall Lane",
    "city": "London",
    "postcode": "E4 8HH",
    "latitude": 51.61658,
    "longitude": -0.01931,
    "status": "open",
    "openingHours": "Mon-Fri: 08:00-20:00, Sat: 10:00-16:00, Sun: 08:00-20:00",
    "phone": "020 8529 1204",
    "brand": "sainsburys"
  },
  {
    "id": "sainsburys-0095",
    "name": "Enfield PFS",
    "address": "3 Crown Road",
    "city": "Enfield",
    "postcode": "EN1 1TH",
    "latitude": 51.65315,
    "longitude": -0.05785,
    "status": "open",
    "openingHours": "Mon-Sun: 06:00-22:00",
    "phone": "03300137930",
    "brand": "sainsburys"
  },
  {
    "id": "sainsburys-0108",
    "name": "Low Hall PFS",
    "address": "11 Walthamstow Avenue",
    "city": "London",
    "postcode": "E4 8ST",
    "latitude": 51.60336,
    "longitude": -0.0177,
    "status": "open",
    "openingHours": "Mon-Sun: 06:00-22:00",
    "phone": "03300138003",
    "brand": "sainsburys"
  },
  {
    "id": "sainsburys-0207",
    "name": "Walthamstow",
    "address": "112 High Street",
    "city": "London",
    "postcode": "E17 7JY",
    "latitude": 51.58256,
    "longitude": -0.02734,
    "status": "open",
    "openingHours": "Mon-Thu: 08:00-21:00, Fri: 07:30-21:00, Sat: 11:00-17:00, Sun: 08:00-21:00",
    "phone": "020 8521 6113",
    "brand": "sainsburys"
  },
  {
    "id": "sainsburys-0433",
    "name": "Low Hall",
    "address": "11 Walthamstow Avenue",
    "city": "London",
    "postcode": "E4 8ST",
    "latitude": 51.60425,
    "longitude": -0.02071,
    "status": "open",
    "openingHours": "Mon-Fri: 07:00-23:00, Sat: 10:30-16:30, Sun: 07:00-23:00",
    "phone": "020 8523 2617",
    "brand": "sainsburys"
  },
  {
    "id": "sainsburys-0444",
    "name": "Enfield",
    "address": "3 Crown Road",
    "city": "Enfield",
    "postcode": "EN1 1TH",
    "latitude": 51.65196,
    "longitude": -0.05762,
    "status": "open",
    "openingHours": "Mon-Thu: 07:00-23:00, Fri: 07:00-22:00, Sat: 10:00-16:00, Sun: 07:00-23:00",
    "phone": "020 8805 5209",
    "brand": "sainsburys"
  },
  {
    "id": "sainsburys-4438",
    "name": "Fbury Pk Blkstck Loc Local",
    "address": "29-31 Blackstock Road",
    "city": "London",
    "postcode": "N4 2JF",
    "latitude": 51.5641,
    "longitude": -0.10302,
    "status": "open",
    "openingHours": "Mon-Sun: 07:00-22:00",
    "phone": "03300137308",
    "brand": "sainsburys"
  },
  {
    "id": "sainsburys-4571",
    "name": "Hkny Clisold Qtr Loc Local",
    "address": "255 - 259 Green Lanes",
    "city": "London",
    "postcode": "N4 2UX",
    "latitude": 51.5634,
    "longitude": -0.09188,
    "status": "open",
    "openingHours": "Mon-Sun: 07:00-23:00",
    "phone": "03300137397",
    "brand": "sainsburys"
  },
  {
    "id": "sainsburys-10110433",
    "name": "Low Hall",
    "address": "11 Walthamstow Avenue",
    "city": "LONDON",
    "postcode": "E4 8ST",
    "latitude": 51.60425,
    "longitude": -0.02071,
    "status": "open",
    "openingHours": "Mon-Wed: 10:00-18:00, Thu: 09:00-18:00, Fri: 09:00-17:00, Sat: 10:30-16:30, Sun: 10:00-18:00",
    "phone": "0345 6005838",
    "brand": "sainsburys"
  },
  {
    "id": "sainsburys-10110444",
    "name": "Enfield",
    "address": "3 Crown Road",
    "city": "ENFIELD",
    "postcode": "EN1 1TH",
    "latitude": 51.65196,
    "longitude": -0.05762,
    "status": "open",
    "openingHours": "Mon-Wed: 10:00-16:00, Thu: 09:00-18:00, Fri: 10:00-16:00, Sat: 11:00-16:00, Sun: 10:00-16:00",
    "phone": "0345 0130585",
    "brand": "sainsburys"
  },
  {
    "id": "sainsburys-10210207",
    "name": "Walthamstow",
    "address": "112 High Street",
    "city": "London",
    "postcode": "E17 7JY",
    "latitude": 51.58256,
    "longitude": -0.02734,
    "status": "open",
    "openingHours": "Mon-Fri: 08:00-20:00, Sat: 11:00-17:00, Sun: 08:00-20:00",
    "phone": "020 8521 6113",
    "brand": "sainsburys"
  },
  {
    "id": "sainsburys-10210433",
    "name": "Low Hall",
    "address": "11 Walthamstow Avenue",
    "city": "London",
    "postcode": "E4 8ST",
    "latitude": 51.60425,
    "longitude": -0.02071,
    "status": "open",
    "openingHours": "Mon-Thu: 08:00-21:30, Fri: 08:00-22:00, Sat: 10:30-16:30, Sun: 08:00-21:30",
    "phone": "020 8523 2617",
    "brand": "sainsburys"
  },
  {
    "id": "sainsburys-10210444",
    "name": "Enfield",
    "address": "3 Crown Road",
    "city": "Enfield",
    "postcode": "EN1 1TH",
    "latitude": 51.65196,
    "longitude": -0.05762,
    "status": "open",
    "openingHours": "Mon-Thu: 08:00-22:00, Fri: 08:00-21:00, Sat: 10:00-16:00, Sun: 08:00-22:00",
    "phone": "020 8805 5209",
    "brand": "sainsburys"
  },
  {
    "id": "sainsburys-0119",
    "name": "South Woodford",
    "address": "176 George Lane",
    "city": "London",
    "postcode": "E18 1AY",
    "latitude": 51.59346,
    "longitude": 0.024,
    "status": "open",
    "openingHours": "Mon-Wed: 08:00-21:00, Thu: 08:00-22:00, Fri: 07:00-21:00, Sat: 11:00-17:00, Sun: 08:00-21:00",
    "phone": "020 8989 8224",
    "brand": "sainsburys"
  },
  {
    "id": "sainsburys-2111",
    "name": "Loughton",
    "address": "Old Station Road",
    "city": "Loughton",
    "postcode": "IG10 4PE",
    "latitude": 51.64334,
    "longitude": 0.05261,
    "status": "open",
    "openingHours": "Mon-Tue: 07:30-21:00, Wed-Thu: 07:30-22:00, Fri: 07:30-21:00, Sat: 10:00-16:00, Sun: 07:30-21:00",
    "phone": "020 8508 6681",
    "brand": "sainsburys"
  },
  {
    "id": "sainsburys-4447",
    "name": "Wdfrd Grn Brdway Loc Local",
    "address": "27-28 The Broadway",
    "city": "Woodford Green",
    "postcode": "IG8 0HQ",
    "latitude": 51.60796,
    "longitude": 0.03376,
    "status": "open",
    "openingHours": "Mon-Sun: 07:00-23:00",
    "phone": "03300137314",
    "brand": "sainsburys"
  },
  {
    "id": "sainsburys-4489",
    "name": "Lytnstn Chrh Lne Loc Local",
    "address": "14-15 Church Lane",
    "city": "London",
    "postcode": "E11 1HG",
    "latitude": 51.56831,
    "longitude": 0.00959,
    "status": "open",
    "openingHours": "Mon-Sun: 07:00-23:00",
    "phone": "03300137351",
    "brand": "sainsburys"
  },
  {
    "id": "sainsburys-6557",
    "name": "Lytn Midland Stn Loc Local",
    "address": "640 High Road Leyton",
    "city": "London",
    "postcode": "E10 6RN",
    "latitude": 51.5691,
    "longitude": -0.00815,
    "status": "open",
    "openingHours": "Mon-Sun: 07:00-23:00",
    "phone": "03300137811",
    "brand": "sainsburys"
  },
  {
    "id": "sainsburys-10210119",
    "name": "South Woodford",
    "address": "TBC",
    "city": "London",
    "postcode": "TBC",
    "latitude": 51.59346,
    "longitude": 0.024,
    "status": "open",
    "openingHours": "Mon-Fri: 08:00-20:00, Sat: 11:00-17:00, Sun: 08:00-20:00",
    "phone": "020 8989 8224",
    "brand": "sainsburys"
  },
  {
    "id": "sainsburys-10212111",
    "name": "Loughton",
    "address": "Old Station Road",
    "city": "Loughton",
    "postcode": "IG10 4PE",
    "latitude": 51.64334,
    "longitude": 0.05261,
    "status": "open",
    "openingHours": "Mon-Fri: 08:00-20:00, Sat: 10:00-16:00, Sun: 08:00-20:00",
    "phone": "020 8508 6681",
    "brand": "sainsburys"
  },
  {
    "id": "sainsburys-0769",
    "name": "Waltham Cross",
    "address": "72 The Pavilion, High Street",
    "city": "Waltham Cross",
    "postcode": "EN8 7BZ",
    "latitude": 51.68678,
    "longitude": -0.03249,
    "status": "open",
    "openingHours": "Mon-Thu: 08:00-18:00, Fri: 07:30-18:00, Sat: 10:00-16:00, Sun: 08:00-18:00",
    "phone": "01992 719930",
    "brand": "sainsburys"
  },
  {
    "id": "sainsburys-10210769",
    "name": "Waltham Cross",
    "address": "72 The Pavilion, High Street",
    "city": "Waltham Cross",
    "postcode": "EN8 7BZ",
    "latitude": 51.68678,
    "longitude": -0.03249,
    "status": "open",
    "openingHours": "Mon-Fri: 08:00-18:00, Sat: 10:00-16:00, Sun: 08:00-18:00",
    "phone": "01992 719930",
    "brand": "sainsburys"
  },
  {
    "id": "sainsburys-0067",
    "name": "Debden",
    "address": "12 Torrington Drive",
    "city": "Loughton",
    "postcode": "IG10 3SZ",
    "latitude": 51.64635,
    "longitude": 0.08201,
    "status": "open",
    "openingHours": "Mon-Fri: 07:00-21:00, Sat: 10:00-16:00, Sun: 07:00-21:00",
    "phone": "020 8508 3122",
    "brand": "sainsburys"
  },
  {
    "id": "sainsburys-6490",
    "name": "Lghtn Church Hil Loc Local",
    "address": "Church Hill",
    "city": "Loughton",
    "postcode": "IG10 1QR",
    "latitude": 51.6551,
    "longitude": 0.06601,
    "status": "open",
    "openingHours": "Mon-Sun: 07:00-23:00",
    "phone": "03300137794",
    "brand": "sainsburys"
  },
  {
    "id": "sainsburys-0024",
    "name": "Streatham Common",
    "address": "480 Streatham High Road",
    "city": "London",
    "postcode": "SW16 3PY",
    "latitude": 51.41949,
    "longitude": -0.12938,
    "status": "open",
    "openingHours": "Mon-Thu: 07:00-23:00, Fri: 07:00-22:00, Sat: 11:00-17:00, Sun: 07:00-23:00",
    "phone": "020 8764 0435",
    "brand": "sainsburys"
  },
  {
    "id": "sainsburys-0052",
    "name": "Purley Way",
    "address": "Trafalgar Way",
    "city": "Croydon",
    "postcode": "CR0 4XT",
    "latitude": 51.37575,
    "longitude": -0.11778,
    "status": "open",
    "openingHours": "Mon-Fri: 07:00-22:00, Sat: 11:00-17:00, Sun: 07:00-22:00",
    "phone": "020 8681 5800",
    "brand": "sainsburys"
  },
  {
    "id": "sainsburys-0157",
    "name": "Purley Way PFS",
    "address": "Drury Crescent",
    "city": "Croydon",
    "postcode": "CR0 4XT",
    "latitude": 51.37517,
    "longitude": -0.11752,
    "status": "open",
    "openingHours": "Mon-Fri: 07:00-22:00, Sat: 10:00-22:00, Sun: 07:00-22:00",
    "phone": "03300138048",
    "brand": "sainsburys"
  },
  {
    "id": "sainsburys-0228",
    "name": "Beckenham",
    "address": "181 High Street",
    "city": "Beckenham",
    "postcode": "BR3 1AH",
    "latitude": 51.40591,
    "longitude": -0.03063,
    "status": "open",
    "openingHours": "Mon-Fri: 07:00-22:00, Sat: 10:00-16:00, Sun: 07:00-22:00",
    "phone": "020 8650 8246",
    "brand": "sainsburys"
  },
  {
    "id": "sainsburys-0394",
    "name": "Merton PFS",
    "address": "1 Merton High Street",
    "city": "London",
    "postcode": "SW19 1DD",
    "latitude": 51.41439,
    "longitude": -0.18262,
    "status": "open",
    "openingHours": "Mon-Sun: 06:00-22:00",
    "phone": "03300138013",
    "brand": "sainsburys"
  },
  {
    "id": "sainsburys-0404",
    "name": "Forest Hill",
    "address": "34-48 London Road",
    "city": "London",
    "postcode": "SE23 3HF",
    "latitude": 51.43995,
    "longitude": -0.05556,
    "status": "open",
    "openingHours": "Mon-Fri: 07:00-22:00, Sat: 12:00-18:00, Sun: 07:00-22:00",
    "phone": "020 8699 7977",
    "brand": "sainsburys"
  },
  {
    "id": "sainsburys-0506",
    "name": "Balham",
    "address": "147-151 Balham High Road",
    "city": "LONDON",
    "postcode": "SW12 9AU",
    "latitude": 51.44427,
    "longitude": -0.15192,
    "status": "open",
    "openingHours": "Mon-Fri: 07:00-22:00, Sat: 11:00-17:00, Sun: 07:00-22:00",
    "phone": "020 8675 1162",
    "brand": "sainsburys"
  },
  {
    "id": "sainsburys-0507",
    "name": "Crystal Palace",
    "address": "120-122 Whitehorse Lane",
    "city": "London",
    "postcode": "SE25 6XB",
    "latitude": 51.3986,
    "longitude": -0.08699,
    "status": "open",
    "openingHours": "Mon-Fri: 07:00-22:00, Sat: 11:00-17:00, Sun: 07:00-22:00",
    "phone": "020 8653 7640",
    "brand": "sainsburys"
  },
  {
    "id": "sainsburys-0565",
    "name": "Sydenham PFS",
    "address": "Southend Lane",
    "city": "London",
    "postcode": "SE26 4PU",
    "latitude": 51.42891,
    "longitude": -0.03318,
    "status": "open",
    "openingHours": "Mon-Fri: 07:00-23:59, Sat: 07:00-23:00, Sun: 07:00-23:59",
    "phone": "03300138091",
    "brand": "sainsburys"
  },
  {
    "id": "sainsburys-0566",
    "name": "Merton",
    "address": "1 Merton High Street",
    "city": "London",
    "postcode": "SW19 1DD",
    "latitude": 51.41512,
    "longitude": -0.18154,
    "status": "open",
    "openingHours": "Mon-Fri: 07:00-23:00, Sat: 11:00-17:00, Sun: 07:00-23:00",
    "phone": "0203 1267310",
    "brand": "sainsburys"
  },
  {
    "id": "sainsburys-0693",
    "name": "Sydenham",
    "address": "Southend Lane",
    "city": "London",
    "postcode": "SE26 4PU",
    "latitude": 51.43012,
    "longitude": -0.03341,
    "status": "open",
    "openingHours": "Mon-Fri: 07:00-23:59, Sat: 11:00-17:00, Sun: 07:00-23:59",
    "phone": "0203 1267260",
    "brand": "sainsburys"
  },
  {
    "id": "sainsburys-1507",
    "name": "Crystal Palace PFS",
    "address": "120-122 Whitehorse Lane",
    "city": "London",
    "postcode": "SE25 6XB",
    "latitude": 51.39881,
    "longitude": -0.0878,
    "status": "open",
    "openingHours": "Mon-Sun: 06:00-23:00",
    "phone": "03300137900",
    "brand": "sainsburys"
  },
  {
    "id": "sainsburys-2012",
    "name": "Penge",
    "address": "158-162 High Street",
    "city": "London",
    "postcode": "SE20 7QS",
    "latitude": 51.41279,
    "longitude": -0.05135,
    "status": "open",
    "openingHours": "Mon-Thu: 07:00-22:00, Fri: 07:00-21:00, Sat: 11:00-17:00, Sun: 07:00-22:00",
    "phone": "020 8776 5570",
    "brand": "sainsburys"
  },
  {
    "id": "sainsburys-2029",
    "name": "Tooting",
    "address": "71-77 Tooting High Street",
    "city": "London",
    "postcode": "SW17 0RN",
    "latitude": 51.42705,
    "longitude": -0.16803,
    "status": "open",
    "openingHours": "Mon-Fri: 06:00-23:00, Sat: 11:00-17:00, Sun: 06:00-23:00",
    "phone": "020 8767 6809",
    "brand": "sainsburys"
  },
  {
    "id": "sainsburys-2131",
    "name": "Upper Norwood",
    "address": "66 Westow Street",
    "city": "London",
    "postcode": "SE19 3RW",
    "latitude": 51.41794,
    "longitude": -0.08266,
    "status": "open",
    "openingHours": "Mon-Thu: 08:00-21:00, Fri: 07:30-21:00, Sat: 11:00-17:00, Sun: 08:00-21:00",
    "phone": "020 8916 3371",
    "brand": "sainsburys"
  },
  {
    "id": "sainsburys-4010",
    "name": "Streatham Loc Local",
    "address": "172-176 Streatham High Road",
    "city": "LONDON",
    "postcode": "SW16 1BJ",
    "latitude": 51.43246,
    "longitude": -0.12931,
    "status": "open",
    "openingHours": "Mon-Sun: 07:00-23:00",
    "phone": "03300137010",
    "brand": "sainsburys"
  },
  {
    "id": "sainsburys-4099",
    "name": "Streatham Hill Loc Local",
    "address": "47a Streatham Hill",
    "city": "London",
    "postcode": "SW2 4TS",
    "latitude": 51.44056,
    "longitude": -0.12508,
    "status": "open",
    "openingHours": "Mon-Sun: 06:30-23:00",
    "phone": "03300137049",
    "brand": "sainsburys"
  },
  {
    "id": "sainsburys-4139",
    "name": "Brixton Hill Loc Local",
    "address": "266-270 Brixton Hill",
    "city": "London",
    "postcode": "SW2 1HP",
    "latitude": 51.44692,
    "longitude": -0.12454,
    "status": "open",
    "openingHours": "Mon-Sun: 07:00-23:00",
    "phone": "03300137075",
    "brand": "sainsburys"
  },
  {
    "id": "sainsburys-4254",
    "name": "S Nrwd Prtlnd Rd Loc Local",
    "address": "112 Portland Road",
    "city": "London",
    "postcode": "SE25 4PJ",
    "latitude": 51.39585,
    "longitude": -0.06904,
    "status": "open",
    "openingHours": "Mon-Sun: 07:00-23:00",
    "phone": "03300137153",
    "brand": "sainsburys"
  },
  {
    "id": "sainsburys-4295",
    "name": "Crydn High St Loc Local",
    "address": "59 High Street",
    "city": "Croydon",
    "postcode": "CR0 1QD",
    "latitude": 51.37177,
    "longitude": -0.1003,
    "status": "open",
    "openingHours": "Mon-Sun: 07:00-23:00",
    "phone": "03300137190",
    "brand": "sainsburys"
  },
  {
    "id": "sainsburys-4297",
    "name": "Lwshm Sdnhm Rd Loc Local",
    "address": "313-315 Kirkdale, Sydenham",
    "city": "London",
    "postcode": "SE26 4QB",
    "latitude": 51.42687,
    "longitude": -0.05524,
    "status": "open",
    "openingHours": "Mon-Sun: 07:00-23:00",
    "phone": "03300137191",
    "brand": "sainsburys"
  },
  {
    "id": "sainsburys-4325",
    "name": "Crydn W Crydn St Loc Local",
    "address": "9-11 London Road",
    "city": "Croydon",
    "postcode": "CR0 2RE",
    "latitude": 51.37853,
    "longitude": -0.10337,
    "status": "open",
    "openingHours": "Mon-Sun: 07:00-23:00",
    "phone": "03300137213",
    "brand": "sainsburys"
  },
  {
    "id": "sainsburys-4349",
    "name": "Honor Oak Pk St Loc Local",
    "address": "57-59 Honor Oak Park",
    "city": "London",
    "postcode": "SE23 1EA",
    "latitude": 51.4494,
    "longitude": -0.04459,
    "status": "open",
    "openingHours": "Mon-Sun: 07:00-23:00",
    "phone": "03300137232",
    "brand": "sainsburys"
  },
  {
    "id": "sainsburys-4355",
    "name": "Brmly Bcknhm Rd Loc Local",
    "address": "185 - 205 Beckenham Road",
    "city": "Kent",
    "postcode": "BR3 4PT",
    "latitude": 51.40892,
    "longitude": -0.04192,
    "status": "open",
    "openingHours": "Mon-Sun: 07:00-23:00",
    "phone": "03300137238",
    "brand": "sainsburys"
  },
  {
    "id": "sainsburys-4362",
    "name": "Brmly Upr Elm Rd Loc Local",
    "address": "515-519 Upper Elmers End Road",
    "city": "Eden Park",
    "postcode": "BR3 3DE",
    "latitude": 51.39095,
    "longitude": -0.02803,
    "status": "open",
    "openingHours": "Mon-Sun: 07:00-23:00",
    "phone": "03300137243",
    "brand": "sainsburys"
  },
  {
    "id": "sainsburys-4437",
    "name": "Wnswth Bllvue Rd Loc Local",
    "address": "27-29 Bellevue Road",
    "city": "London",
    "postcode": "SW17 7EF",
    "latitude": 51.44416,
    "longitude": -0.16737,
    "status": "open",
    "openingHours": "Mon-Sun: 07:00-23:00",
    "phone": "03300137307",
    "brand": "sainsburys"
  },
  {
    "id": "sainsburys-4478",
    "name": "Brxtn Lambert Rd Loc Local",
    "address": "76 Brixton Hill",
    "city": "London",
    "postcode": "SW2 1QW",
    "latitude": 51.45542,
    "longitude": -0.11964,
    "status": "open",
    "openingHours": "Mon-Sun: 07:00-23:00",
    "phone": "03300137340",
    "brand": "sainsburys"
  },
  {
    "id": "sainsburys-4490",
    "name": "Clpm Pk Kings Av Loc Local",
    "address": "2 Mullins Place",
    "city": "London",
    "postcode": "SW4 8EU",
    "latitude": 51.44944,
    "longitude": -0.1308,
    "status": "open",
    "openingHours": "Mon-Sun: 07:00-23:00",
    "phone": "03300137352",
    "brand": "sainsburys"
  },
  {
    "id": "sainsburys-4525",
    "name": "Blhm Nghtngle Ln Loc Local",
    "address": "39 Nightingale Lane",
    "city": "London",
    "postcode": "SW12 8SY",
    "latitude": 51.45175,
    "longitude": -0.15278,
    "status": "open",
    "openingHours": "Mon-Thu: 07:00-23:00, Fri-Sat: 08:00-22:00, Sun: 07:00-23:00",
    "phone": "03300137358",
    "brand": "sainsburys"
  },
  {
    "id": "sainsburys-4533",
    "name": "East Croydon Stn Loc Local",
    "address": "12 - 16 Addiscombe Road",
    "city": "Croydon",
    "postcode": "CR0 0XT",
    "latitude": 51.375,
    "longitude": -0.09109,
    "status": "open",
    "openingHours": "Mon-Sun: 07:00-23:00",
    "phone": "03300137365",
    "brand": "sainsburys"
  },
  {
    "id": "sainsburys-4547",
    "name": "Clapham Nrth Stn Loc Local",
    "address": "399 - 407 Clapham Road",
    "city": "London",
    "postcode": "SW9 9BT",
    "latitude": 51.46551,
    "longitude": -0.12925,
    "status": "open",
    "openingHours": "Mon-Sun: 07:00-23:00",
    "phone": "03300137375",
    "brand": "sainsburys"
  },
  {
    "id": "sainsburys-4743",
    "name": "Sthm Mitcham Lne Loc Local",
    "address": "86 - 88 Mitcham Lane",
    "city": "London",
    "postcode": "SW16 6NR",
    "latitude": 51.42508,
    "longitude": -0.14078,
    "status": "open",
    "openingHours": "Mon-Sun: 07:00-23:00",
    "phone": "03300137493",
    "brand": "sainsburys"
  },
  {
    "id": "sainsburys-4823",
    "name": "Tooting Bec Loc Local",
    "address": "43 Tooting Bec Road",
    "city": "London",
    "postcode": "SW17 8BS",
    "latitude": 51.43538,
    "longitude": -0.15728,
    "status": "open",
    "openingHours": "Mon-Sun: 07:00-23:00",
    "phone": "03300137536",
    "brand": "sainsburys"
  },
  {
    "id": "sainsburys-4890",
    "name": "Stckwl Clpham Rd Loc Local",
    "address": "314 - 318 Clapham Road",
    "city": "London",
    "postcode": "SW9 9AE",
    "latitude": 51.47042,
    "longitude": -0.12506,
    "status": "open",
    "openingHours": "Mon-Sun: 07:00-23:00",
    "phone": "03300137574",
    "brand": "sainsburys"
  },
  {
    "id": "sainsburys-4931",
    "name": "West Norwood Loc Local",
    "address": "364-366 Norwood Road",
    "city": "London",
    "postcode": "SE27 9AA",
    "latitude": 51.43413,
    "longitude": -0.104,
    "status": "open",
    "openingHours": "Mon-Sun: 07:00-23:00",
    "phone": "03300137601",
    "brand": "sainsburys"
  },
  {
    "id": "sainsburys-4941",
    "name": "Addiscombe Loc Local",
    "address": "261 Lower Addiscombe Road",
    "city": "Croydon",
    "postcode": "CR0 6RD",
    "latitude": 51.38096,
    "longitude": -0.07199,
    "status": "open",
    "openingHours": "Mon-Sun: 07:00-23:00",
    "phone": "03300137610",
    "brand": "sainsburys"
  },
  {
    "id": "sainsburys-4943",
    "name": "Ldn East Dulwich Loc Local",
    "address": "357-361 Lordship Lane",
    "city": "London",
    "postcode": "SE22 8JJ",
    "latitude": 51.45004,
    "longitude": -0.075,
    "status": "open",
    "openingHours": "Mon-Sun: 07:00-23:00",
    "phone": "03300137612",
    "brand": "sainsburys"
  },
  {
    "id": "sainsburys-4949",
    "name": "Clapham Old Town Loc Local",
    "address": "53 Old Town",
    "city": "London",
    "postcode": "SW4 0JQ",
    "latitude": 51.46367,
    "longitude": -0.14091,
    "status": "open",
    "openingHours": "Mon-Sun: 07:00-23:00",
    "phone": "03300137618",
    "brand": "sainsburys"
  },
  {
    "id": "sainsburys-0048",
    "name": "Bromley",
    "address": "Walters Yard",
    "city": "Bromley",
    "postcode": "BR1 1TP",
    "latitude": 51.40666,
    "longitude": 0.01451,
    "status": "open",
    "openingHours": "Mon-Fri: 07:00-22:00, Sat: 11:00-17:00, Sun: 07:00-22:00",
    "phone": "020 8466 6959",
    "brand": "sainsburys"
  },
  {
    "id": "sainsburys-0416",
    "name": "West Wickham",
    "address": "76 Station Road",
    "city": "West Wickham",
    "postcode": "BR4 0PU",
    "latitude": 51.37681,
    "longitude": -0.01496,
    "status": "open",
    "openingHours": "Mon-Fri: 07:00-22:00, Sat: 10:00-16:00, Sun: 07:00-22:00",
    "phone": "020 8777 3759",
    "brand": "sainsburys"
  },
  {
    "id": "sainsburys-2130",
    "name": "Wickham High St",
    "address": "143-165 High Street",
    "city": "West Wickham",
    "postcode": "BR4 0LU",
    "latitude": 51.377,
    "longitude": -0.02177,
    "status": "open",
    "openingHours": "Mon-Thu: 07:00-22:00, Fri: 07:00-21:00, Sat: 11:00-17:00, Sun: 07:00-22:00",
    "phone": "020 3252 3089",
    "brand": "sainsburys"
  },
  {
    "id": "sainsburys-4014",
    "name": "Station Approach Loc Local",
    "address": "7 Station Approach, Hayes",
    "city": "Bromley",
    "postcode": "BR2 7EQ",
    "latitude": 51.37746,
    "longitude": 0.01106,
    "status": "open",
    "openingHours": "Mon-Sun: 07:00-23:00",
    "phone": "03300137013",
    "brand": "sainsburys"
  },
  {
    "id": "sainsburys-4426",
    "name": "Lwshm Grv Pk Stn Loc Local",
    "address": "342 Baring Road",
    "city": "London",
    "postcode": "SE12 0DU",
    "latitude": 51.43173,
    "longitude": 0.02104,
    "status": "open",
    "openingHours": "Mon-Sun: 06:00-23:00",
    "phone": "03300137296",
    "brand": "sainsburys"
  },
  {
    "id": "sainsburys-4888",
    "name": "Greenwich Hgh Rd Loc Local",
    "address": "231-235 Greenwich High Road",
    "city": "London",
    "postcode": "SE10 8NB",
    "latitude": 51.47908,
    "longitude": -0.01118,
    "status": "open",
    "openingHours": "Mon-Sun: 07:00-23:00",
    "phone": "03300137572",
    "brand": "sainsburys"
  },
  {
    "id": "sainsburys-5044",
    "name": "Kidbrooke Village LC Local",
    "address": "13 Pegler Square",
    "city": "London",
    "postcode": "SE3 9FW",
    "latitude": 51.46178,
    "longitude": 0.02761,
    "status": "open",
    "openingHours": "Mon-Fri: 07:00-23:00, Sat: 11:00-17:00, Sun: 07:00-23:00",
    "phone": "03300137662",
    "brand": "sainsburys"
  },
  {
    "id": "sainsburys-5048",
    "name": "Catford Statn AA Loc Local",
    "address": "Unit 2 Grosnr Ct Adenmore Rd",
    "city": "London",
    "postcode": "SE6 4RE",
    "latitude": 51.44482,
    "longitude": -0.02483,
    "status": "open",
    "openingHours": "Mon-Sun: 07:00-23:00",
    "phone": "03300137666",
    "brand": "sainsburys"
  },
  {
    "id": "sainsburys-5142",
    "name": "Deptford Station Loc Local",
    "address": "124 Deptford High Street",
    "city": "Deptford",
    "postcode": "SE8 4BW",
    "latitude": 51.47848,
    "longitude": -0.02587,
    "status": "open",
    "openingHours": "Mon-Sun: 07:00-23:00",
    "phone": "0345 013 0512",
    "brand": "sainsburys"
  },
  {
    "id": "sainsburys-5177",
    "name": "Lewisham Ladywell Rd Local",
    "address": "Unit A, 93-99 Ladywell Road",
    "city": "London",
    "postcode": "SE13 7JA",
    "latitude": 51.45667,
    "longitude": -0.0213,
    "status": "open",
    "openingHours": "Mon-Sun: 07:00-23:00",
    "phone": "0345 013 0548",
    "brand": "sainsburys"
  },
  {
    "id": "sainsburys-5186",
    "name": "Lewisham Lee High Rd Local",
    "address": "JS Ground Floor Retail Unit, 152A Lee High Road, Lewisham",
    "city": "London",
    "postcode": "SE13 5PR",
    "latitude": 51.45914,
    "longitude": -0.0035,
    "status": "open",
    "openingHours": "Mon-Sun: 07:00-23:00",
    "phone": "0345 600 4889",
    "brand": "sainsburys"
  },
  {
    "id": "sainsburys-6140",
    "name": "Lhm Loampit Vale Loc Local",
    "address": "Loampit Vale, Lewisham",
    "city": "London",
    "postcode": "SE13 7DJ",
    "latitude": 51.46441,
    "longitude": -0.0154,
    "status": "open",
    "openingHours": "Mon-Sun: 07:00-23:00",
    "phone": "03300137741",
    "brand": "sainsburys"
  },
  {
    "id": "sainsburys-6187",
    "name": "Lhm Brockley Stn Loc Local",
    "address": "180 Brockley Road, Lewisham",
    "city": "London",
    "postcode": "SE4 2RR",
    "latitude": 51.46454,
    "longitude": -0.03669,
    "status": "open",
    "openingHours": "Mon-Sun: 07:00-23:00",
    "phone": "03300137765",
    "brand": "sainsburys"
  },
  {
    "id": "sainsburys-6251",
    "name": "Bromley High St Loc Local",
    "address": "37/41 High Street, Bromley",
    "city": "London",
    "postcode": "BR1 1LE",
    "latitude": 51.40144,
    "longitude": 0.01661,
    "status": "open",
    "openingHours": "Mon-Sun: 07:00-23:00",
    "phone": "03300137782",
    "brand": "sainsburys"
  },
  {
    "id": "sainsburys-6494",
    "name": "Peckhm Queens Rd Loc Local",
    "address": "83 - 89 Queens Road",
    "city": "London",
    "postcode": "SE15 2EZ",
    "latitude": 51.47376,
    "longitude": -0.05889,
    "status": "open",
    "openingHours": "Mon-Sun: 07:00-23:00",
    "phone": "03300137798",
    "brand": "sainsburys"
  },
  {
    "id": "sainsburys-6555",
    "name": "Hither Green Stn Loc Local",
    "address": "9 Staplehurst Road",
    "city": "London",
    "postcode": "SE13 5ND",
    "latitude": 51.45293,
    "longitude": -0.00103,
    "status": "open",
    "openingHours": "Mon-Sun: 07:00-23:00",
    "phone": "03300137809",
    "brand": "sainsburys"
  },
  {
    "id": "sainsburys-10110011",
    "name": "Lee Green",
    "address": "14 Burnt Ash Road",
    "city": "LONDON",
    "postcode": "SE12 8PZ",
    "latitude": 51.45582,
    "longitude": 0.01042,
    "status": "open",
    "openingHours": "Mon-Wed: 10:00-16:00, Thu: 09:00-18:00, Fri: 10:00-16:00, Sat: 11:00-16:00, Sun: 10:00-16:00",
    "phone": "0345 0130958",
    "brand": "sainsburys"
  },
  {
    "id": "sainsburys-10110037",
    "name": "Lewisham",
    "address": "Unit 33, Lewisham Centre",
    "city": "LONDON",
    "postcode": "SE13 7EP",
    "latitude": 51.46174,
    "longitude": -0.01272,
    "status": "open",
    "openingHours": "Mon-Wed: 10:00-18:00, Thu: 09:00-18:00, Fri: 09:00-17:00, Sat: 11:00-17:00, Sun: 10:00-18:00",
    "phone": "0345 0130971",
    "brand": "sainsburys"
  },
  {
    "id": "sainsburys-10110054",
    "name": "Dulwich",
    "address": "80 Dog Kennel Hill",
    "city": "LONDON",
    "postcode": "SE22 8BB",
    "latitude": 51.46202,
    "longitude": -0.08496,
    "status": "open",
    "openingHours": "Mon-Wed: 10:00-16:00, Thu: 09:00-18:00, Fri: 10:00-16:00, Sat: 11:00-16:00, Sun: 10:00-16:00",
    "phone": "0345 0130977",
    "brand": "sainsburys"
  },
  {
    "id": "sainsburys-10110693",
    "name": "Sydenham",
    "address": "Southend Lane",
    "city": "LONDON",
    "postcode": "SE26 4PU",
    "latitude": 51.43012,
    "longitude": -0.03341,
    "status": "open",
    "openingHours": "Mon-Wed: 10:00-18:00, Thu: 09:00-18:00, Fri: 09:00-17:00, Sat: 11:00-17:00, Sun: 10:00-18:00",
    "phone": "0345 0131085",
    "brand": "sainsburys"
  },
  {
    "id": "sainsburys-10210011",
    "name": "Lee Green",
    "address": "14 Burnt Ash Road",
    "city": "London",
    "postcode": "SE12 8PZ",
    "latitude": 51.45582,
    "longitude": 0.01042,
    "status": "open",
    "openingHours": "Mon-Fri: 08:00-20:00, Sat: 11:00-17:00, Sun: 08:00-20:00",
    "phone": "020 8318 5313",
    "brand": "sainsburys"
  },
  {
    "id": "sainsburys-10210031",
    "name": "New Cross Gate",
    "address": "263d New Cross Road",
    "city": "London",
    "postcode": "SE14 5UQ",
    "latitude": 51.47716,
    "longitude": -0.04234,
    "status": "open",
    "openingHours": "Mon-Fri: 08:00-20:00, Sat: 11:00-17:00, Sun: 08:00-20:00",
    "phone": "020 7732 6433",
    "brand": "sainsburys"
  },
  {
    "id": "sainsburys-10210037",
    "name": "Lewisham",
    "address": "Unit 33, Lewisham Centre",
    "city": "London",
    "postcode": "SE13 7EP",
    "latitude": 51.46174,
    "longitude": -0.01272,
    "status": "open",
    "openingHours": "Mon-Fri: 08:00-20:00, Sat: 11:00-17:00, Sun: 08:00-20:00",
    "phone": "020 8318 3042",
    "brand": "sainsburys"
  },
  {
    "id": "sainsburys-10210048",
    "name": "Bromley",
    "address": "Walters Yard",
    "city": "Bromley",
    "postcode": "BR1 1TP",
    "latitude": 51.40666,
    "longitude": 0.01451,
    "status": "open",
    "openingHours": "Mon-Fri: 08:00-20:00, Sat: 11:00-17:00, Sun: 08:00-20:00",
    "phone": "020 8466 6959",
    "brand": "sainsburys"
  },
  {
    "id": "sainsburys-0007",
    "name": "Eltham",
    "address": "1a Philipot Path",
    "city": "London",
    "postcode": "SE9 5DL",
    "latitude": 51.45,
    "longitude": 0.05737,
    "status": "open",
    "openingHours": "Mon-Fri: 07:00-22:00, Sat: 10:00-16:00, Sun: 07:00-22:00",
    "phone": "020 8859 8700",
    "brand": "sainsburys"
  },
  {
    "id": "sainsburys-0171",
    "name": "Chislehurst",
    "address": "73 High Street",
    "city": "Chislehurst",
    "postcode": "BR7 5AG",
    "latitude": 51.41882,
    "longitude": 0.06651,
    "status": "open",
    "openingHours": "Mon-Fri: 07:00-22:00, Sat: 10:00-16:00, Sun: 07:00-22:00",
    "phone": "020 8467 5567",
    "brand": "sainsburys"
  },
  {
    "id": "sainsburys-0481",
    "name": "Eltham PFS",
    "address": "1a Philipot Path",
    "city": "London",
    "postcode": "SE9 5DL",
    "latitude": 51.45022,
    "longitude": 0.06,
    "status": "open",
    "openingHours": "Mon-Fri: 08:00-21:00, Sat: 09:00-19:00, Sun: 08:00-21:00",
    "phone": "03300137927",
    "brand": "sainsburys"
  },
  {
    "id": "sainsburys-4969",
    "name": "Petts W'd Stat'n Loc Local",
    "address": "11 Station Square, Petts Wood",
    "city": "Orpington",
    "postcode": "BR5 1LY",
    "latitude": 51.38971,
    "longitude": 0.07552,
    "status": "open",
    "openingHours": "Mon-Sun: 07:00-23:00",
    "phone": "03300137636",
    "brand": "sainsburys"
  },
  {
    "id": "sainsburys-10210693",
    "name": "Sydenham",
    "address": "Southend Lane",
    "city": "London",
    "postcode": "SE26 4PU",
    "latitude": 51.43012,
    "longitude": -0.03341,
    "status": "open",
    "openingHours": "Mon-Fri: 08:00-21:00, Sat: 11:00-17:00, Sun: 08:00-21:00",
    "phone": "0203 1267260",
    "brand": "sainsburys"
  },
  {
    "id": "sainsburys-2006",
    "name": "Wallington",
    "address": "2 Stafford Road",
    "city": "Wallington",
    "postcode": "SM6 9AA",
    "latitude": 51.35802,
    "longitude": -0.14778,
    "status": "open",
    "openingHours": "Mon-Fri: 07:00-22:00, Sat: 10:00-16:00, Sun: 07:00-22:00",
    "phone": "020 8773 2379",
    "brand": "sainsburys"
  },
  {
    "id": "sainsburys-2065",
    "name": "Selsdon",
    "address": "130 Addington Road",
    "city": "South Croydon",
    "postcode": "CR2 8LA",
    "latitude": 51.34241,
    "longitude": -0.0628,
    "status": "open",
    "openingHours": "Mon-Fri: 07:30-22:00, Sat: 10:00-16:00, Sun: 07:30-22:00",
    "phone": "020 8657 9397",
    "brand": "sainsburys"
  },
  {
    "id": "sainsburys-4184",
    "name": "Purley High St Loc Local",
    "address": "6-9 Purley Parade, High Street",
    "city": "Purley",
    "postcode": "CR8 2AB",
    "latitude": 51.33962,
    "longitude": -0.11442,
    "status": "open",
    "openingHours": "Mon-Sun: 07:00-23:00",
    "phone": "03300137096",
    "brand": "sainsburys"
  },
  {
    "id": "sainsburys-4278",
    "name": "Sttn Hckbrdge Sn Loc Local",
    "address": "168 London Road, Hackbridge",
    "city": "London",
    "postcode": "SM6 7AN",
    "latitude": 51.37922,
    "longitude": -0.1558,
    "status": "open",
    "openingHours": "Mon-Sun: 07:00-23:00",
    "phone": "03300137175",
    "brand": "sainsburys"
  },
  {
    "id": "sainsburys-4308",
    "name": "Crstn Stly Pk Rd Loc Local",
    "address": "132 Stanley Park Road",
    "city": "Carshalton",
    "postcode": "SM5 3JG",
    "latitude": 51.3551,
    "longitude": -0.16196,
    "status": "open",
    "openingHours": "Mon-Sun: 07:00-23:00",
    "phone": "03300137199",
    "brand": "sainsburys"
  },
  {
    "id": "sainsburys-4319",
    "name": "Wallington Stn Loc Local",
    "address": "93 Manor Road",
    "city": "Wallington",
    "postcode": "SM6 0AT",
    "latitude": 51.36088,
    "longitude": -0.14994,
    "status": "open",
    "openingHours": "Mon-Sun: 07:00-23:00",
    "phone": "03300137209",
    "brand": "sainsburys"
  },
  {
    "id": "sainsburys-4951",
    "name": "Tooting Mit Rd Loc Local",
    "address": "196 Mitcham Road",
    "city": "London",
    "postcode": "SW17 9NN",
    "latitude": 51.42314,
    "longitude": -0.16111,
    "status": "open",
    "openingHours": "Mon-Sun: 07:00-23:00",
    "phone": "03300137620",
    "brand": "sainsburys"
  },
  {
    "id": "sainsburys-4968",
    "name": "Carsh'tn High St Loc Local",
    "address": "52-56 High Street",
    "city": "Carshalton",
    "postcode": "SM5 3AG",
    "latitude": 51.36518,
    "longitude": -0.16078,
    "status": "open",
    "openingHours": "Mon-Sun: 07:00-23:00",
    "phone": "03300137635",
    "brand": "sainsburys"
  },
  {
    "id": "sainsburys-4973",
    "name": "Cr'don George St Loc Local",
    "address": "1-3 Suffolk House, George Street",
    "city": "Croydon",
    "postcode": "CR0 1PE",
    "latitude": 51.37399,
    "longitude": -0.09636,
    "status": "open",
    "openingHours": "Mon-Sun: 06:00-23:00",
    "phone": "03300137639",
    "brand": "sainsburys"
  },
  {
    "id": "sainsburys-5109",
    "name": "Strtham Greyhnd Lne Local",
    "address": "18-22 Greyhound Lane",
    "city": "London",
    "postcode": "SW16 5SD",
    "latitude": 51.41871,
    "longitude": -0.13411,
    "status": "open",
    "openingHours": "Mon-Sun: 07:00-23:00",
    "phone": "03450130507",
    "brand": "sainsburys"
  },
  {
    "id": "sainsburys-6031",
    "name": "Cn Grn Wrythe Ln Loc Local",
    "address": "15-21 Green Wrythe Lane",
    "city": "Carshalton",
    "postcode": "SM5 2DS",
    "latitude": 51.37303,
    "longitude": -0.16875,
    "status": "open",
    "openingHours": "Mon-Sun: 07:00-23:00",
    "phone": "03300137712",
    "brand": "sainsburys"
  },
  {
    "id": "sainsburys-6121",
    "name": "Crydn Thorntn Rd Loc Local",
    "address": "114-116 Thornton Road, Thornton Heath",
    "city": "Croydon",
    "postcode": "CR7 6BB",
    "latitude": 51.3917,
    "longitude": -0.11892,
    "status": "open",
    "openingHours": "Mon-Sun: 07:00-23:00",
    "phone": "03300137727",
    "brand": "sainsburys"
  },
  {
    "id": "sainsburys-6176",
    "name": "Crydn Brightn Rd Loc Local",
    "address": "45 - 55 Brighton Road",
    "city": "SOUTH CROYDON",
    "postcode": "CR2 6ED",
    "latitude": 51.36016,
    "longitude": -0.09767,
    "status": "open",
    "openingHours": "Mon-Sun: 07:00-23:00",
    "phone": "03300137761",
    "brand": "sainsburys"
  },
  {
    "id": "sainsburys-10110052",
    "name": "Purley Way",
    "address": "Trafalgar Way",
    "city": "CROYDON",
    "postcode": "CR0 4XT",
    "latitude": 51.37575,
    "longitude": -0.11778,
    "status": "open",
    "openingHours": "Mon-Wed: 10:00-18:00, Thu: 09:00-18:00, Fri: 09:00-17:00, Sat: 10:30-16:30, Sun: 10:00-18:00",
    "phone": "0345 0130975",
    "brand": "sainsburys"
  },
  {
    "id": "sainsburys-10210024",
    "name": "Streatham Common",
    "address": "480 Streatham High Road",
    "city": "London",
    "postcode": "SW16 3PY",
    "latitude": 51.41949,
    "longitude": -0.12938,
    "status": "open",
    "openingHours": "Mon-Thu: 08:00-20:30, Fri: 08:00-20:00, Sat: 11:00-17:00, Sun: 08:00-20:30",
    "phone": "020 8764 0435",
    "brand": "sainsburys"
  },
  {
    "id": "sainsburys-10210052",
    "name": "Purley Way",
    "address": "Trafalgar Way",
    "city": "Croydon",
    "postcode": "CR0 4XT",
    "latitude": 51.37575,
    "longitude": -0.11778,
    "status": "open",
    "openingHours": "Mon-Fri: 08:00-21:00, Sat: 11:00-17:00, Sun: 08:00-21:00",
    "phone": "020 8681 5800",
    "brand": "sainsburys"
  },
  {
    "id": "sainsburys-10210507",
    "name": "Crystal Palace",
    "address": "120-122 Whitehorse Lane",
    "city": "London",
    "postcode": "SE25 6XB",
    "latitude": 51.3986,
    "longitude": -0.08699,
    "status": "open",
    "openingHours": "Mon-Thu: 08:00-21:00, Fri: 08:00-20:30, Sat: 11:00-17:00, Sun: 08:00-21:00",
    "phone": "020 8653 7640",
    "brand": "sainsburys"
  },
  {
    "id": "sainsburys-10212006",
    "name": "Wallington",
    "address": "2 Stafford Road",
    "city": "Wallington",
    "postcode": "SM6 9AA",
    "latitude": 51.35802,
    "longitude": -0.14778,
    "status": "open",
    "openingHours": "Mon-Thu: 08:00-20:00, Fri: 08:00-21:00, Sat: 10:00-16:00, Sun: 08:00-20:00",
    "phone": "020 8773 2379",
    "brand": "sainsburys"
  },
  {
    "id": "sainsburys-10212012",
    "name": "Penge",
    "address": "158-162 High Street",
    "city": "London",
    "postcode": "SE20 7QS",
    "latitude": 51.41279,
    "longitude": -0.05135,
    "status": "open",
    "openingHours": "Mon-Thu: 08:00-20:00, Fri: 08:00-20:30, Sat: 11:00-17:00, Sun: 08:00-20:00",
    "phone": "020 8776 5570",
    "brand": "sainsburys"
  },
  {
    "id": "sainsburys-0019",
    "name": "Locksbottom",
    "address": "Pallant Way",
    "city": "Orpington",
    "postcode": "BR6 8NZ",
    "latitude": 51.3661,
    "longitude": 0.05546,
    "status": "open",
    "openingHours": "Mon-Fri: 07:00-22:00, Sat: 10:00-16:00, Sun: 07:00-22:00",
    "phone": "01689 861334",
    "brand": "sainsburys"
  },
  {
    "id": "sainsburys-10110019",
    "name": "Locksbottom",
    "address": "Pallant Way",
    "city": "Orpington",
    "postcode": "BR6 8NZ",
    "latitude": 51.3661,
    "longitude": 0.05546,
    "status": "open",
    "openingHours": "Mon-Wed: 10:00-16:00, Thu: 09:00-18:00, Fri: 10:00-16:00, Sat: 11:00-16:00, Sun: 10:00-16:00",
    "phone": "0345 0130794",
    "brand": "sainsburys"
  },
  {
    "id": "sainsburys-10210019",
    "name": "Locksbottom",
    "address": "Pallant Way",
    "city": "Orpington",
    "postcode": "BR6 8NZ",
    "latitude": 51.3661,
    "longitude": 0.05546,
    "status": "open",
    "openingHours": "Mon-Fri: 08:00-20:00, Sat: 10:00-16:00, Sun: 08:00-20:00",
    "phone": "01689 861334",
    "brand": "sainsburys"
  },
  {
    "id": "sainsburys-2152",
    "name": "Orpington",
    "address": "5-7 Homefield Rise",
    "city": "Orpington",
    "postcode": "BR6 0RT",
    "latitude": 51.37578,
    "longitude": 0.10061,
    "status": "open",
    "openingHours": "Mon-Fri: 07:00-20:00, Sat: 11:00-17:00, Sun: 07:00-20:00",
    "phone": "01689 823160",
    "brand": "sainsburys"
  },
  {
    "id": "sainsburys-10212152",
    "name": "Orpington",
    "address": "5-7 Homefield Rise",
    "city": "Orpington",
    "postcode": "BR6 0RT",
    "latitude": 51.37578,
    "longitude": 0.10061,
    "status": "open",
    "openingHours": "Mon-Thu: 08:00-20:00, Fri: 08:00-19:00, Sat: 11:00-17:00, Sun: 08:00-20:00",
    "phone": "01689 823160",
    "brand": "sainsburys"
  },
  {
    "id": "sainsburys-0035",
    "name": "Barkingside",
    "address": "66-100 Tanners Lane",
    "city": "Ilford",
    "postcode": "IG6 1QE",
    "latitude": 51.58836,
    "longitude": 0.08172,
    "status": "open",
    "openingHours": "Mon-Fri: 07:00-21:00, Sat: 10:00-16:00, Sun: 07:00-21:00",
    "phone": "020 8551 0921",
    "brand": "sainsburys"
  },
  {
    "id": "sainsburys-0400",
    "name": "Ilford",
    "address": "55 Roden Street",
    "city": "Ilford",
    "postcode": "IG1 2AA",
    "latitude": 51.55656,
    "longitude": 0.06985,
    "status": "open",
    "openingHours": "Mon-Fri: 07:00-22:00, Sat: 11:00-17:00, Sun: 07:00-22:00",
    "phone": "020 8553 0145",
    "brand": "sainsburys"
  },
  {
    "id": "sainsburys-0409",
    "name": "Newbury Park",
    "address": "King George Avenue",
    "city": "Ilford",
    "postcode": "IG2 7SH",
    "latitude": 51.58144,
    "longitude": 0.08721,
    "status": "open",
    "openingHours": "Mon-Fri: 07:00-22:00, Sat: 11:00-17:00, Sun: 07:00-22:00",
    "phone": "020 8551 6333",
    "brand": "sainsburys"
  },
  {
    "id": "sainsburys-4874",
    "name": "Stratf Romfrd Rd Loc Local",
    "address": "165-167 Romford Road",
    "city": "London",
    "postcode": "E15 4JF",
    "latitude": 51.54408,
    "longitude": 0.01313,
    "status": "open",
    "openingHours": "Mon-Sun: 07:00-23:00",
    "phone": "03300137559",
    "brand": "sainsburys"
  },
  {
    "id": "sainsburys-4962",
    "name": "High Rd Ilford Loc Local",
    "address": "168-170 High Road",
    "city": "Ilford",
    "postcode": "IG1 1LL",
    "latitude": 51.5592,
    "longitude": 0.07527,
    "status": "open",
    "openingHours": "Mon-Sun: 07:00-23:00",
    "phone": "03300137629",
    "brand": "sainsburys"
  },
  {
    "id": "sainsburys-4964",
    "name": "Gants Hill Crbrk Loc Local",
    "address": "555-557 Cranbrook Road",
    "city": "Ilford",
    "postcode": "IG2 6HE",
    "latitude": 51.57609,
    "longitude": 0.06573,
    "status": "open",
    "openingHours": "Mon-Sun: 07:00-23:00",
    "phone": "03300137631",
    "brand": "sainsburys"
  },
  {
    "id": "sainsburys-5052",
    "name": "London City Isld Loc Local",
    "address": "50 Hopewell Square",
    "city": "London",
    "postcode": "E14 0SY",
    "latitude": 51.51318,
    "longitude": 0.0067,
    "status": "open",
    "openingHours": "Mon-Sun: 07:00-23:00",
    "phone": "03300137668",
    "brand": "sainsburys"
  },
  {
    "id": "sainsburys-5073",
    "name": "Hackny Wallis Rd Loc Local",
    "address": "75-89 Wallis Road, Hackney Wick",
    "city": "LONDON",
    "postcode": "E9 5LN",
    "latitude": 51.5442,
    "longitude": -0.0236,
    "status": "open",
    "openingHours": "Mon-Sun: 07:00-23:00",
    "phone": "03300137684",
    "brand": "sainsburys"
  },
  {
    "id": "sainsburys-5096",
    "name": "Leven Rd Twr Hamlets Local",
    "address": "155 Leven Road, Poplar",
    "city": "London",
    "postcode": "E14 0LL",
    "latitude": 51.515,
    "longitude": -0.00253,
    "status": "open",
    "openingHours": "Mon-Sun: 07:00-23:00",
    "phone": "0345 1657 187",
    "brand": "sainsburys"
  },
  {
    "id": "sainsburys-5118",
    "name": "Strtfd East Vlg Loc Local",
    "address": "Plot N08 75 Celebration Avenue, East Village",
    "city": "London",
    "postcode": "E20 1DB",
    "latitude": 51.54781,
    "longitude": -0.00815,
    "status": "open",
    "openingHours": "Mon-Sun: 07:00-23:00",
    "phone": "03300137693",
    "brand": "sainsburys"
  },
  {
    "id": "sainsburys-5191",
    "name": "Greenwich Peninsula Local",
    "address": "4-6 Green Place, Greenwich Peninsula",
    "city": "LONDON",
    "postcode": "SE10 0PE",
    "latitude": 51.50046,
    "longitude": 0.00644,
    "status": "open",
    "openingHours": "Mon-Sun: 06:00-00:00",
    "phone": "01777 804754",
    "brand": "sainsburys"
  },
  {
    "id": "sainsburys-5201",
    "name": "Mile End Station Local",
    "address": "409-413 Mile End Road, Tower Hamlets",
    "city": "London",
    "postcode": "E3 4PB",
    "latitude": 51.52572,
    "longitude": -0.03338,
    "status": "open",
    "openingHours": "Mon-Sun: 07:00-23:00",
    "phone": "0345 600 5142",
    "brand": "sainsburys"
  },
  {
    "id": "sainsburys-5946",
    "name": "Central Charging",
    "address": "33 Charterhouse Street",
    "city": "LONDON",
    "postcode": "EC1M 6HA",
    "latitude": 51.517,
    "longitude": 0.10667,
    "status": "open",
    "openingHours": "Mon-Fri: 06:00-22:00, Sat: 11:00-17:00, Sun: 06:00-22:00",
    "phone": "0800 636 262",
    "brand": "sainsburys"
  },
  {
    "id": "sainsburys-6092",
    "name": "Wst Hm Twlv Trs Loc Local",
    "address": "14-16 Avery Avenue",
    "city": "London",
    "postcode": "E16 4BF",
    "latitude": 51.528,
    "longitude": 0.0051,
    "status": "open",
    "openingHours": "Mon-Sun: 07:00-23:00",
    "phone": "03456016395",
    "brand": "sainsburys"
  },
  {
    "id": "sainsburys-6192",
    "name": "Woolwich Arsenal Loc Local",
    "address": "10 Victory Parade, Plumstead Road",
    "city": "London",
    "postcode": "SE18 6FL",
    "latitude": 51.4917,
    "longitude": 0.0704,
    "status": "open",
    "openingHours": "Mon-Sun: 07:00-23:00",
    "phone": "03300137767",
    "brand": "sainsburys"
  },
  {
    "id": "sainsburys-6218",
    "name": "Nwh Royal Wharf Loc. Local",
    "address": "11 Royal Crest Avenue, Newham",
    "city": "London",
    "postcode": "E16 2PG",
    "latitude": 51.50119,
    "longitude": 0.03165,
    "status": "open",
    "openingHours": "Mon-Sun: 07:00-23:00",
    "phone": "03300137779",
    "brand": "sainsburys"
  },
  {
    "id": "sainsburys-6253",
    "name": "Brunel Strt Wrks Loc Local",
    "address": "Unit C2, Grafton Building, Brunel Street Works",
    "city": "Canning Town",
    "postcode": "E16 4HQ",
    "latitude": 51.51267,
    "longitude": 0.00995,
    "status": "open",
    "openingHours": "Mon-Sun: 07:00-23:00",
    "phone": "03300137784",
    "brand": "sainsburys"
  },
  {
    "id": "sainsburys-10112625",
    "name": "Charlton Riverside",
    "address": "Charlton Riverside Place, 7-11 Gallions Road",
    "city": "London",
    "postcode": "SE7 7FA",
    "latitude": 51.48861,
    "longitude": 0.02618,
    "status": "open",
    "openingHours": "Mon-Wed: 10:00-18:00, Thu: 09:00-18:00, Fri: 09:00-17:00, Sat: 11:00-17:00, Sun: 10:00-18:00",
    "phone": "0345 0130776",
    "brand": "sainsburys"
  },
  {
    "id": "sainsburys-10210336",
    "name": "Woolwich",
    "address": "25 Calderwood Street",
    "city": "London",
    "postcode": "SE18 6QW",
    "latitude": 51.49099,
    "longitude": 0.06372,
    "status": "open",
    "openingHours": "Mon-Fri: 08:00-20:00, Sat: 11:00-17:00, Sun: 08:00-20:00",
    "phone": "020 8317 8025",
    "brand": "sainsburys"
  },
  {
    "id": "sainsburys-10210409",
    "name": "Newbury Park",
    "address": "King George Avenue",
    "city": "Ilford",
    "postcode": "IG2 7SH",
    "latitude": 51.58144,
    "longitude": 0.08721,
    "status": "open",
    "openingHours": "Mon-Fri: 08:00-21:00, Sat: 11:00-17:00, Sun: 08:00-21:00",
    "phone": "020 8551 6333",
    "brand": "sainsburys"
  },
  {
    "id": "sainsburys-10210569",
    "name": "Beckton",
    "address": "1 Claps Gate Lane",
    "city": "London",
    "postcode": "E6 6JF",
    "latitude": 51.52137,
    "longitude": 0.06601,
    "status": "open",
    "openingHours": "Mon-Fri: 08:00-22:00, Sat: 11:00-17:00, Sun: 08:00-22:00",
    "phone": "0203 1267390",
    "brand": "sainsburys"
  },
  {
    "id": "sainsburys-10212625",
    "name": "Charlton Riverside",
    "address": "Charlton Riverside Place, 7-11 Gallions Road",
    "city": "London",
    "postcode": "SE7 7FA",
    "latitude": 51.48861,
    "longitude": 0.02618,
    "status": "open",
    "openingHours": "Mon-Thu: 08:00-21:00, Fri: 08:00-20:30, Sat: 11:00-17:00, Sun: 08:00-21:00",
    "phone": "0203 1267410",
    "brand": "sainsburys"
  },
  {
    "id": "sainsburys-0407",
    "name": "Chadwell Heath",
    "address": "97-131 High Road",
    "city": "Romford",
    "postcode": "RM6 6PB",
    "latitude": 51.57188,
    "longitude": 0.13458,
    "status": "open",
    "openingHours": "Mon-Fri: 07:00-20:00, Sat: 10:00-16:00, Sun: 07:00-20:00",
    "phone": "020 8598 8945",
    "brand": "sainsburys"
  },
  {
    "id": "sainsburys-0696",
    "name": "Romford",
    "address": "1 The Brewery",
    "city": "Romford",
    "postcode": "RM1 1AU",
    "latitude": 51.57525,
    "longitude": 0.17952,
    "status": "open",
    "openingHours": "Mon-Tue: 08:00-21:00, Wed-Thu: 08:00-22:00, Fri: 07:30-21:00, Sat: 11:00-17:00, Sun: 08:00-21:00",
    "phone": "01708 753651",
    "brand": "sainsburys"
  },
  {
    "id": "sainsburys-1696",
    "name": "Romford PFS",
    "address": "1 The Brewery",
    "city": "Romford",
    "postcode": "RM1 1AU",
    "latitude": 51.57621,
    "longitude": 0.17809,
    "status": "open",
    "openingHours": "Mon-Fri: 06:00-23:00, Sat: 08:00-20:00, Sun: 06:00-23:00",
    "phone": "03300138058",
    "brand": "sainsburys"
  },
  {
    "id": "sainsburys-2327",
    "name": "Abbey Wood",
    "address": "Harrow Manorway, Abbey Wood",
    "city": "London",
    "postcode": "SE2 9NU",
    "latitude": 51.49306,
    "longitude": 0.12063,
    "status": "open",
    "openingHours": "Mon-Fri: 07:00-22:00, Sat: 11:00-17:00, Sun: 07:00-22:00",
    "phone": "0203 1267050",
    "brand": "sainsburys"
  },
  {
    "id": "sainsburys-4374",
    "name": "Hnchrh Elm Pk Av loc Local",
    "address": "Elm Park Avenue",
    "city": "Hornchurch",
    "postcode": "RM12 4RX",
    "latitude": 51.55103,
    "longitude": 0.19837,
    "status": "open",
    "openingHours": "Mon-Sun: 07:00-23:00",
    "phone": "03300137252",
    "brand": "sainsburys"
  },
  {
    "id": "sainsburys-4381",
    "name": "Rmfrd North St Loc Local",
    "address": "137 North Street",
    "city": "Romford",
    "postcode": "RM1 1ED",
    "latitude": 51.58209,
    "longitude": 0.17612,
    "status": "open",
    "openingHours": "Mon-Sun: 07:00-23:00",
    "phone": "03300137259",
    "brand": "sainsburys"
  },
  {
    "id": "sainsburys-5172",
    "name": "DAGNHM BEAM PARK LOC Local",
    "address": "14 Halewood Way, Rainham",
    "city": "ESSEX",
    "postcode": "RM13 8TD",
    "latitude": 51.52424,
    "longitude": 0.17069,
    "status": "open",
    "openingHours": "Mon-Sun: 07:00-23:00",
    "phone": "03450 130518",
    "brand": "sainsburys"
  },
  {
    "id": "sainsburys-10110696",
    "name": "Romford",
    "address": "1 The Brewery",
    "city": "ROMFORD",
    "postcode": "RM1 1AU",
    "latitude": 51.57525,
    "longitude": 0.17952,
    "status": "open",
    "openingHours": "Mon-Wed: 10:00-16:00, Thu: 09:00-18:00, Fri: 10:00-16:00, Sat: 11:00-16:00, Sun: 10:00-16:00",
    "phone": "0345 0130714",
    "brand": "sainsburys"
  },
  {
    "id": "sainsburys-10210407",
    "name": "Chadwell Heath",
    "address": "97-131 High Road",
    "city": "Romford",
    "postcode": "RM6 6PB",
    "latitude": 51.57188,
    "longitude": 0.13458,
    "status": "open",
    "openingHours": "Mon-Fri: 08:00-20:00, Sat: 10:00-16:00, Sun: 08:00-20:00",
    "phone": "020 8598 8945",
    "brand": "sainsburys"
  },
  {
    "id": "sainsburys-10210696",
    "name": "Romford",
    "address": "1 The Brewery",
    "city": "Romford",
    "postcode": "RM1 1AU",
    "latitude": 51.57525,
    "longitude": 0.17952,
    "status": "open",
    "openingHours": "Mon-Thu: 08:00-21:00, Fri: 08:00-20:30, Sat: 11:00-17:00, Sun: 08:00-21:00",
    "phone": "01708 753651",
    "brand": "sainsburys"
  },
  {
    "id": "sainsburys-10212327",
    "name": "Abbey Wood",
    "address": "Harrow Manorway, Abbey Wood",
    "city": "London",
    "postcode": "SE2 9NU",
    "latitude": 51.49306,
    "longitude": 0.12063,
    "status": "open",
    "openingHours": "Mon-Fri: 08:00-21:00, Sat: 11:00-17:00, Sun: 08:00-21:00",
    "phone": "0203 1267050",
    "brand": "sainsburys"
  },
  {
    "id": "sainsburys-0205",
    "name": "Hornchurch",
    "address": "101-105 High Street",
    "city": "Hornchurch",
    "postcode": "RM11 1TX",
    "latitude": 51.56309,
    "longitude": 0.21818,
    "status": "open",
    "openingHours": "Mon-Fri: 07:00-22:00, Sat: 10:00-16:00, Sun: 07:00-22:00",
    "phone": "01708 475214",
    "brand": "sainsburys"
  },
  {
    "id": "sainsburys-4287",
    "name": "Hornch Suttns Ln Loc Local",
    "address": "Ground Floor, 2C Suttons Lane, Hornchurch",
    "city": "London",
    "postcode": "RM12 6RJ",
    "latitude": 51.55197,
    "longitude": 0.2188,
    "status": "open",
    "openingHours": "Mon-Sun: 07:00-23:00",
    "phone": "03300137183",
    "brand": "sainsburys"
  },
  {
    "id": "sainsburys-5169",
    "name": "Erith The Quarry Local",
    "address": "1 Bronze Walk",
    "city": "Erith",
    "postcode": "DA8 1GF",
    "latitude": 51.48335,
    "longitude": 0.16471,
    "status": "open",
    "openingHours": "Mon-Sun: 07:00-23:00",
    "phone": "0345 013 0545",
    "brand": "sainsburys"
  },
  {
    "id": "sainsburys-10110205",
    "name": "Hornchurch",
    "address": "101-105 High Street",
    "city": "Hornchurch",
    "postcode": "RM11 1TX",
    "latitude": 51.56309,
    "longitude": 0.21818,
    "status": "open",
    "openingHours": "Mon-Wed: 10:00-18:00, Thu: 09:00-18:00, Fri: 09:00-17:00, Sat: 10:00-16:00, Sun: 10:00-18:00",
    "phone": "0345 0130718",
    "brand": "sainsburys"
  },
  {
    "id": "sainsburys-10210205",
    "name": "Hornchurch",
    "address": "101-105 High Street",
    "city": "Hornchurch",
    "postcode": "RM11 1TX",
    "latitude": 51.56309,
    "longitude": 0.21818,
    "status": "open",
    "openingHours": "Mon-Fri: 08:00-20:00, Sat: 10:00-16:00, Sun: 08:00-20:00",
    "phone": "01708 475214",
    "brand": "sainsburys"
  },
  {
    "id": "sainsburys-4916",
    "name": "Harold Hill Loc Local",
    "address": "44 Farnham Road",
    "city": "Romford",
    "postcode": "RM3 8DX",
    "latitude": 51.60606,
    "longitude": 0.21893,
    "status": "open",
    "openingHours": "Mon-Sun: 07:00-22:00",
    "phone": "03300137587",
    "brand": "sainsburys"
  },
  {
    "id": "sainsburys-0040",
    "name": "West Ealing",
    "address": "Melbourne Avenue",
    "city": "London",
    "postcode": "W13 9BZ",
    "latitude": 51.50923,
    "longitude": -0.32488,
    "status": "open",
    "openingHours": "Mon-Fri: 07:00-21:00, Sat: 11:00-17:00, Sun: 07:00-21:00",
    "phone": "020 8579 5593",
    "brand": "sainsburys"
  },
  {
    "id": "sainsburys-0075",
    "name": "Hayes PFS",
    "address": "Lombardy Retail Park, Coldharbour Lane",
    "city": "Hayes",
    "postcode": "UB3 3EX",
    "latitude": 51.51636,
    "longitude": -0.4069,
    "status": "open",
    "openingHours": "Mon-Fri: 06:00-23:59, Sat: 09:00-20:00, Sun: 06:00-23:59",
    "phone": "03300137956",
    "brand": "sainsburys"
  },
  {
    "id": "sainsburys-0196",
    "name": "Alperton PFS",
    "address": "360 Ealing Road",
    "city": "Wembley",
    "postcode": "HA0 1PF",
    "latitude": 51.53827,
    "longitude": -0.29997,
    "status": "open",
    "openingHours": "Mon-Sun: 00:00-23:59",
    "phone": "0330 013 7823",
    "brand": "sainsburys"
  },
  {
    "id": "sainsburys-0226",
    "name": "Chiswick",
    "address": "31 Essex Place",
    "city": "London",
    "postcode": "W4 5UT",
    "latitude": 51.49351,
    "longitude": -0.26548,
    "status": "open",
    "openingHours": "Mon-Fri: 07:00-22:00, Sat: 11:00-17:00, Sun: 07:00-22:00",
    "phone": "020 8994 9128",
    "brand": "sainsburys"
  },
  {
    "id": "sainsburys-0548",
    "name": "Richmond",
    "address": "Lower Richmond Road",
    "city": "Richmond",
    "postcode": "TW9 4LT",
    "latitude": 51.46658,
    "longitude": -0.28641,
    "status": "open",
    "openingHours": "Mon-Fri: 07:00-23:00, Sat: 10:00-16:00, Sun: 07:00-23:00",
    "phone": "020 8876 9554",
    "brand": "sainsburys"
  },
  {
    "id": "sainsburys-0630",
    "name": "Hayes",
    "address": "Lombardy Retail Park, Coldharbour Lane",
    "city": "Hayes",
    "postcode": "UB3 3EX",
    "latitude": 51.51545,
    "longitude": -0.40324,
    "status": "open",
    "openingHours": "Mon-Fri: 07:00-23:00, Sat: 11:00-17:00, Sun: 07:00-23:00",
    "phone": "02085613321",
    "brand": "sainsburys"
  },
  {
    "id": "sainsburys-0646",
    "name": "Alperton",
    "address": "360 Ealing Road",
    "city": "Wembley",
    "postcode": "HA0 1PF",
    "latitude": 51.53867,
    "longitude": -0.30337,
    "status": "open",
    "openingHours": "Mon-Fri: 07:00-22:00, Sat: 10:30-16:30, Sun: 07:00-22:00",
    "phone": "020 8566 9393",
    "brand": "sainsburys"
  },
  {
    "id": "sainsburys-1548",
    "name": "Richmond PFS",
    "address": "Lower Richmond Road",
    "city": "Richmond",
    "postcode": "TW9 4LT",
    "latitude": 51.46745,
    "longitude": -0.28677,
    "status": "open",
    "openingHours": "Mon-Fri: 06:00-23:59, Sat: 08:00-22:00, Sun: 06:00-23:59",
    "phone": "03300138056",
    "brand": "sainsburys"
  },
  {
    "id": "sainsburys-4018",
    "name": "Chiswick Loc Local",
    "address": "120 Chiswick High Road",
    "city": "London",
    "postcode": "W4 1PU",
    "latitude": 51.49301,
    "longitude": -0.25232,
    "status": "open",
    "openingHours": "Mon-Sun: 07:00-23:00",
    "phone": "03300137015",
    "brand": "sainsburys"
  },
  {
    "id": "sainsburys-4024",
    "name": "South Ealing Loc Local",
    "address": "35-39 South Ealing Road",
    "city": "London",
    "postcode": "W5 4QT",
    "latitude": 51.50221,
    "longitude": -0.30654,
    "status": "open",
    "openingHours": "Mon-Sun: 07:00-23:00",
    "phone": "03300137020",
    "brand": "sainsburys"
  },
  {
    "id": "sainsburys-4081",
    "name": "Ealing Broadway Loc Local",
    "address": "30-33 The Broadway",
    "city": "London",
    "postcode": "W5 2NP",
    "latitude": 51.51412,
    "longitude": -0.30227,
    "status": "open",
    "openingHours": "Mon-Fri: 06:00-23:00, Sat: 06:30-23:00, Sun: 06:00-23:00",
    "phone": "03300137042",
    "brand": "sainsburys"
  },
  {
    "id": "sainsburys-4198",
    "name": "Twknhm The Green Loc Local",
    "address": "32-38 The Green",
    "city": "Twickenham",
    "postcode": "TW2 5AB",
    "latitude": 51.44468,
    "longitude": -0.34119,
    "status": "open",
    "openingHours": "Mon-Fri: 07:00-23:00, Sat: 07:00-22:00, Sun: 07:00-23:00",
    "phone": "03300137106",
    "brand": "sainsburys"
  },
  {
    "id": "sainsburys-4224",
    "name": "Brnfd Kew Brg Rd Loc Local",
    "address": "Unit 8, Kew Bridge Road",
    "city": "Brentford",
    "postcode": "TW8 0FJ",
    "latitude": 51.48846,
    "longitude": -0.28809,
    "status": "open",
    "openingHours": "Mon-Sun: 07:00-23:00",
    "phone": "03300137126",
    "brand": "sainsburys"
  },
  {
    "id": "sainsburys-4238",
    "name": "Rchmnd Stn Loc Local",
    "address": "27D-27E The Quadrant",
    "city": "Richmond",
    "postcode": "TW9 1DN",
    "latitude": 51.46296,
    "longitude": -0.30219,
    "status": "open",
    "openingHours": "Mon-Sun: 06:00-23:00",
    "phone": "03300137139",
    "brand": "sainsburys"
  },
  {
    "id": "sainsburys-4249",
    "name": "Actn Chrchfld Rd Loc Local",
    "address": "61-63 Churchfield Road",
    "city": "London",
    "postcode": "W3 6AY",
    "latitude": 51.50848,
    "longitude": -0.26635,
    "status": "open",
    "openingHours": "Mon-Sun: 07:00-23:00",
    "phone": "03300137149",
    "brand": "sainsburys"
  },
  {
    "id": "sainsburys-4251",
    "name": "Hnslw Staines Rd Loc Local",
    "address": "279 Staines Road",
    "city": "Hounslow",
    "postcode": "TW4 5AL",
    "latitude": 51.46541,
    "longitude": -0.37847,
    "status": "open",
    "openingHours": "Mon-Sun: 07:00-23:00",
    "phone": "03300137151",
    "brand": "sainsburys"
  },
  {
    "id": "sainsburys-4255",
    "name": "Acton Town Stn Loc Local",
    "address": "15-16 The Broadway, Gunnersbury Lane",
    "city": "London",
    "postcode": "W3 8HR",
    "latitude": 51.50206,
    "longitude": -0.28187,
    "status": "open",
    "openingHours": "Mon-Sun: 07:00-23:00",
    "phone": "03300137154",
    "brand": "sainsburys"
  },
  {
    "id": "sainsburys-4301",
    "name": "Hayes Cldhrbr Ln Loc Local",
    "address": "Coldharbour Lane",
    "city": "Hayes",
    "postcode": "UB3 3HG",
    "latitude": 51.5114,
    "longitude": -0.41258,
    "status": "open",
    "openingHours": "Mon-Sun: 07:00-23:00",
    "phone": "03300137195",
    "brand": "sainsburys"
  },
  {
    "id": "sainsburys-4329",
    "name": "Hlw Upr Suttn Ln Loc Local",
    "address": "78 Upper Sutton Lane, Hounslow",
    "city": "Twickenham",
    "postcode": "TW5 0PT",
    "latitude": 51.48037,
    "longitude": -0.37325,
    "status": "open",
    "openingHours": "Mon-Sun: 07:00-23:00",
    "phone": "03300137216",
    "brand": "sainsburys"
  },
  {
    "id": "sainsburys-4365",
    "name": "Brtrd Grt Wt Qtr Loc Local",
    "address": "Unit 1, Burgoyne House, Ealing Road",
    "city": "Brentford",
    "postcode": "TW8 0GB",
    "latitude": 51.49059,
    "longitude": -0.30232,
    "status": "open",
    "openingHours": "Mon-Sun: 07:00-23:00",
    "phone": "03300137246",
    "brand": "sainsburys"
  },
  {
    "id": "sainsburys-4368",
    "name": "Ln Acton Gardens Loc Local",
    "address": "142 Bollo Bridge Road",
    "city": "London",
    "postcode": "W3 8YF",
    "latitude": 51.50168,
    "longitude": -0.27141,
    "status": "open",
    "openingHours": "Mon-Sun: 07:00-23:00",
    "phone": "03300137249",
    "brand": "sainsburys"
  },
  {
    "id": "sainsburys-4396",
    "name": "Twknhs Whtn H St Loc Local",
    "address": "51 - 55 Whitton High Street, Twickenham",
    "city": "London",
    "postcode": "TW2 7LB",
    "latitude": 51.45144,
    "longitude": -0.35767,
    "status": "open",
    "openingHours": "Mon-Sun: 07:00-23:00",
    "phone": "03300137272",
    "brand": "sainsburys"
  },
  {
    "id": "sainsburys-4411",
    "name": "Ealng Nthfld Ave Loc Local",
    "address": "227 Northfield Avenue",
    "city": "London",
    "postcode": "W13 9QU",
    "latitude": 51.50006,
    "longitude": -0.3149,
    "status": "open",
    "openingHours": "Mon-Sun: 07:00-23:00",
    "phone": "03300137285",
    "brand": "sainsburys"
  },
  {
    "id": "sainsburys-4418",
    "name": "Ealing Uxbrdg Rd Loc Local",
    "address": "437b Uxbridge Road",
    "city": "London",
    "postcode": "W5 3NT",
    "latitude": 51.50998,
    "longitude": -0.28753,
    "status": "open",
    "openingHours": "Mon-Sun: 07:00-23:00",
    "phone": "03300137290",
    "brand": "sainsburys"
  },
  {
    "id": "sainsburys-4805",
    "name": "Boston Manor Loc Local",
    "address": "13-14 Boston Parade, Boston Road",
    "city": "London",
    "postcode": "W7 2DG",
    "latitude": 51.49682,
    "longitude": -0.32565,
    "status": "open",
    "openingHours": "Mon-Sun: 07:00-23:00",
    "phone": "03300137525",
    "brand": "sainsburys"
  },
  {
    "id": "sainsburys-4818",
    "name": "Brns White Hrt L Loc Local",
    "address": "9-11 White Hart Lane",
    "city": "London",
    "postcode": "SW13 0PX",
    "latitude": 51.47052,
    "longitude": -0.25533,
    "status": "open",
    "openingHours": "Mon-Sun: 07:00-22:00",
    "phone": "03300137531",
    "brand": "sainsburys"
  },
  {
    "id": "sainsburys-5065",
    "name": "Hounslow Wst Stn Loc Local",
    "address": "333 Bath Road",
    "city": "Hounslow",
    "postcode": "TW3 3DH",
    "latitude": 51.4731,
    "longitude": -0.3857,
    "status": "open",
    "openingHours": "Mon-Sun: 07:00-23:00",
    "phone": "03300137677",
    "brand": "sainsburys"
  },
  {
    "id": "sainsburys-5171",
    "name": "Hanwell Uxbridge Rd Local",
    "address": "144-156 Uxbridge Road",
    "city": "London",
    "postcode": "W7 3TB",
    "latitude": 51.508,
    "longitude": -0.3414,
    "status": "open",
    "openingHours": "Mon-Sun: 07:00-22:00",
    "phone": "03300137691",
    "brand": "sainsburys"
  },
  {
    "id": "sainsburys-6113",
    "name": "Acton Horn Lane  Loc Local",
    "address": "183 Horn Lane",
    "city": "London",
    "postcode": "W3 6NR",
    "latitude": 51.51488,
    "longitude": -0.26889,
    "status": "open",
    "openingHours": "Mon-Sun: 07:00-23:00",
    "phone": "03300137721",
    "brand": "sainsburys"
  },
  {
    "id": "sainsburys-6117",
    "name": "Islewrth Lndn Rd Loc Local",
    "address": "489 London Road",
    "city": "Isleworth",
    "postcode": "TW7 4BX",
    "latitude": 51.47495,
    "longitude": -0.33841,
    "status": "open",
    "openingHours": "Mon-Sun: 07:00-23:00",
    "phone": "03300137725",
    "brand": "sainsburys"
  },
  {
    "id": "sainsburys-6149",
    "name": "Rmd Friars Stile Loc Local",
    "address": "42/44 Friars Stile Road",
    "city": "London",
    "postcode": "TW10 6NQ",
    "latitude": 51.45511,
    "longitude": -0.29693,
    "status": "open",
    "openingHours": "Mon-Sun: 07:00-23:00",
    "phone": "03300137746",
    "brand": "sainsburys"
  },
  {
    "id": "sainsburys-6553",
    "name": "Nrth Acton Statn Loc Local",
    "address": "3 Victoria Road",
    "city": "London",
    "postcode": "W3 6UP",
    "latitude": 51.52338,
    "longitude": -0.26075,
    "status": "open",
    "openingHours": "Mon-Thu: 06:00-23:00, Fri-Sat: 07:00-23:00, Sun: 06:00-23:00",
    "phone": "03300137807",
    "brand": "sainsburys"
  },
  {
    "id": "sainsburys-6554",
    "name": "Nholt Mandvle Rd Loc Local",
    "address": "35 Mandeville Road, Northolt",
    "city": "Ealing",
    "postcode": "UB5 5HF",
    "latitude": 51.54671,
    "longitude": -0.36984,
    "status": "open",
    "openingHours": "Mon-Sun: 07:00-23:00",
    "phone": "03300137808",
    "brand": "sainsburys"
  },
  {
    "id": "sainsburys-6561",
    "name": "Twickenham Statn Loc Local",
    "address": "Twickenham Railway Station, 82 London Road",
    "city": "Twickenham",
    "postcode": "TW1 1BD",
    "latitude": 51.45031,
    "longitude": -0.33065,
    "status": "open",
    "openingHours": "Mon-Fri: 06:30-23:00, Sat: 07:00-23:00, Sun: 06:30-23:00",
    "phone": "03300137814",
    "brand": "sainsburys"
  },
  {
    "id": "sainsburys-10110226",
    "name": "Chiswick",
    "address": "31 Essex Place",
    "city": "London",
    "postcode": "W4 5UT",
    "latitude": 51.49351,
    "longitude": -0.26548,
    "status": "open",
    "openingHours": "Mon-Wed: 10:00-16:00, Thu: 09:00-18:00, Fri: 10:00-16:00, Sat: 11:00-16:00, Sun: 10:00-16:00",
    "phone": "0345 0130623",
    "brand": "sainsburys"
  },
  {
    "id": "sainsburys-10110630",
    "name": "Hayes",
    "address": "Lombardy Retail Park, Coldharbour Lane",
    "city": "HAYES",
    "postcode": "UB3 3EX",
    "latitude": 51.51545,
    "longitude": -0.40324,
    "status": "open",
    "openingHours": "Mon-Wed: 10:00-18:00, Thu: 09:00-18:00, Fri: 09:00-17:00, Sat: 11:00-17:00, Sun: 10:00-18:00",
    "phone": "0345 0130556",
    "brand": "sainsburys"
  },
  {
    "id": "sainsburys-10110646",
    "name": "Alperton",
    "address": "360 Ealing Road",
    "city": "WEMBLEY",
    "postcode": "HA0 1PF",
    "latitude": 51.53867,
    "longitude": -0.30337,
    "status": "open",
    "openingHours": "Mon-Wed: 10:00-16:00, Thu: 09:00-18:00, Fri: 10:00-16:00, Sat: 11:00-16:00, Sun: 10:00-16:00",
    "phone": "0345 0130902",
    "brand": "sainsburys"
  },
  {
    "id": "sainsburys-10210040",
    "name": "West Ealing",
    "address": "Melbourne Avenue",
    "city": "London",
    "postcode": "W13 9BZ",
    "latitude": 51.50923,
    "longitude": -0.32488,
    "status": "open",
    "openingHours": "Mon-Thu: 08:00-20:00, Fri: 08:00-20:30, Sat: 11:00-17:00, Sun: 08:00-20:00",
    "phone": "0345 013 0221",
    "brand": "sainsburys"
  },
  {
    "id": "sainsburys-10210226",
    "name": "Chiswick",
    "address": "31 Essex Place",
    "city": "London",
    "postcode": "W4 5UT",
    "latitude": 51.49351,
    "longitude": -0.26548,
    "status": "open",
    "openingHours": "Mon-Thu: 08:00-21:00, Fri: 08:00-20:00, Sat: 11:00-17:00, Sun: 08:00-21:00",
    "phone": "020 8994 9128",
    "brand": "sainsburys"
  },
  {
    "id": "sainsburys-10210548",
    "name": "Richmond",
    "address": "Lower Richmond Road",
    "city": "Richmond",
    "postcode": "TW9 4LT",
    "latitude": 51.46658,
    "longitude": -0.28641,
    "status": "open",
    "openingHours": "Mon-Fri: 08:00-20:00, Sat: 10:00-16:00, Sun: 08:00-20:00",
    "phone": "020 8876 9554",
    "brand": "sainsburys"
  },
  {
    "id": "sainsburys-10210630",
    "name": "Hayes",
    "address": "Lombardy Retail Park, Coldharbour Lane",
    "city": "Hayes",
    "postcode": "UB3 3EX",
    "latitude": 51.51545,
    "longitude": -0.40324,
    "status": "open",
    "openingHours": "Mon-Fri: 08:00-21:00, Sat: 11:00-17:00, Sun: 08:00-21:00",
    "phone": "020 8561 3321",
    "brand": "sainsburys"
  },
  {
    "id": "sainsburys-10210646",
    "name": "Alperton",
    "address": "360 Ealing Road",
    "city": "Wembley",
    "postcode": "HA0 1PF",
    "latitude": 51.53867,
    "longitude": -0.30337,
    "status": "open",
    "openingHours": "Mon-Thu: 08:00-21:00, Fri: 08:00-20:30, Sat: 10:30-16:30, Sun: 08:00-21:00",
    "phone": "020 8566 9393",
    "brand": "sainsburys"
  },
  {
    "id": "sainsburys-0132",
    "name": "Ladbroke Grove PFS",
    "address": "2 Canal Way, Ladbroke Grove",
    "city": "London",
    "postcode": "W10 5AA",
    "latitude": 51.52542,
    "longitude": -0.21677,
    "status": "open",
    "openingHours": "Mon-Fri: 06:00-22:00, Sat: 07:30-21:30, Sun: 06:00-22:00",
    "phone": "03300137987",
    "brand": "sainsburys"
  },
  {
    "id": "sainsburys-0602",
    "name": "Ladbroke Grove",
    "address": "2 Canal Way, Ladbroke Grove",
    "city": "London",
    "postcode": "W10 5AA",
    "latitude": 51.5263,
    "longitude": -0.21772,
    "status": "open",
    "openingHours": "Mon-Fri: 07:00-22:00, Sat: 11:00-17:00, Sun: 07:00-22:00",
    "phone": "020 8960 4324",
    "brand": "sainsburys"
  },
  {
    "id": "sainsburys-0651",
    "name": "Putney",
    "address": "2-6 Werter Road",
    "city": "London",
    "postcode": "SW15 2LJ",
    "latitude": 51.4622,
    "longitude": -0.2155,
    "status": "open",
    "openingHours": "Mon-Fri: 07:00-22:00, Sat: 12:00-18:00, Sun: 07:00-22:00",
    "phone": "020 8789 6286",
    "brand": "sainsburys"
  },
  {
    "id": "sainsburys-1517",
    "name": "Lwr Richmond Rd PFS",
    "address": "95-105 Lower Richmond Road",
    "city": "London",
    "postcode": "SW15 1EU",
    "latitude": 51.46737,
    "longitude": -0.22067,
    "status": "open",
    "openingHours": "Mon-Sun: 00:00-23:59",
    "phone": "03300138004",
    "brand": "sainsburys"
  },
  {
    "id": "sainsburys-2124",
    "name": "Kings Mall",
    "address": "2-3 Kings Mall, King Street",
    "city": "London",
    "postcode": "W6 0PZ",
    "latitude": 51.49326,
    "longitude": -0.22908,
    "status": "open",
    "openingHours": "Mon-Fri: 08:00-21:00, Sat: 11:00-17:00, Sun: 08:00-21:00",
    "phone": "020 8748 7413",
    "brand": "sainsburys"
  },
  {
    "id": "sainsburys-4000",
    "name": "Hammersmith Loc Local",
    "address": "179-183 Fulham Palace Road",
    "city": "London",
    "postcode": "W6 8QZ",
    "latitude": 51.48472,
    "longitude": -0.21979,
    "status": "open",
    "openingHours": "Mon-Sun: 06:00-00:00",
    "phone": "03300137004",
    "brand": "sainsburys"
  },
  {
    "id": "sainsburys-4171",
    "name": "Shepherds Bush G Loc Local",
    "address": "164 Uxbridge Road",
    "city": "London",
    "postcode": "W12 8AA",
    "latitude": 51.50525,
    "longitude": -0.22401,
    "status": "open",
    "openingHours": "Mon-Sun: 07:00-23:00",
    "phone": "03300137088",
    "brand": "sainsburys"
  },
  {
    "id": "sainsburys-4182",
    "name": "Hmsmth Gldhwk Rd Loc Local",
    "address": "54 Goldhawk Road",
    "city": "London",
    "postcode": "W12 8HA",
    "latitude": 51.50248,
    "longitude": -0.22711,
    "status": "open",
    "openingHours": "Mon-Sun: 07:00-23:00",
    "phone": "03300137095",
    "brand": "sainsburys"
  },
  {
    "id": "sainsburys-4226",
    "name": "Brns High St Loc Local",
    "address": "11 Barnes High Street",
    "city": "London",
    "postcode": "SW13 9LW",
    "latitude": 51.47357,
    "longitude": -0.24886,
    "status": "open",
    "openingHours": "Mon-Sun: 07:00-23:00",
    "phone": "03300137128",
    "brand": "sainsburys"
  },
  {
    "id": "sainsburys-4240",
    "name": "Brnt Wlsdn Hg Rd Loc Local",
    "address": "174-176 High Road",
    "city": "London",
    "postcode": "NW10 2PB",
    "latitude": 51.54762,
    "longitude": -0.2351,
    "status": "open",
    "openingHours": "Mon-Sun: 07:00-23:00",
    "phone": "03300137141",
    "brand": "sainsburys"
  },
  {
    "id": "sainsburys-4273",
    "name": "KC Portobello Rd Loc Local",
    "address": "188-199 Portobello Road",
    "city": "London",
    "postcode": "W11 1LA",
    "latitude": 51.51616,
    "longitude": -0.20493,
    "status": "open",
    "openingHours": "Mon-Sun: 07:00-23:00",
    "phone": "03300137170",
    "brand": "sainsburys"
  },
  {
    "id": "sainsburys-4315",
    "name": "H F Shprds Bsh R Loc Local",
    "address": "48 - 50 Shepherds Bush Road",
    "city": "London",
    "postcode": "W6 7PH",
    "latitude": 51.50121,
    "longitude": -0.22227,
    "status": "open",
    "openingHours": "Mon-Sun: 07:00-23:00",
    "phone": "03300137205",
    "brand": "sainsburys"
  },
  {
    "id": "sainsburys-4364",
    "name": "Fulham Darlan Rd Loc Local",
    "address": "582 Fulham Road",
    "city": "London",
    "postcode": "SW6 5NT",
    "latitude": 51.47791,
    "longitude": -0.2016,
    "status": "open",
    "openingHours": "Mon-Sun: 07:00-23:00",
    "phone": "03300137245",
    "brand": "sainsburys"
  },
  {
    "id": "sainsburys-4388",
    "name": "Hmrsmth King St Loc Local",
    "address": "383 King Street",
    "city": "London",
    "postcode": "W6 9NJ",
    "latitude": 51.49329,
    "longitude": -0.24352,
    "status": "open",
    "openingHours": "Mon-Sun: 07:00-23:00",
    "phone": "03300137266",
    "brand": "sainsburys"
  },
  {
    "id": "sainsburys-4408",
    "name": "Hsmith Nth End C Loc Local",
    "address": "3 North End Crescent",
    "city": "London",
    "postcode": "W14 8TG",
    "latitude": 51.49223,
    "longitude": -0.20725,
    "status": "open",
    "openingHours": "Mon-Sun: 07:00-23:00",
    "phone": "03300137282",
    "brand": "sainsburys"
  },
  {
    "id": "sainsburys-4439",
    "name": "Ldbrke Grve Stn Loc Local",
    "address": "165 Ladbroke Grove",
    "city": "London",
    "postcode": "W10 6HJ",
    "latitude": 51.51771,
    "longitude": -0.21041,
    "status": "open",
    "openingHours": "Mon-Sun: 06:00-23:00",
    "phone": "03300137309",
    "brand": "sainsburys"
  },
  {
    "id": "sainsburys-4456",
    "name": "Knstn Addison Rd Loc Local",
    "address": "346 Kensington High Street",
    "city": "London",
    "postcode": "W14 8NS",
    "latitude": 51.49721,
    "longitude": -0.20504,
    "status": "open",
    "openingHours": "Mon-Sun: 07:00-23:00",
    "phone": "03300137322",
    "brand": "sainsburys"
  },
  {
    "id": "sainsburys-4517",
    "name": "Lwr Richmond Rd Loc Local",
    "address": "95-105 Lower Richmond Road",
    "city": "London",
    "postcode": "SW15 1EU",
    "latitude": 51.4674,
    "longitude": -0.22093,
    "status": "open",
    "openingHours": "Mon-Sun: 00:00-23:59",
    "phone": "03300137355",
    "brand": "sainsburys"
  },
  {
    "id": "sainsburys-4568",
    "name": "Srds Bsh Blmfntn Loc Local",
    "address": "56 Bloemfontein Road, White City",
    "city": "London",
    "postcode": "W12 7FE",
    "latitude": 51.51064,
    "longitude": -0.23521,
    "status": "open",
    "openingHours": "Mon-Sun: 07:00-23:00",
    "phone": "03300137394",
    "brand": "sainsburys"
  },
  {
    "id": "sainsburys-4879",
    "name": "Flhm Landrdge Rd Loc Local",
    "address": "917-921 Fulham Road",
    "city": "London",
    "postcode": "SW6 5HU",
    "latitude": 51.47278,
    "longitude": -0.20877,
    "status": "open",
    "openingHours": "Mon-Sun: 07:00-23:00",
    "phone": "03300137564",
    "brand": "sainsburys"
  },
  {
    "id": "sainsburys-4895",
    "name": "Ldn Uppr Rchmond Loc Local",
    "address": "Estate House, 225-231 Upper Richmond Road",
    "city": "London",
    "postcode": "SW15 6SJ",
    "latitude": 51.46192,
    "longitude": -0.22189,
    "status": "open",
    "openingHours": "Mon-Sun: 07:00-23:00",
    "phone": "03300137578",
    "brand": "sainsburys"
  },
  {
    "id": "sainsburys-4925",
    "name": "Ldn Askew Road Loc Local",
    "address": "167-181 Askew Road",
    "city": "London",
    "postcode": "W12 9AX",
    "latitude": 51.50175,
    "longitude": -0.24118,
    "status": "open",
    "openingHours": "Mon-Sun: 07:00-23:00",
    "phone": "03300137596",
    "brand": "sainsburys"
  },
  {
    "id": "sainsburys-4992",
    "name": "Wstbrn Pk Hrw Rd Loc Local",
    "address": "478 Harrow Road",
    "city": "London",
    "postcode": "W9 3RU",
    "latitude": 51.52397,
    "longitude": -0.20083,
    "status": "open",
    "openingHours": "Mon-Sun: 07:00-23:00",
    "phone": "03300137652",
    "brand": "sainsburys"
  },
  {
    "id": "sainsburys-5084",
    "name": "Shepherds Bush Loc Local",
    "address": "19 The Broadway,, Shopping Centre Shepherds Bush",
    "city": "London",
    "postcode": "W12 8PP",
    "latitude": 51.50398,
    "longitude": -0.21911,
    "status": "open",
    "openingHours": "Mon-Sun: 07:00-23:00",
    "phone": "03300137687",
    "brand": "sainsburys"
  },
  {
    "id": "sainsburys-5217",
    "name": "Hammersmith Broadwy Local",
    "address": "Broadway Shopping Centre",
    "city": "London",
    "postcode": "W6 9YD",
    "latitude": 51.4923,
    "longitude": -0.22456,
    "status": "open",
    "openingHours": "Mon-Sun: 07:00-23:00",
    "phone": "03456016394",
    "brand": "sainsburys"
  },
  {
    "id": "sainsburys-0069",
    "name": "Wandsworth",
    "address": "45 Garratt Lane",
    "city": "London",
    "postcode": "SW18 4AD",
    "latitude": 51.45454,
    "longitude": -0.19193,
    "status": "open",
    "openingHours": "Mon-Fri: 07:00-22:00, Sat: 11:00-17:00, Sun: 07:00-22:00",
    "phone": "02088719888",
    "brand": "sainsburys"
  },
  {
    "id": "sainsburys-2084",
    "name": "Willesden Grn",
    "address": "High Road",
    "city": "London",
    "postcode": "NW10 2TD",
    "latitude": 51.54681,
    "longitude": -0.22547,
    "status": "open",
    "openingHours": "Mon-Fri: 08:00-22:00, Sat: 11:00-17:00, Sun: 08:00-22:00",
    "phone": "020 8451 3067",
    "brand": "sainsburys"
  },
  {
    "id": "sainsburys-4086",
    "name": "Willesden Grn Loc Local",
    "address": "92 Walm Lane",
    "city": "London",
    "postcode": "NW2 4QY",
    "latitude": 51.5488,
    "longitude": -0.22097,
    "status": "open",
    "openingHours": "Mon-Sun: 07:00-23:00",
    "phone": "03300137044",
    "brand": "sainsburys"
  },
  {
    "id": "sainsburys-4135",
    "name": "Kilburn Loc Local",
    "address": "377 Kilburn High Road",
    "city": "London",
    "postcode": "NW6 7QE",
    "latitude": 51.54575,
    "longitude": -0.20285,
    "status": "open",
    "openingHours": "Mon-Sun: 06:00-00:00",
    "phone": "03300137072",
    "brand": "sainsburys"
  },
  {
    "id": "sainsburys-4227",
    "name": "Wwth Osiers Gate Loc Local",
    "address": "Wandsworth Osiers Gate, 4 Enterprise Way",
    "city": "London",
    "postcode": "SW18 1GE",
    "latitude": 51.46126,
    "longitude": -0.19635,
    "status": "open",
    "openingHours": "Mon-Sun: 07:00-23:00",
    "phone": "03300137129",
    "brand": "sainsburys"
  },
  {
    "id": "sainsburys-4344",
    "name": "Oxfd Cs Brnrs St Loc Local",
    "address": "1 Berners Street",
    "city": "London",
    "postcode": "W1T 3LA",
    "latitude": 51.51625,
    "longitude": -0.13584,
    "status": "open",
    "openingHours": "Mon-Sun: 07:00-23:00",
    "phone": "03300137228",
    "brand": "sainsburys"
  },
  {
    "id": "sainsburys-4354",
    "name": "Wtmtr Qunswy Nth Loc Local",
    "address": "169  Queensway",
    "city": "London",
    "postcode": "W2 4SB",
    "latitude": 51.5155,
    "longitude": -0.18846,
    "status": "open",
    "openingHours": "Mon-Sun: 07:00-23:00",
    "phone": "03300137237",
    "brand": "sainsburys"
  },
  {
    "id": "sainsburys-0635",
    "name": "Kenton",
    "address": "1 Nash Way, Kenton",
    "city": "Harrow",
    "postcode": "HA3 0JA",
    "latitude": 51.58147,
    "longitude": -0.31517,
    "status": "open",
    "openingHours": "Mon-Fri: 07:00-22:00, Sat: 10:00-16:00, Sun: 07:00-22:00",
    "phone": "020 8909 1738",
    "brand": "sainsburys"
  },
  {
    "id": "sainsburys-4311",
    "name": "Wembley W Olp Wy Loc Local",
    "address": "Wembley Civic Centre",
    "city": "London",
    "postcode": "HA9 0NP",
    "latitude": 51.55905,
    "longitude": -0.28156,
    "status": "open",
    "openingHours": "Mon-Fri: 06:00-00:00, Sat: 12:00-18:00, Sun: 06:00-00:00",
    "phone": "03300137202",
    "brand": "sainsburys"
  },
  {
    "id": "sainsburys-6019",
    "name": "Wy Wembley Place Loc Local",
    "address": "349-357  High Road",
    "city": "Wembley",
    "postcode": "HA9 6ES",
    "latitude": 51.55312,
    "longitude": -0.28867,
    "status": "open",
    "openingHours": "Mon-Sun: 07:00-23:00",
    "phone": "03300137703",
    "brand": "sainsburys"
  },
  {
    "id": "sainsburys-10210602",
    "name": "Ladbroke Grove",
    "address": "Ladbroke Grove",
    "city": "London",
    "postcode": "W10 5AA",
    "latitude": 51.5263,
    "longitude": -0.21772,
    "status": "open",
    "openingHours": "Mon-Fri: 08:00-21:00, Sat: 11:00-17:00, Sun: 08:00-21:00",
    "phone": "020 8960 4324",
    "brand": "sainsburys"
  },
  {
    "id": "sainsburys-10210635",
    "name": "Kenton",
    "address": "1 Nash Way, Kenton",
    "city": "Harrow",
    "postcode": "HA3 0JA",
    "latitude": 51.58147,
    "longitude": -0.31517,
    "status": "open",
    "openingHours": "Mon-Thu: 08:00-20:30, Fri: 08:00-21:00, Sat: 10:00-16:00, Sun: 08:00-20:30",
    "phone": "020 8909 1738",
    "brand": "sainsburys"
  },
  {
    "id": "sainsburys-10214311",
    "name": "Wembley Ws",
    "address": "Wembley Civic Centre",
    "city": "London",
    "postcode": "HA9 0NP",
    "latitude": 51.55905,
    "longitude": -0.28156,
    "status": "open",
    "openingHours": "Mon-Fri: 08:00-20:00, Sat: 12:00-18:00, Sun: 08:00-20:00",
    "phone": "03451355489",
    "brand": "sainsburys"
  },
  {
    "id": "sainsburys-0164",
    "name": "Golders Grn",
    "address": "614 Finchley Road",
    "city": "London",
    "postcode": "NW11 7RX",
    "latitude": 51.57076,
    "longitude": -0.19455,
    "status": "open",
    "openingHours": "Mon-Fri: 07:00-22:00, Sat: 11:00-17:00, Sun: 07:00-22:00",
    "phone": "020 8458 6977",
    "brand": "sainsburys"
  },
  {
    "id": "sainsburys-2347",
    "name": "Hendon",
    "address": "2 Henshaw Parade, The Hyde",
    "city": "London",
    "postcode": "NW9 6GH",
    "latitude": 51.58218,
    "longitude": -0.24419,
    "status": "open",
    "openingHours": "Mon-Fri: 07:00-22:00, Sat: 11:00-17:00, Sun: 07:00-22:00",
    "phone": "0207 898 2546",
    "brand": "sainsburys"
  },
  {
    "id": "sainsburys-4216",
    "name": "Hndn Vivian Ave Loc Local",
    "address": "2a Rundell Crescent",
    "city": "London",
    "postcode": "NW4 3XH",
    "latitude": 51.58252,
    "longitude": -0.23095,
    "status": "open",
    "openingHours": "Mon-Sun: 07:00-23:00",
    "phone": "03300137119",
    "brand": "sainsburys"
  },
  {
    "id": "sainsburys-4367",
    "name": "Wstmnstr Edgw Rd Loc Local",
    "address": "318 - 324 Edgware Road",
    "city": "London",
    "postcode": "W2 1DY",
    "latitude": 51.52073,
    "longitude": -0.17077,
    "status": "open",
    "openingHours": "Mon-Sun: 07:00-23:00",
    "phone": "03300137248",
    "brand": "sainsburys"
  },
  {
    "id": "sainsburys-0504",
    "name": "Pinner",
    "address": "12 Barters Walk",
    "city": "Pinner",
    "postcode": "HA5 5LU",
    "latitude": 51.59337,
    "longitude": -0.38079,
    "status": "open",
    "openingHours": "Mon-Fri: 07:00-22:00, Sat: 10:00-16:00, Sun: 07:00-22:00",
    "phone": "020 8868 1399",
    "brand": "sainsburys"
  },
  {
    "id": "sainsburys-0515",
    "name": "Edgware",
    "address": "Broadwalk Shopping Centre, Station Road",
    "city": "Edgware",
    "postcode": "HA8 7BQ",
    "latitude": 51.61193,
    "longitude": -0.27561,
    "status": "open",
    "openingHours": "Mon-Fri: 07:00-22:00, Sat: 11:00-17:00, Sun: 07:00-22:00",
    "phone": "020 8905 6066",
    "brand": "sainsburys"
  },
  {
    "id": "sainsburys-0644",
    "name": "South Ruislip",
    "address": "Long Drive",
    "city": "Ruislip",
    "postcode": "HA4 0HQ",
    "latitude": 51.557,
    "longitude": -0.39615,
    "status": "open",
    "openingHours": "Mon-Thu: 07:00-22:00, Fri: 06:00-22:00, Sat: 10:00-16:00, Sun: 07:00-22:00",
    "phone": "020 8842 1225",
    "brand": "sainsburys"
  },
  {
    "id": "sainsburys-1644",
    "name": "South Ruislip PFS",
    "address": "Long Drive",
    "city": "Ruislip",
    "postcode": "HA4 0HQ",
    "latitude": 51.55605,
    "longitude": -0.393,
    "status": "open",
    "openingHours": "Mon-Fri: 07:00-22:00, Sat: 08:00-20:00, Sun: 07:00-22:00",
    "phone": "03300138070",
    "brand": "sainsburys"
  },
  {
    "id": "sainsburys-2041",
    "name": "Stanmore",
    "address": "1 The Broadway",
    "city": "Stanmore",
    "postcode": "HA7 4DA",
    "latitude": 51.61741,
    "longitude": -0.31076,
    "status": "open",
    "openingHours": "Mon-Fri: 07:00-22:00, Sat: 10:00-16:00, Sun: 07:00-22:00",
    "phone": "020 8954 5300",
    "brand": "sainsburys"
  },
  {
    "id": "sainsburys-4101",
    "name": "Rayners Lane Loc Local",
    "address": "387-395 Rayners Lane",
    "city": "Pinner",
    "postcode": "HA5 5ER",
    "latitude": 51.57657,
    "longitude": -0.37142,
    "status": "open",
    "openingHours": "Mon-Sun: 07:00-23:00",
    "phone": "03300137050",
    "brand": "sainsburys"
  },
  {
    "id": "sainsburys-4275",
    "name": "Eastcote Station Loc Local",
    "address": "Eastcote Tube Station, Field End Road",
    "city": "Eastcote",
    "postcode": "HA5 1RD",
    "latitude": 51.57668,
    "longitude": -0.39795,
    "status": "open",
    "openingHours": "Mon-Sun: 07:00-22:00",
    "phone": "03300137172",
    "brand": "sainsburys"
  },
  {
    "id": "sainsburys-6034",
    "name": "Harrow View Local",
    "address": "Unit 1, 2 Eastman Road",
    "city": "Harrow",
    "postcode": "HA1 4WB",
    "latitude": 51.59618,
    "longitude": -0.34766,
    "status": "open",
    "openingHours": "Mon-Sun: 07:00-23:00",
    "phone": "03458509754",
    "brand": "sainsburys"
  },
  {
    "id": "sainsburys-6096",
    "name": "Burnt Oak Broadway Local",
    "address": "98-102 Burnt Oak Broadway",
    "city": "London",
    "postcode": "HA8 0BE",
    "latitude": 51.59999,
    "longitude": -0.26631,
    "status": "open",
    "openingHours": "Mon-Sun: 07:00-23:00",
    "phone": "0345 0130516",
    "brand": "sainsburys"
  },
  {
    "id": "sainsburys-6112",
    "name": "Ruislip High Str Loc Local",
    "address": "48 High Street",
    "city": "Ruislip",
    "postcode": "HA4 7AN",
    "latitude": 51.57551,
    "longitude": -0.4261,
    "status": "open",
    "openingHours": "Mon-Sun: 07:00-22:00",
    "phone": "03300137720",
    "brand": "sainsburys"
  },
  {
    "id": "sainsburys-6172",
    "name": "Colindale Staton Loc Local",
    "address": "14 Charcot Road",
    "city": "London",
    "postcode": "NW9 5WU",
    "latitude": 51.59579,
    "longitude": -0.25117,
    "status": "open",
    "openingHours": "Mon-Sun: 07:00-23:00",
    "phone": "0330 013 7759",
    "brand": "sainsburys"
  },
  {
    "id": "sainsburys-10110644",
    "name": "South Ruislip",
    "address": "Long Drive",
    "city": "RUISLIP",
    "postcode": "HA4 0HQ",
    "latitude": 51.557,
    "longitude": -0.39615,
    "status": "open",
    "openingHours": "Mon-Wed: 10:00-18:00, Thu: 09:00-18:00, Fri: 09:00-17:00, Sat: 10:00-16:00, Sun: 10:00-18:00",
    "phone": "0345 6007124",
    "brand": "sainsburys"
  },
  {
    "id": "sainsburys-10210504",
    "name": "Pinner",
    "address": "12 Barters Walk",
    "city": "Pinner",
    "postcode": "HA5 5LU",
    "latitude": 51.59337,
    "longitude": -0.38079,
    "status": "open",
    "openingHours": "Mon-Thu: 08:00-21:00, Fri: 08:00-20:30, Sat: 10:00-16:00, Sun: 08:00-21:00",
    "phone": "020 8868 1399",
    "brand": "sainsburys"
  },
  {
    "id": "sainsburys-10210515",
    "name": "Edgware",
    "address": "Broadwalk Shopping Centre, Station Road",
    "city": "Edgware",
    "postcode": "HA8 7BQ",
    "latitude": 51.61193,
    "longitude": -0.27561,
    "status": "open",
    "openingHours": "Mon-Thu: 08:00-20:00, Fri: 08:00-19:30, Sat: 11:00-17:00, Sun: 08:00-20:00",
    "phone": "020 8905 6066",
    "brand": "sainsburys"
  },
  {
    "id": "sainsburys-10210644",
    "name": "South Ruislip",
    "address": "Long Drive",
    "city": "Ruislip",
    "postcode": "HA4 0HQ",
    "latitude": 51.557,
    "longitude": -0.39615,
    "status": "open",
    "openingHours": "Mon-Fri: 08:00-21:00, Sat: 10:00-16:00, Sun: 08:00-21:00",
    "phone": "020 8842 1225",
    "brand": "sainsburys"
  },
  {
    "id": "sainsburys-4572",
    "name": "Clndle Grahme Pk Loc Local",
    "address": "3 Heath Parade, Colindale",
    "city": "London",
    "postcode": "NW9 5ZN",
    "latitude": 51.59704,
    "longitude": -0.24488,
    "status": "open",
    "openingHours": "Mon-Sun: 07:00-23:00",
    "phone": "0330 013 7398",
    "brand": "sainsburys"
  },
  {
    "id": "sainsburys-4919",
    "name": "Queens Park Loc Local",
    "address": "105-109 Salusbury Road",
    "city": "London",
    "postcode": "NW6 6RG",
    "latitude": 51.53729,
    "longitude": -0.2063,
    "status": "open",
    "openingHours": "Mon-Sun: 07:00-23:00",
    "phone": "03300137590",
    "brand": "sainsburys"
  },
  {
    "id": "sainsburys-4959",
    "name": "GGrn Accomdtn Rd Loc Local",
    "address": "29-37 Golders Green Road",
    "city": "London",
    "postcode": "NW11 8EE",
    "latitude": 51.57204,
    "longitude": -0.1972,
    "status": "open",
    "openingHours": "Mon-Sun: 07:00-00:00",
    "phone": "0330 013 7627",
    "brand": "sainsburys"
  },
  {
    "id": "sainsburys-4996",
    "name": "West Hampstead Loc Local",
    "address": "204 West End Lane",
    "city": "London",
    "postcode": "NW6 1SG",
    "latitude": 51.55004,
    "longitude": -0.19114,
    "status": "open",
    "openingHours": "Mon-Sun: 07:00-23:00",
    "phone": "03300137656",
    "brand": "sainsburys"
  },
  {
    "id": "sainsburys-4291",
    "name": "Islgn Mercers Rd Loc Local",
    "address": "465 Holloway Road",
    "city": "London",
    "postcode": "N7 6BQ",
    "latitude": 51.56012,
    "longitude": -0.12341,
    "status": "open",
    "openingHours": "Mon-Sun: 07:00-23:00",
    "phone": "03300137187",
    "brand": "sainsburys"
  },
  {
    "id": "sainsburys-4932",
    "name": "Kentish Town Loc Local",
    "address": "329-333 Kentish Town Road",
    "city": "London",
    "postcode": "NW5 2TJ",
    "latitude": 51.55029,
    "longitude": -0.14115,
    "status": "open",
    "openingHours": "Mon-Sun: 07:00-23:00",
    "phone": "03300137602",
    "brand": "sainsburys"
  },
  {
    "id": "sainsburys-5067",
    "name": "Camdn Abbey Road Loc Local",
    "address": "206 - 198 Belsize Road",
    "city": "London",
    "postcode": "NW6 4DP",
    "latitude": 51.53966,
    "longitude": -0.18735,
    "status": "open",
    "openingHours": "Mon-Sun: 07:00-22:00",
    "phone": "03300137679",
    "brand": "sainsburys"
  },
  {
    "id": "sainsburys-5188",
    "name": "Camdn Prlmnt Hll Lcl Local",
    "address": "Unit 6 Spectrum House, 32-34 Gordon House Road",
    "city": "London",
    "postcode": "NW5 1LP",
    "latitude": 51.556,
    "longitude": -0.1484,
    "status": "open",
    "openingHours": "Mon-Sun: 07:00-23:00",
    "phone": "0345 600 4653",
    "brand": "sainsburys"
  },
  {
    "id": "sainsburys-5220",
    "name": "Maida Vle Shirlnd Rd Local",
    "address": "Sainsburys Local, 207 Shirland Road",
    "city": "London",
    "postcode": "W9 2EX",
    "latitude": 51.52788,
    "longitude": -0.19714,
    "status": "open",
    "openingHours": "Mon-Sun: 07:00-23:00",
    "phone": "0345 600 9346",
    "brand": "sainsburys"
  },
  {
    "id": "sainsburys-6270",
    "name": "Hmpstead High St Loc Local",
    "address": "35 Hampstead High Street",
    "city": "Hampstead",
    "postcode": "NW3 1QE",
    "latitude": 51.55621,
    "longitude": -0.1773,
    "status": "open",
    "openingHours": "Mon-Sun: 07:00-23:00",
    "phone": "03300137789",
    "brand": "sainsburys"
  },
  {
    "id": "sainsburys-10210612",
    "name": "Finchley Road",
    "address": "02 Centre, 255 Finchley Road",
    "city": "London",
    "postcode": "NW3 6LU",
    "latitude": 51.54802,
    "longitude": -0.182,
    "status": "open",
    "openingHours": "Mon-Thu: 08:00-20:00, Fri: 08:00-21:00, Sat: 11:00-17:00, Sun: 08:00-20:00",
    "phone": "020 7433 1493",
    "brand": "sainsburys"
  },
  {
    "id": "sainsburys-6160",
    "name": "Bhmwd Shenley Rd Loc Local",
    "address": "1 Shenley Road",
    "city": "Borehamwood",
    "postcode": "WD6 1AA",
    "latitude": 51.65421,
    "longitude": -0.27953,
    "status": "open",
    "openingHours": "Mon-Sun: 07:00-23:00",
    "phone": "0330 013 7753",
    "brand": "sainsburys"
  },
  {
    "id": "sainsburys-0017",
    "name": "Crayford",
    "address": "Stadium Way",
    "city": "Dartford",
    "postcode": "DA1 4HW",
    "latitude": 51.44917,
    "longitude": 0.17882,
    "status": "open",
    "openingHours": "Mon-Fri: 06:00-22:00, Sat: 10:00-16:00, Sun: 06:00-22:00",
    "phone": "01322 529254",
    "brand": "sainsburys"
  },
  {
    "id": "sainsburys-0145",
    "name": "Crayford PFS",
    "address": "Stadium Way",
    "city": "Dartford",
    "postcode": "DA1 4HW",
    "latitude": 51.45015,
    "longitude": 0.17777,
    "status": "open",
    "openingHours": "Mon-Fri: 06:00-23:00, Sat: 09:00-19:00, Sun: 06:00-23:00",
    "phone": "03300137899",
    "brand": "sainsburys"
  },
  {
    "id": "sainsburys-2042",
    "name": "Dartford",
    "address": "33 Priory Market Place, Priory Shopping Centre",
    "city": "Dartford",
    "postcode": "DA1 2HL",
    "latitude": 51.44383,
    "longitude": 0.21492,
    "status": "open",
    "openingHours": "Mon-Thu: 07:00-22:00, Fri: 07:00-21:00, Sat: 10:00-16:00, Sun: 07:00-22:00",
    "phone": "01322 291666",
    "brand": "sainsburys"
  },
  {
    "id": "sainsburys-2047",
    "name": "Bexleyheath",
    "address": "72 Broadway",
    "city": "Bexleyheath",
    "postcode": "DA6 7DF",
    "latitude": 51.45621,
    "longitude": 0.1491,
    "status": "open",
    "openingHours": "Mon-Fri: 07:00-20:00, Sat: 10:00-16:00, Sun: 07:00-20:00",
    "phone": "020 8298 0376",
    "brand": "sainsburys"
  },
  {
    "id": "sainsburys-4546",
    "name": "Bxhth Bramptn Rd Loc Local",
    "address": "Brampton Rd, Bexleyheath",
    "city": "London",
    "postcode": "DA7 5QR",
    "latitude": 51.47368,
    "longitude": 0.12672,
    "status": "open",
    "openingHours": "Mon-Sun: 07:00-23:00",
    "phone": "03300137374",
    "brand": "sainsburys"
  },
  {
    "id": "sainsburys-4602",
    "name": "Blvdre Nuxley Rd Loc Local",
    "address": "72 Nuxley Road",
    "city": "Belevedere",
    "postcode": "DA17 5JG",
    "latitude": 51.48177,
    "longitude": 0.14478,
    "status": "open",
    "openingHours": "Mon-Sun: 07:00-23:00",
    "phone": "03300137416",
    "brand": "sainsburys"
  },
  {
    "id": "sainsburys-4678",
    "name": "Brnhst Erith Rd Loc Local",
    "address": "308 Erith Road",
    "city": "Bexleyheath",
    "postcode": "DA7 6HJ",
    "latitude": 51.46688,
    "longitude": 0.15811,
    "status": "open",
    "openingHours": "Mon-Sun: 07:00-23:00",
    "phone": "03300137456",
    "brand": "sainsburys"
  },
  {
    "id": "sainsburys-4864",
    "name": "Avenue Rd Loc Local",
    "address": "81-87 Avenue Road",
    "city": "Bexleyheath",
    "postcode": "DA7 4EQ",
    "latitude": 51.46277,
    "longitude": 0.13182,
    "status": "open",
    "openingHours": "Mon-Sun: 07:00-22:00",
    "phone": "03300137552",
    "brand": "sainsburys"
  },
  {
    "id": "sainsburys-10110017",
    "name": "Crayford",
    "address": "Stadium Way",
    "city": "DARTFORD",
    "postcode": "DA1 4HW",
    "latitude": 51.44917,
    "longitude": 0.17882,
    "status": "open",
    "openingHours": "Mon-Wed: 10:00-18:00, Thu: 09:00-18:00, Fri: 09:00-17:00, Sat: 10:00-16:00, Sun: 10:00-18:00",
    "phone": "0345 0130963",
    "brand": "sainsburys"
  },
  {
    "id": "sainsburys-10210017",
    "name": "Crayford",
    "address": "Stadium Way",
    "city": "Dartford",
    "postcode": "DA1 4HW",
    "latitude": 51.44917,
    "longitude": 0.17882,
    "status": "open",
    "openingHours": "Mon-Thu: 08:00-21:30, Fri: 08:00-22:00, Sat: 10:00-16:00, Sun: 08:00-21:30",
    "phone": "01322 529254",
    "brand": "sainsburys"
  },
  {
    "id": "sainsburys-10212042",
    "name": "Dartford",
    "address": "33 Priory Market Place, Priory Shopping Centre",
    "city": "Dartford",
    "postcode": "DA1 2HL",
    "latitude": 51.44383,
    "longitude": 0.21492,
    "status": "open",
    "openingHours": "Mon-Fri: 08:00-20:00, Sat: 10:00-16:00, Sun: 08:00-20:00",
    "phone": "01322 291666",
    "brand": "sainsburys"
  },
  {
    "id": "sainsburys-10212047",
    "name": "Bexleyheath",
    "address": "72 Broadway",
    "city": "Bexleyheath",
    "postcode": "DA6 7DF",
    "latitude": 51.45621,
    "longitude": 0.1491,
    "status": "open",
    "openingHours": "Mon-Fri: 08:00-20:00, Sat: 10:00-16:00, Sun: 08:00-20:00",
    "phone": "020 8298 0376",
    "brand": "sainsburys"
  },
  {
    "id": "sainsburys-10610017",
    "name": "Crayford",
    "address": "Stadium Way",
    "city": "Dartford",
    "postcode": "DA1 4HW",
    "latitude": 51.44917,
    "longitude": 0.17882,
    "status": "open",
    "openingHours": "Mon-Fri: 09:00-18:00, Sat: 10:00-16:00, Sun: 09:00-18:00",
    "phone": "01322 470662",
    "brand": "sainsburys"
  },
  {
    "id": "sainsburys-0016",
    "name": "Wimbledon",
    "address": "8-12 Worple Road",
    "city": "London",
    "postcode": "SW19 4DD",
    "latitude": 51.421,
    "longitude": -0.20855,
    "status": "open",
    "openingHours": "Mon-Fri: 07:00-23:00, Sat: 11:00-17:00, Sun: 07:00-23:00",
    "phone": "020 8946 2210",
    "brand": "sainsburys"
  },
  {
    "id": "sainsburys-0038",
    "name": "North Cheam",
    "address": "566 London Road",
    "city": "Sutton",
    "postcode": "SM3 9AA",
    "latitude": 51.37181,
    "longitude": -0.22487,
    "status": "open",
    "openingHours": "Mon-Fri: 07:00-23:00, Sat: 10:00-16:00, Sun: 07:00-23:00",
    "phone": "020 8641 9638",
    "brand": "sainsburys"
  },
  {
    "id": "sainsburys-0102",
    "name": "Surbiton",
    "address": "50-58 Victoria Road",
    "city": "Surbiton",
    "postcode": "KT6 4NG",
    "latitude": 51.39153,
    "longitude": -0.30795,
    "status": "open",
    "openingHours": "Mon-Fri: 07:00-22:00, Sat: 10:00-16:00, Sun: 07:00-22:00",
    "phone": "020 8390 8544",
    "brand": "sainsburys"
  },
  {
    "id": "sainsburys-0329",
    "name": "Kingston",
    "address": "6-12 Eden Walk",
    "city": "Kingston Upon Thames",
    "postcode": "KT1 1BU",
    "latitude": 51.40972,
    "longitude": -0.30311,
    "status": "open",
    "openingHours": "Mon-Fri: 07:00-21:00, Sat: 11:00-17:00, Sun: 07:00-21:00",
    "phone": "020 8549 1072",
    "brand": "sainsburys"
  },
  {
    "id": "sainsburys-0495",
    "name": "North Cheam PFS",
    "address": "566 London Road",
    "city": "Sutton",
    "postcode": "SM3 9AA",
    "latitude": 51.37281,
    "longitude": -0.22471,
    "status": "open",
    "openingHours": "Mon-Sun: 06:30-23:00",
    "phone": "03300138028",
    "brand": "sainsburys"
  },
  {
    "id": "sainsburys-2053",
    "name": "Sury Basin",
    "address": "1 Sury Basin",
    "city": "Kingston Upon Thames",
    "postcode": "KT2 5NZ",
    "latitude": 51.4158,
    "longitude": -0.30296,
    "status": "open",
    "openingHours": "Mon-Fri: 07:00-22:00, Sat: 11:00-17:00, Sun: 07:00-22:00",
    "phone": "020 8974 8854",
    "brand": "sainsburys"
  },
  {
    "id": "sainsburys-2126",
    "name": "Morden",
    "address": "London Road",
    "city": "Morden",
    "postcode": "SM4 5HT",
    "latitude": 51.40319,
    "longitude": -0.19327,
    "status": "open",
    "openingHours": "Mon-Fri: 07:00-22:00, Sat: 10:00-16:00, Sun: 07:00-22:00",
    "phone": "020 8646 7850",
    "brand": "sainsburys"
  },
  {
    "id": "sainsburys-4103",
    "name": "Wnswth Merton Rd Loc Local",
    "address": "400 Durnsford Road",
    "city": "London",
    "postcode": "SW19 8DZ",
    "latitude": 51.43907,
    "longitude": -0.19758,
    "status": "open",
    "openingHours": "Mon-Sun: 07:00-23:00",
    "phone": "03300137052",
    "brand": "sainsburys"
  },
  {
    "id": "sainsburys-4116",
    "name": "Chessington Loc Local",
    "address": "10-14 North Parade",
    "city": "Chessington",
    "postcode": "KT9 1QF",
    "latitude": 51.36386,
    "longitude": -0.29906,
    "status": "open",
    "openingHours": "Mon-Fri: 07:00-23:00, Sat: 10:30-16:30, Sun: 07:00-23:00",
    "phone": "03300137061",
    "brand": "sainsburys"
  },
  {
    "id": "sainsburys-4138",
    "name": "Worcester Park Loc Local",
    "address": "1-15 Central Road",
    "city": "Worcester Park",
    "postcode": "KT4 8EG",
    "latitude": 51.37685,
    "longitude": -0.23866,
    "status": "open",
    "openingHours": "Mon-Sun: 07:00-22:00",
    "phone": "03300137074",
    "brand": "sainsburys"
  },
  {
    "id": "sainsburys-4191",
    "name": "Surbiton Stn Loc Local",
    "address": "Unit 2, Surbiton Railway Stn, Victoria Road",
    "city": "Surbiton",
    "postcode": "KT6 4PE",
    "latitude": 51.39257,
    "longitude": -0.30458,
    "status": "open",
    "openingHours": "Mon-Sun: 06:00-23:59",
    "phone": "03300137102",
    "brand": "sainsburys"
  },
  {
    "id": "sainsburys-4215",
    "name": "Sth Wmbldon Stn Loc Local",
    "address": "7 - 11 Kingston Road",
    "city": "London",
    "postcode": "SW19 1JX",
    "latitude": 51.41577,
    "longitude": -0.19324,
    "status": "open",
    "openingHours": "Mon-Sun: 07:00-23:00",
    "phone": "03300137118",
    "brand": "sainsburys"
  },
  {
    "id": "sainsburys-4217",
    "name": "Norbiton Stn Loc Local",
    "address": "Hanover House, 76 Coombe Road",
    "city": "Kingston Upon Thames",
    "postcode": "KT2 7AZ",
    "latitude": 51.41256,
    "longitude": -0.28338,
    "status": "open",
    "openingHours": "Mon-Thu: 06:30-23:00, Fri: 07:00-23:00, Sat: 07:00-22:30, Sun: 06:30-23:00",
    "phone": "03300137120",
    "brand": "sainsburys"
  },
  {
    "id": "sainsburys-4316",
    "name": "Surbitn Ewell Rd Loc Local",
    "address": "143 Ewell Road",
    "city": "Surbiton",
    "postcode": "KT6 6AW",
    "latitude": 51.38904,
    "longitude": -0.29738,
    "status": "open",
    "openingHours": "Mon-Sun: 07:00-23:00",
    "phone": "03300137206",
    "brand": "sainsburys"
  },
  {
    "id": "sainsburys-4334",
    "name": "Wt Msy Walton Rd Loc Local",
    "address": "464 Walton Road",
    "city": "West Molesey",
    "postcode": "KT8 2JG",
    "latitude": 51.40283,
    "longitude": -0.36917,
    "status": "open",
    "openingHours": "Mon-Sun: 07:00-23:00",
    "phone": "03300137220",
    "brand": "sainsburys"
  },
  {
    "id": "sainsburys-4373",
    "name": "Teddingtn Hgh St Loc Local",
    "address": "196 High Street Teddington, Teddington",
    "city": "London",
    "postcode": "TW11 8HU",
    "latitude": 51.42763,
    "longitude": -0.32571,
    "status": "open",
    "openingHours": "Mon-Sun: 07:00-23:00",
    "phone": "03300137251",
    "brand": "sainsburys"
  },
  {
    "id": "sainsburys-4385",
    "name": "Tlwrth Ewell Rd Loc Local",
    "address": "366 Ewell Road",
    "city": "Tolworth",
    "postcode": "KT6 7BF",
    "latitude": 51.38308,
    "longitude": -0.28876,
    "status": "open",
    "openingHours": "Mon-Sun: 07:00-23:00",
    "phone": "03300137263",
    "brand": "sainsburys"
  },
  {
    "id": "sainsburys-4420",
    "name": "Southfields Stn Loc Local",
    "address": "260-262 Wimbledon Park Road",
    "city": "London",
    "postcode": "SW19 6NL",
    "latitude": 51.44454,
    "longitude": -0.20716,
    "status": "open",
    "openingHours": "Mon-Fri: 07:00-23:00, Sat: 11:00-17:00, Sun: 07:00-23:00",
    "phone": "03300137292",
    "brand": "sainsburys"
  },
  {
    "id": "sainsburys-4459",
    "name": "Ryns Pk Wrple Rd Loc Local",
    "address": "213-215 Worple Road",
    "city": "London",
    "postcode": "SW20 8QY",
    "latitude": 51.41056,
    "longitude": -0.22976,
    "status": "open",
    "openingHours": "Mon-Sun: 07:00-23:00",
    "phone": "03300137325",
    "brand": "sainsburys"
  },
  {
    "id": "sainsburys-4821",
    "name": "Hampton Hill Loc Local",
    "address": "68-78 High Street, Hampton Hill",
    "city": "Hampton",
    "postcode": "TW12 1NY",
    "latitude": 51.42677,
    "longitude": -0.35573,
    "status": "open",
    "openingHours": "Mon-Sun: 07:00-23:00",
    "phone": "03300137534",
    "brand": "sainsburys"
  },
  {
    "id": "sainsburys-4974",
    "name": "Ldn Wimb'n B'Way Loc Local",
    "address": "120 The Broadway",
    "city": "London",
    "postcode": "SW19 1RH",
    "latitude": 51.4194,
    "longitude": -0.20013,
    "status": "open",
    "openingHours": "Mon-Sun: 07:00-23:00",
    "phone": "03300137640",
    "brand": "sainsburys"
  },
  {
    "id": "sainsburys-5059",
    "name": "Kstn Raeburn Ave Loc Local",
    "address": "118 Raeburn Avenue",
    "city": "Kingston Upon Thames",
    "postcode": "KT5 9EA",
    "latitude": 51.3901,
    "longitude": -0.2815,
    "status": "open",
    "openingHours": "Mon-Sun: 07:00-22:00",
    "phone": "03300137672",
    "brand": "sainsburys"
  },
  {
    "id": "sainsburys-5216",
    "name": "Hmptn Wick High St Local",
    "address": "59-61 High Street, Hampton Wick",
    "city": "Surrey",
    "postcode": "KT1 4DG",
    "latitude": 51.41386,
    "longitude": -0.31229,
    "status": "open",
    "openingHours": "Mon-Sun: 07:00-23:00",
    "phone": "0345 601 6396",
    "brand": "sainsburys"
  },
  {
    "id": "sainsburys-5238",
    "name": "New Maldn Cmbe Rd Local",
    "address": "9 Coombe Road",
    "city": "New Malden",
    "postcode": "KT34QG",
    "latitude": 51.4044,
    "longitude": -0.2567,
    "status": "open",
    "openingHours": "Mon-Sun: 07:00-23:00",
    "phone": "01777 804744",
    "brand": "sainsburys"
  },
  {
    "id": "sainsburys-6151",
    "name": "Kut Upper Ham rd Loc Local",
    "address": "19 Upper Ham Road",
    "city": "Ham",
    "postcode": "KT2 5QX",
    "latitude": 51.43129,
    "longitude": -0.30735,
    "status": "open",
    "openingHours": "Mon-Sun: 07:00-23:00",
    "phone": "03300137748",
    "brand": "sainsburys"
  },
  {
    "id": "sainsburys-6152",
    "name": "Hook Road Chsgtn Loc Local",
    "address": "324 Hook Road",
    "city": "Hook",
    "postcode": "KT9 1NU",
    "latitude": 51.3674,
    "longitude": -0.30715,
    "status": "open",
    "openingHours": "Mon-Sun: 06:30-23:00",
    "phone": "03300137749",
    "brand": "sainsburys"
  },
  {
    "id": "sainsburys-6161",
    "name": "Mordn Martin Way Loc Local",
    "address": "198- 202 Martin Way",
    "city": "Morden",
    "postcode": "SM4 4AJ",
    "latitude": 51.40269,
    "longitude": -0.20993,
    "status": "open",
    "openingHours": "Mon-Sun: 07:00-23:00",
    "phone": "03300137754",
    "brand": "sainsburys"
  },
  {
    "id": "sainsburys-6164",
    "name": "Putney Dyers Lne Loc Local",
    "address": "408 Upper Richmond Road West",
    "city": "London",
    "postcode": "SW15 6JP",
    "latitude": 51.46404,
    "longitude": -0.23304,
    "status": "open",
    "openingHours": "Mon-Wed: 08:00-22:30, Thu: 07:30-23:00, Fri: 08:00-23:00, Sat: 08:00-22:00, Sun: 08:00-22:30",
    "phone": "03300137757",
    "brand": "sainsburys"
  },
  {
    "id": "sainsburys-6217",
    "name": "Kgstn Penrhyn Rd Loc Local",
    "address": "77 Penrhyn Road",
    "city": "Kingston Upon Thames",
    "postcode": "KT1 2EQ",
    "latitude": 51.40238,
    "longitude": -0.3043,
    "status": "open",
    "openingHours": "Mon-Sun: 07:00-23:00",
    "phone": "03300137778",
    "brand": "sainsburys"
  },
  {
    "id": "sainsburys-10110038",
    "name": "North Cheam",
    "address": "566 London Road",
    "city": "SUTTON",
    "postcode": "SM3 9AA",
    "latitude": 51.37181,
    "longitude": -0.22487,
    "status": "open",
    "openingHours": "Mon-Thu: 09:00-19:00, Fri: 09:00-17:00, Sat: 10:00-16:00, Sun: 09:00-19:00",
    "phone": "0345 0130972",
    "brand": "sainsburys"
  },
  {
    "id": "sainsburys-10210038",
    "name": "North Cheam",
    "address": "566 London Road",
    "city": "Sutton",
    "postcode": "SM3 9AA",
    "latitude": 51.37181,
    "longitude": -0.22487,
    "status": "open",
    "openingHours": "Mon-Thu: 08:00-20:00, Fri: 08:00-21:00, Sat: 10:00-16:00, Sun: 08:00-20:00",
    "phone": "020 8641 9638",
    "brand": "sainsburys"
  },
  {
    "id": "sainsburys-10212053",
    "name": "Sury Basin",
    "address": "1 Sury Basin",
    "city": "Kingston Upon Thames",
    "postcode": "KT2 5NZ",
    "latitude": 51.4158,
    "longitude": -0.30296,
    "status": "open",
    "openingHours": "Mon-Fri: 08:00-20:00, Sat: 11:00-17:00, Sun: 08:00-20:00",
    "phone": "020 8974 8854",
    "brand": "sainsburys"
  },
  {
    "id": "sainsburys-2331",
    "name": "Sutton",
    "address": "287a High Street, Sutton",
    "city": "Surrey",
    "postcode": "SM1 1LD",
    "latitude": 51.3692,
    "longitude": -0.19519,
    "status": "open",
    "openingHours": "Mon-Fri: 07:00-23:00, Sat: 10:00-16:00, Sun: 07:00-23:00",
    "phone": "0203 1266827",
    "brand": "sainsburys"
  },
  {
    "id": "sainsburys-4484",
    "name": "Wdswt E'Ptny Stn Loc Local",
    "address": "74 Upper Richmond Road",
    "city": "London",
    "postcode": "SW15 2SU",
    "latitude": 51.45914,
    "longitude": -0.20916,
    "status": "open",
    "openingHours": "Mon-Sun: 07:00-23:00",
    "phone": "03300137346",
    "brand": "sainsburys"
  },
  {
    "id": "sainsburys-4485",
    "name": "Morden Centrl Rd Loc Local",
    "address": "144 Central Road, Morden",
    "city": "London",
    "postcode": "SM4 5RL",
    "latitude": 51.39514,
    "longitude": -0.19413,
    "status": "open",
    "openingHours": "Mon-Sun: 07:00-23:00",
    "phone": "03300137347",
    "brand": "sainsburys"
  },
  {
    "id": "sainsburys-4828",
    "name": "Wworth StJohns H Loc Local",
    "address": "165-167 St. John's Hill",
    "city": "London",
    "postcode": "SW11 1TQ",
    "latitude": 51.46009,
    "longitude": -0.17727,
    "status": "open",
    "openingHours": "Mon-Sun: 07:00-23:00",
    "phone": "03300137541",
    "brand": "sainsburys"
  },
  {
    "id": "sainsburys-4917",
    "name": "Wndswrth Old Yrk Loc Local",
    "address": "527-529 Old York Road",
    "city": "London",
    "postcode": "SW18 1TG",
    "latitude": 51.4599,
    "longitude": -0.18873,
    "status": "open",
    "openingHours": "Mon-Fri: 06:30-23:00, Sat: 07:00-23:00, Sun: 06:30-23:00",
    "phone": "03300137588",
    "brand": "sainsburys"
  },
  {
    "id": "sainsburys-4929",
    "name": "Earlsfield LL Local",
    "address": "282 Magdalen Road",
    "city": "London",
    "postcode": "SW18 3NY",
    "latitude": 51.44216,
    "longitude": -0.18718,
    "status": "open",
    "openingHours": "Mon-Thu: 06:30-23:00, Fri: 07:00-23:00, Sat: 11:00-17:00, Sun: 06:30-23:00",
    "phone": "03300137599",
    "brand": "sainsburys"
  },
  {
    "id": "sainsburys-4979",
    "name": "Ldn Haydons Road Loc Local",
    "address": "102 Haydons Road",
    "city": "London",
    "postcode": "SW19 1AW",
    "latitude": 51.42011,
    "longitude": -0.18719,
    "status": "open",
    "openingHours": "Mon-Sun: 07:00-23:00",
    "phone": "03300137643",
    "brand": "sainsburys"
  },
  {
    "id": "sainsburys-4993",
    "name": "Clpm Abblle Rd Loc Local",
    "address": "36-38 Abbeville Road",
    "city": "London",
    "postcode": "SW4 9NG",
    "latitude": 51.45425,
    "longitude": -0.13982,
    "status": "open",
    "openingHours": "Mon-Sun: 07:00-23:00",
    "phone": "03300137653",
    "brand": "sainsburys"
  },
  {
    "id": "sainsburys-4995",
    "name": "Fm Wdswrth Br Rd Loc Local",
    "address": "132 Wandsworth Bridge Road",
    "city": "London",
    "postcode": "SW6 2UL",
    "latitude": 51.47236,
    "longitude": -0.19187,
    "status": "open",
    "openingHours": "Mon-Sun: 07:00-23:00",
    "phone": "03300137655",
    "brand": "sainsburys"
  },
  {
    "id": "sainsburys-5123",
    "name": "Wndswth Sprngfld Plc Local",
    "address": "18 A Springfield Drive",
    "city": "London",
    "postcode": "SW17 0AZ",
    "latitude": 51.43853,
    "longitude": -0.1706,
    "status": "open",
    "openingHours": "Mon-Sun: 07:00-23:00",
    "phone": "07857172963",
    "brand": "sainsburys"
  },
  {
    "id": "sainsburys-5173",
    "name": "Clapham Northcote Rd Local",
    "address": "15-17 Northcote Road, Battersea",
    "city": "London",
    "postcode": "SW11 1NG",
    "latitude": 51.46024,
    "longitude": -0.16653,
    "status": "open",
    "openingHours": "Mon-Fri: 07:00-23:00, Sat: 12:00-18:00, Sun: 07:00-23:00",
    "phone": "03456004883",
    "brand": "sainsburys"
  },
  {
    "id": "sainsburys-0204",
    "name": "Hampton",
    "address": "30 Tangley Park Road",
    "city": "Hampton",
    "postcode": "TW12 3YH",
    "latitude": 51.42637,
    "longitude": -0.37767,
    "status": "open",
    "openingHours": "Mon-Fri: 07:00-20:30, Sat: 10:00-16:00, Sun: 07:00-20:30",
    "phone": "020 8979 4404",
    "brand": "sainsburys"
  },
  {
    "id": "sainsburys-0219",
    "name": "St Clares PFS",
    "address": "303 Uxbridge Road, Hampton Hill",
    "city": "Hampton",
    "postcode": "TW12 1AW",
    "latitude": 51.4351,
    "longitude": -0.37582,
    "status": "open",
    "openingHours": "Mon-Thu: 06:30-22:30, Fri: 06:30-21:30, Sat: 08:00-20:00, Sun: 06:30-22:30",
    "phone": "03300138076",
    "brand": "sainsburys"
  },
  {
    "id": "sainsburys-0661",
    "name": "St Clares",
    "address": "303 Uxbridge Road, Hampton Hill",
    "city": "Hampton",
    "postcode": "TW12 1AW",
    "latitude": 51.43427,
    "longitude": -0.37533,
    "status": "open",
    "openingHours": "Mon-Thu: 07:00-22:00, Fri: 07:00-21:00, Sat: 10:00-16:00, Sun: 07:00-22:00",
    "phone": "020 8941 7571",
    "brand": "sainsburys"
  },
  {
    "id": "sainsburys-10110661",
    "name": "St Clares",
    "address": "303 Uxbridge Road, Hampton Hill",
    "city": "Hampton",
    "postcode": "TW12 1AW",
    "latitude": 51.43427,
    "longitude": -0.37533,
    "status": "open",
    "openingHours": "Mon-Wed: 10:00-18:00, Thu: 09:00-18:00, Fri: 09:00-17:00, Sat: 10:00-16:00, Sun: 10:00-18:00",
    "phone": "0345 0130821",
    "brand": "sainsburys"
  },
  {
    "id": "sainsburys-10210661",
    "name": "St Clares",
    "address": "303 Uxbridge Road, Hampton Hill",
    "city": "Hampton",
    "postcode": "TW12 1AW",
    "latitude": 51.43427,
    "longitude": -0.37533,
    "status": "open",
    "openingHours": "Mon-Thu: 08:00-21:00, Fri: 08:00-20:00, Sat: 10:00-16:00, Sun: 08:00-21:00",
    "phone": "020 8941 7571",
    "brand": "sainsburys"
  }
]